names,population,state_code,lat,lon
aaron,,18,-12.75,34.2166667
aaron,,21,-11.2,33.8333333
abel chunga,,15,-12.1666667,33.4833333
abele,,11,-14.1333333,33.6666667
abindanjoke,,20,-13.4,33.9
abisai,,22,-13.7833333,34.4666667
abraham,,13,-13.65,33.1666667
abute,,13,-13.75,33.1
adam,,04,-9.5166667,33.2166667
agabu,,16,-14.6,34.7666667
agamonje,,07,-13.5166667,33.8666667
agrippa jere,,21,-11.4333333,33.35
akoyo,,21,-11.0166667,33.9166667
akubilila,,16,-14.75,34.8166667
alamu,,09,-12.5666667,33.45
alexander liti,,23,-15.3333333,35.4166667
alick chisi,,15,-11.9333333,33.6
alick cisi,,15,-11.9333333,33.6
alick ndawandawa,,15,-11.9333333,33.55
alifandaka,,19,-17.0666667,35.0833333
ali kanyenda,,18,-12.9666667,34.2666667
alikishani,,09,-12.6833333,33.6666667
alimenda,,02,-16.2166667,34.6666667
alufasi,,05,-16.4666667,34.95
alumenda,,02,-16.2,34.7166667
amadzi,,11,-14.0333333,33.4666667
amazi,,09,-12.7666667,33.3666667
ambale phaso,,18,-12.5833333,34.1666667
amenta,,11,-14.2,33.9833333
amon,,20,-13.3666667,33.8666667
amoni,,15,-12.2,33.9166667
amonis,,09,-13.1833333,33.5833333
amon munthali,,21,-11.35,33.5
amos zakocera,,09,-13.1166667,33.4666667
amozi,,13,-13.6833333,33.0833333
andama,,13,-13.6666667,33.2333333
andreya,,06,-14.4333333,34.1
anoki mkhere,,15,-11.85,33.6833333
antonio,,13,-13.85,33.2333333
arfairyu,,04,-9.6166667,33.3333333
asembe,,07,-13.6833333,33.7333333
augustino,,18,-13.0833333,34.3166667
austeni,,26,-14.7666667,34.9166667
azimbare,,11,-14.25,33.7
azyuda,,02,-16.1666667,34.75
baghaya,,21,-11.0,33.9166667
bakali,,12,-14.6666667,35.4166667
bakhili,,28,-14.6833333,35.8166667
bakile,,12,-13.9833333,35.1666667
balaka,18907,26,-14.9833333,34.95
balaka,,28,-14.9666667,35.5
balakas,,26,-14.9166667,34.8333333
balakasi,,23,-15.4833333,35.35
balala,,05,-16.45,34.95
bana,,18,-12.4,34.1166667
banda,,09,-12.6333333,33.6666667
banda,,26,-14.8333333,34.9
bandawe,,17,-11.95,34.1666667
bandawe,,22,-13.6833333,34.5833333
bande,,20,-13.45,33.95
bangani,,06,-14.2333333,34.6166667
bang,,20,-13.2166667,34.2833333
bango,,06,-14.35,34.0333333
bango,,09,-12.55,33.4166667
bani,,06,-14.4166667,34.1333333
banja,,12,-14.6666667,35.7333333
banja,,20,-13.2166667,34.0
bano,,09,-13.1166667,33.5333333
baquira,,12,-13.9,35.1833333
barton jere,,21,-11.2166667,33.8833333
barton mzima,,21,-11.2166667,33.8166667
bartumeyo tembo,,15,-12.15,33.4
basikolo,,15,-12.15,33.6166667
basopo lungu,,15,-11.7666667,33.4333333
batamu hande,,21,-11.35,33.4166667
bawa banda,,15,-12.15,33.3333333
bechani,,09,-12.55,33.3833333
bechani,,13,-13.8833333,33.0333333
belekia,,15,-12.1666667,33.8166667
bemberi,,11,-13.7666667,33.5333333
ben,,11,-14.3833333,33.7333333
benga,,20,-13.3666667,34.2833333
beni,,13,-13.6833333,33.25
benula,,09,-12.75,33.55
besera,,07,-13.65,33.8833333
biambiri mramu,,21,-11.4666667,33.7166667
bibi,,22,-13.6166667,34.5333333
bikivai,,13,-13.5166667,33.2
bilale,,09,-13.05,33.3833333
bile,,05,-16.4166667,34.8666667
billiate,,16,-15.05,34.6
billiati,,16,-15.05,34.6
bimbi,,23,-15.3,35.4833333
bimpi,,07,-13.6333333,34.0
bingo,,22,-13.7666667,34.4166667
bisa,,18,-12.45,33.85
bisa,,20,-13.4666667,33.95
bisai,,11,-14.2,33.95
bisenti,,19,-16.9833333,35.3
bitchilipa,,26,-14.7166667,34.9333333
biti kalanje,,12,-14.2833333,35.25
bitoni karuwa,,15,-12.1333333,33.4
biwi,,11,-14.1833333,33.9666667
biwi,,20,-13.3833333,34.0666667
biwi mazamba,,11,-14.1333333,33.7333333
biwi mzamba,,11,-14.1333333,33.7333333
biza,,03,-15.5333333,35.2166667
blair,,05,-16.0833333,35.1
blantyre,584870,24,-15.7833333,35.0
boghoyo,,21,-11.1,34.2333333
bokosi,,09,-12.6,33.4
bokosi dindi,,15,-11.9333333,33.5
bokosi kunga,,15,-11.9666667,33.6666667
bolero,,21,-10.9833333,33.75
bomombo,,09,-12.7333333,33.65
bonda,,13,-13.65,33.3333333
bondo,,09,-12.9,33.7833333
bondo,,15,-12.3,33.9666667
bondo,,18,-12.3,34.0166667
bonga,,16,-14.6,34.55
bongera,,13,-13.7666667,33.05
bongoya,,15,-12.1666667,33.4
bongwe,,23,-15.45,35.4166667
boni,,09,-12.5,33.5166667
bonongwe,,05,-15.9833333,35.2
bota,,21,-11.2666667,33.4
boti,,15,-11.6166667,33.5
boti,,20,-13.0,33.8166667
boti kumwenda,,15,-11.55,33.4833333
bowa,,11,-13.7833333,33.75
bowa,,18,-12.5333333,34.1166667
bowmande,,07,-13.7333333,33.6833333
budu,,12,-14.5,35.6
buku,,09,-12.8,33.3833333
bula,,16,-14.8666667,34.7666667
bulala,,15,-11.6666667,33.4166667
buluzi,,11,-14.0666667,33.7833333
bumba,,21,-11.0166667,33.8333333
bumphola,,20,-13.1333333,33.9166667
bunganiro,,08,-10.3166667,34.0333333
bunyenga,,16,-14.7833333,34.7666667
burnett,,30,-15.3,35.8166667
butani,,17,-11.3666667,34.2666667
butani nyirenda,,21,-11.1666667,33.5833333
butari,,21,-11.1833333,34.2
bwala,,20,-13.3166667,34.1166667
bwamba,,11,-14.0166667,33.75
bwanaisa,,30,-15.8166667,35.6333333
bwanali,,09,-13.1166667,33.5
bwanali,,12,-14.5833333,35.35
bwanasompho,,24,-15.8,34.9166667
bwanthuwa,,17,-11.4833333,34.2
bwatalika,,11,-13.9833333,33.5666667
bwemba,,05,-16.4166667,34.9166667
bwengu,,21,-11.0666667,33.9166667
bweteka,,17,-11.2666667,34.2166667
bweteka village,,17,-11.2666667,34.2166667
bwetweha,,17,-11.2666667,34.2166667
bweya,,09,-13.25,33.6166667
bwikito,,17,-11.4333333,34.2666667
cabvula,,13,-13.4333333,33.2833333
cabwedzeka,,02,-16.1166667,34.6
cacecedza,,06,-14.3833333,34.1833333
cadzowa,,11,-13.8333333,33.5166667
caera,,03,-15.7,35.4
caera,,06,-14.1,34.3333333
cafwamba,,09,-12.8833333,33.3166667
cagweluka,,09,-12.95,33.5166667
cakulembera,,25,-15.3,34.6
cakutola,,18,-12.8666667,33.9333333
cakuzizwa,,09,-12.55,33.5166667
cakwanika,,09,-12.5,33.6166667
cakwawa,,09,-12.7666667,33.4
cakwila,,09,-12.6,33.3
camama,,09,-12.9,33.55
camau,,16,-14.5833333,34.5333333
cambalekani,,09,-12.5666667,33.35
caola,,09,-12.7666667,33.3833333
capamba,,09,-12.8333333,33.8
cape maclear,,12,-14.0166667,34.85
caphuka,,09,-12.5833333,33.3
capuhkwa,,11,-14.3833333,33.9
capuka,,12,-14.7,35.55
capwawa,,09,-12.7,33.6
cardi,,04,-9.6166667,33.5666667
casamwalala,,22,-13.65,34.3333333
cassapa,,25,-15.6333333,34.6166667
casuka,,13,-14.0333333,33.3166667
cavunguma,,09,-12.8166667,33.35
cavura,,09,-12.7333333,33.4666667
cavwelema,,09,-12.8,33.6833333
cawala,,13,-13.5833333,32.95
cawanje,,16,-14.65,34.8333333
cawola,,09,-12.7333333,33.4
celemu,,26,-14.8,35.0
cendesula,,15,-12.3166667,33.9833333
cesalino,,22,-13.7,34.2833333
chabuka,,20,-13.4,33.8666667
chabwela,,28,-14.95,35.4333333
chabwera,,13,-13.8833333,33.0333333
chadagha,,17,-11.4833333,34.2666667
chadika,,11,-14.3,33.8833333
chadza,,07,-13.7333333,33.8833333
chadza,,11,-14.1833333,33.8333333
chadza,,13,-14.1,33.3666667
chadza mkwenda,,11,-14.1833333,33.8333333
chadza nkhwenda,,11,-14.1833333,33.8333333
chadzuka,,13,-14.0333333,33.3166667
chafudzika,,02,-16.1333333,34.65
chafukira,,09,-12.7833333,33.5
chafumbwa,,11,-14.3833333,33.9
chafumukwa,,13,-13.5166667,33.0833333
chagambatuka,,02,-16.1166667,34.8833333
chagocha,,13,-13.6333333,33.1333333
chagogo,,11,-14.0666667,33.8333333
chaguza,,07,-13.5666667,33.8666667
chagwalugwa,,06,-14.45,34.0833333
chagwambala,,08,-10.25,33.6666667
chaima,,09,-13.3166667,33.4833333
chaima,,13,-13.4333333,33.3
chaiso ndhlovu,,15,-11.7333333,33.3833333
chakalira,,13,-13.6666667,33.2666667
chakanza,,05,-16.3,35.0666667
chakapama,,13,-13.6166667,33.15
chakasa,,20,-13.4333333,33.6333333
chakazika,,20,-13.5333333,33.4833333
chakhala,,09,-13.3166667,33.5
chakhala ii,,09,-13.3166667,33.3333333
chakhame,,28,-14.9666667,35.8666667
chakhaza,,07,-13.65,33.7333333
chakhaza,,20,-13.4166667,33.6333333
chakhumbira,,05,-16.2833333,34.9333333
chakhumbira,,16,-14.5666667,34.7
chakongwa,,09,-13.1833333,33.6666667
chakuma,,07,-13.65,33.9833333
chakupompha,,17,-11.7333333,33.9666667
chakuwara,,13,-13.7166667,33.15
chakuzamutu,,13,-14.0666667,33.3666667
chakwanila,,11,-14.05,33.7666667
chakwawa,,20,-13.55,33.5833333
chale,,20,-13.4,33.8166667
chalendewa,,11,-14.1,33.7833333
chalera,,06,-14.25,34.0833333
chaletuwa,,19,-16.5833333,34.9
chali,,25,-15.7333333,34.4
chalilima,,13,-13.8333333,33.0166667
chalilo,,11,-14.0666667,33.9833333
chalotwa,,15,-12.2166667,33.3333333
chalunda,,22,-13.8166667,34.4666667
chamadenga,,11,-14.1666667,33.9
chamaka,,19,-16.8666667,35.2833333
chamakala,,09,-12.75,33.4666667
chamama,,09,-12.9333333,33.8
chamande,,23,-15.4,35.3833333
chamanga,,02,-16.3833333,34.7166667
chamara,,02,-16.1,34.6
chamatete,,21,-10.9166667,33.4833333
chamawoya,,17,-11.5333333,34.1
chamba,,24,-15.9,34.9166667
chamba,,28,-14.7833333,35.4
chambala,,13,-13.6666667,33.4333333
chambamkuya,,20,-13.4,34.0666667
chambukira,,11,-13.9833333,33.7333333
chambuluka,,02,-16.4666667,34.7666667
chambwe,,07,-13.6666667,33.7666667
chambwe,,09,-13.2,33.65
chambwe,,13,-13.55,33.4333333
chamera,,02,-16.1,34.6
chamkoma,,07,-13.65,34.0
chamkoma,,09,-13.35,33.4166667
chamkoma,,11,-14.35,33.65
chamkoma,,20,-13.45,34.2833333
chamonsi,,11,-13.9666667,33.9166667
champira,,15,-12.3333333,33.6166667
champongo,,06,-14.4666667,34.0666667
chamuhanya gondwe,,21,-11.4333333,33.6
chamvu,,07,-13.6,33.9833333
chamyeka,,13,-13.8333333,32.95
chana,,22,-13.8666667,34.4833333
chanasa,,30,-15.8333333,35.55
chandamana mwandira,,15,-11.6333333,33.4833333
chande,,23,-15.4833333,35.4666667
chandiwira moyo,,21,-11.0666667,33.9166667
chandiwu,,20,-13.45,33.6166667
changali,,12,-14.7166667,35.1666667
changalis village,,12,-14.7166667,35.1666667
changaluwa,,09,-13.2166667,33.35
chanika,,18,-12.9333333,34.1833333
chankakhala,,07,-13.6333333,33.5166667
chankhamatete,,17,-11.8333333,34.0166667
chanunkha shawa,,15,-11.8833333,33.55
chanza,,30,-15.8333333,35.55
chaola,,07,-13.65,34.0666667
chaolamokanda,,20,-13.4333333,33.8666667
chaonanjiwa,,02,-16.4166667,34.7666667
chaowa,,07,-13.7166667,33.85
chapalapula,,20,-13.3,33.9833333
chapanza,,07,-13.7,33.8166667
chapanzi,,13,-13.75,32.85
chapasuka,,15,-12.2833333,33.95
chapata,,11,-14.0666667,33.8
chapendeha,,11,-14.1333333,33.7166667
chapewa,,13,-13.9666667,33.2166667
chapita,,13,-13.6833333,33.2333333
chapola,,12,-14.2666667,35.2333333
chapola,,23,-15.3333333,35.4833333
chapsinja,,11,-14.1666667,33.7
chapu,,19,-17.0,35.2833333
chapuma,,20,-13.4166667,33.6
chapumbwa,,17,-11.6166667,34.25
chapuwala,,09,-13.3166667,33.55
chapwaitika,,11,-14.0833333,33.8333333
charenga,,11,-13.9666667,33.65
charinda,,13,-13.6166667,33.3
chaseta,,20,-13.3,33.9166667
chaseta,,22,-13.9333333,34.35
chasowa,,11,-14.2,33.6
chasuka,,19,-16.85,35.3
chataghara munthari,,21,-11.0166667,34.1166667
chataika,,19,-16.9166667,35.2666667
chataika,,22,-13.6333333,34.3666667
chatalala,,09,-13.3166667,33.4833333
chatama,,20,-13.3333333,33.7333333
chatambalala,,07,-13.6666667,34.0166667
chatanga,,07,-13.65,33.5166667
chatanga,,13,-13.45,33.15
chateka chipamphale,,13,-13.7666667,33.35
chatewa,,20,-13.4,33.7333333
chatile,,20,-13.4166667,34.1
chatupa,,17,-11.85,34.1666667
chautela,,21,-10.6666667,34.0833333
chauwa,,07,-13.7333333,33.9
chavara,,24,-15.8333333,34.8333333
chavina,,13,-13.55,33.3833333
chavukuka,,17,-11.65,34.2166667
chavura,,09,-12.8166667,33.6333333
chawala,,11,-14.2666667,33.9
chawala,,13,-13.55,32.9666667
chawala,,18,-12.55,34.1666667
chawa mvula,,21,-11.1833333,33.5166667
chawanda,,20,-13.4333333,33.9166667
chawanta,,13,-14.1166667,33.35
chawesa,,30,-15.5333333,35.5833333
chawosa,,30,-15.5333333,35.5833333
chawuluma jere,,21,-11.4833333,33.7166667
chawuwa,,02,-16.2333333,34.6666667
chawuwa,,13,-13.7,33.45
chazama,,07,-13.5666667,33.9
chazama,,20,-13.35,34.0666667
chaziya,,11,-13.7166667,33.55
chazuka,,18,-12.45,34.1833333
chazuka,,19,-16.85,35.3
checufikene,,06,-14.4,34.2833333
checufikeni,,06,-14.4,34.2833333
chelonga,,21,-10.45,34.1666667
chembe,,12,-14.0166667,34.85
chemlima,,22,-13.7666667,34.4
chendo,,04,-9.8666667,33.4
chenje,,20,-13.2,33.7
chenyentha,,17,-11.8,34.2
cherinda,,12,-13.7166667,35.0833333
chesen,,20,-13.4333333,33.7166667
chesenda,,23,-15.35,35.4666667
chewe,,04,-9.5333333,33.35
chewesa,,20,-13.25,33.7833333
cheza,,26,-14.9333333,34.8
chia,,18,-12.5333333,34.1833333
chiam,,11,-14.3,33.8333333
chibaka,,17,-11.65,34.25
chibako,,17,-11.9666667,34.0833333
chibamba,,15,-12.35,33.6333333
chibara,,17,-12.0,34.0666667
chibene,,20,-13.3833333,33.9166667
chibeni,,11,-14.0333333,33.85
chibisa,,09,-12.9833333,33.45
chibisa,,20,-13.45,33.8333333
chibisa chirwa,,15,-11.6666667,33.3166667
chiboko,,18,-12.8166667,34.25
chibotero,,20,-13.2666667,34.2833333
chibuli,,19,-17.1166667,35.15
chibungo,,13,-13.7333333,33.1166667
chibungu,,11,-13.9666667,33.45
chibunyu,,09,-13.1333333,33.45
chibwana,,15,-12.1666667,33.6833333
chibwana,,18,-12.6333333,34.1666667
chibwana,,28,-14.7833333,35.4
chibwana mgemezulu,,15,-11.9666667,33.7166667
chibwana mukhalipi,,15,-11.7166667,33.3333333
chibwana nyangu,,15,-11.6833333,33.7333333
chibwanateka,,20,-13.25,33.8
chibwinja,,11,-13.9333333,33.9
chichiri,,24,-15.8,35.05
chichitike,,13,-13.7,33.3333333
chickalamba,,21,-11.0166667,33.85
chickumbeni,,23,-15.4333333,35.3
chico,,20,-13.4666667,34.0166667
chicoleca,,25,-15.6666667,34.4166667
chiculungueni,,06,-14.4666667,34.0333333
chidakwende,,20,-13.3166667,33.7166667
chidambo,,20,-13.3833333,33.9833333
chidatha,,20,-13.35,33.8333333
chiderezi,,09,-13.3,33.2333333
chideru,,17,-11.5,34.15
chidikha,,19,-16.9,35.1833333
chidiwo,,21,-10.6666667,34.0833333
chidote,,23,-15.4666667,35.2833333
chidothe,,23,-15.4333333,35.2833333
chidothe,,28,-14.7666667,35.8
chidothi,,07,-13.6666667,34.1333333
chidumayo,,15,-11.5333333,33.5666667
chidumayo lusale,,15,-11.75,33.7
chidumayo nguruwe,,15,-11.5,33.5666667
chidyaonga,,23,-15.4833333,35.3166667
chidzunda,,11,-13.7166667,33.55
chiembekeza,,25,-15.3166667,34.6
chiendausiku,,26,-15.0166667,35.0666667
chifipo,,13,-13.35,33.1333333
chifisa,,20,-13.1666667,33.85
chifomboti,,13,-13.55,33.2333333
chifuwa,,21,-11.2833333,33.7666667
chifya kandulu chibere,,17,-11.7,34.3166667
chigadula,,17,-12.2833333,34.0333333
chigamba,,07,-13.5833333,34.0333333
chiganda,,07,-13.55,33.9333333
chigaru,,26,-15.3666667,34.9333333
chigaule,,15,-12.2166667,33.55
chigawa,,07,-13.7,33.8833333
chighachangombe,,17,-11.6,34.25
chigoma,,20,-13.4166667,33.5666667
chigoneka,,11,-13.95,33.75
chigude,,15,-12.2666667,33.5833333
chiguluwindi,,17,-12.1,34.7333333
chigwata,,02,-16.0166667,34.5
chigwere,,17,-11.3666667,34.0833333
chijere,,17,-11.5333333,34.1166667
chikabwereza,,23,-15.3833333,35.4166667
chika,,09,-13.2833333,33.55
chikadya,,16,-14.6333333,34.7833333
chikalema,,25,-15.4333333,34.5666667
chikalipo,,09,-13.15,33.65
chikanda,,09,-13.1166667,33.7333333
chikanda,,11,-14.1833333,33.8833333
chikanda,,22,-13.9166667,34.4666667
chikanda,,23,-15.4,35.3333333
chikandira,,11,-14.3333333,33.85
chikanga,,21,-11.0333333,34.0166667
chikangawa,,15,-11.8333333,33.8
chikanje,,18,-12.4833333,34.0833333
chikao,,19,-16.7666667,35.2833333
chikaola,,22,-13.65,34.3166667
chikapu moyo,,15,-11.8333333,33.35
chikasauka,,20,-13.4166667,33.7166667
chikaso,,13,-13.7,33.05
chikhadwe,,07,-13.75,33.8166667
chikhangombe,,18,-12.9,33.85
chikhawo,,19,-16.7666667,35.2833333
chikho,,20,-13.3833333,34.0833333
chikhoko,,17,-11.9,34.1666667
chikhu,,22,-13.5333333,34.3833333
chikhumbi,,15,-12.35,33.6833333
chikhungwa,,20,-13.4,33.85
chikhuta,,07,-13.7333333,33.6666667
chikhwakhwa,,20,-13.4,33.8
chikiwowe,,18,-13.1333333,34.2833333
chikobwi,,20,-13.4,33.7
chikojo,,28,-14.7166667,35.6166667
chikoko,,13,-13.4833333,33.4
chikoli,,17,-12.0666667,34.7333333
chikomakuka,,20,-13.4333333,33.6833333
chikoma nyanjala,,21,-11.3333333,33.4166667
chikombe,,18,-12.8333333,34.2166667
chikombwe,,04,-9.6166667,33.4
chikombwi,,04,-9.6166667,33.4
chikomeni thore,,15,-12.0666667,33.55
chikondawanga,,17,-11.5333333,34.1333333
chikondawanga lusale,,15,-12.0,33.5833333
chikonde,,07,-13.75,33.7333333
chikoti,,13,-13.5333333,33.2
chikowanje,,12,-14.6,35.4666667
chikowi,,23,-15.4166667,35.3
chikudzu,,20,-13.45,33.6333333
chikulu,,20,-13.2666667,33.7
chikuluma,,12,-14.7333333,35.3333333
chikumba,,28,-14.7666667,35.8166667
chikumbu,,23,-15.4666667,35.35
chikungu,,02,-16.1,34.5666667
chikungu,,11,-13.7166667,33.5333333
chikungu,,13,-13.4833333,33.2333333
chikunguntheni,,09,-12.9,33.8333333
chikuni,,15,-12.1166667,33.8833333
chikunumbu,,20,-13.3166667,34.1
chikusa,,13,-13.8666667,33.3666667
chikuta,,13,-13.8833333,33.1333333
chikute,,13,-13.5666667,32.8166667
chikuwangoma,,17,-11.2833333,34.2166667
chikuwita,,28,-14.8666667,35.6666667
chikuzulira,,13,-13.95,33.3666667
chikuzulire,,11,-13.9666667,33.4
chikwakwa,,09,-13.1666667,33.7
chikwakwa,,20,-13.25,33.8333333
chikwawa,8966,02,-16.05,34.8
chikwawa,,19,-16.7666667,35.2833333
chikwawa,,20,-13.4,34.0333333
chikwawe,,20,-13.4833333,33.95
chikwawi,,20,-13.4333333,33.6
chikweo,,28,-14.7666667,35.65
chikwewo,,28,-14.7666667,35.65
chikweze,,09,-12.7666667,33.5166667
chikwina,,17,-11.4,34.1666667
chiladzulo,,26,-14.9166667,34.9666667
chilala,,28,-14.9166667,35.5333333
chilambe,,23,-15.2833333,35.4333333
chilando,,07,-13.7,33.7666667
chilanga,,09,-13.0166667,33.5
chilasa,,20,-13.3,33.8833333
chilawa,,20,-13.4666667,33.6333333
chilawo banda,,15,-12.4,33.7666667
chilawo,,15,-12.35,33.6666667
chileka,,02,-15.9833333,34.4333333
chileka,,11,-14.0166667,33.4
chileka,,24,-15.6833333,34.9333333
chilemba,,12,-14.75,35.3333333
chilemba,,20,-13.35,33.6
chilembwe,,11,-14.1666667,33.9
chilembwe,,20,-13.4,34.0333333
chilemele,,23,-15.4,35.3333333
chilenga,,13,-13.85,33.2333333
chilibuno,,18,-12.8666667,34.2166667
chilikumwendo,,11,-14.2166667,33.95
chilima,,07,-13.8,34.1166667
chilima,,11,-14.0666667,33.9833333
chilimang'ombe,,11,-14.05,33.9666667
chilimani,,23,-15.35,35.45
chilimba,,23,-15.35,35.3833333
chilinde,,11,-13.9833333,33.8
chilindira,,09,-13.1166667,33.6
chilingi,,04,-9.55,33.0333333
chilinkoli,,09,-13.3333333,33.4666667
chilipa,,26,-14.7,34.9666667
chiloa,,09,-13.1,33.5
chiloa,,13,-13.4333333,33.15
chiloa matambe,,09,-13.0833333,33.5166667
chiloa nyilonga,,09,-13.1,33.5
chilolo,,20,-13.4166667,33.5833333
chilolo,,28,-14.8166667,35.75
chilombo,,23,-15.4833333,35.3333333
chilonga,,07,-13.6666667,33.5166667
chilonja,,13,-13.7166667,33.05
chilonje,,20,-13.3333333,33.85
chilooka,,20,-13.2666667,33.8833333
chilooku,,20,-13.15,33.8333333
chilopola,,20,-13.4166667,33.95
chilowa,,11,-14.1666667,33.8
chilowa,,13,-13.6833333,33.3666667
chilumba,,21,-10.45,34.2666667
chilundu,,13,-13.9,33.1666667
chilunga,,23,-15.4333333,35.4666667
chilungu,,13,-13.9,33.1666667
chilusi,,07,-13.6833333,33.7833333
chiluvya,,18,-12.3333333,34.05
chima,,09,-13.1166667,33.7166667
chimala,,28,-14.7,35.6
chimamba,,20,-13.3666667,33.5833333
chimambo,,13,-13.65,33.4666667
chimanda,,12,-14.6833333,35.85
chimango,,11,-14.1666667,33.9666667
chimbadzo,,13,-13.8166667,33.0
chimbaka,,13,-13.6333333,33.3
chimbala,,22,-13.7,34.3166667
chimbalanga,,20,-13.3166667,34.0833333
chimbalanga,,22,-13.7833333,34.4333333
chimbalanga,,23,-15.4833333,35.4
chimbalanga,,26,-15.25,34.6333333
chimbalenga,,30,-15.55,35.7833333
chimbalu,,07,-13.7,33.6
chimbalu,,11,-13.7166667,33.6
chimbano,,17,-11.9166667,34.1666667
chimbaru,,18,-12.4833333,33.9666667
chimbaru,,20,-13.2666667,33.7166667
chimbembe,,05,-16.45,34.8833333
chimbete,,07,-13.5666667,34.0166667
chimbia,,16,-15.0833333,34.5833333
chimbila,,12,-14.6166667,35.8166667
chimbindu,,20,-13.3666667,34.1166667
chimbobo,,13,-13.6166667,33.35
chimbonga,,09,-13.0333333,33.7833333
chimboyera,,21,-11.4666667,33.8
chimbuli,,07,-13.6333333,33.6166667
chimbuli,,20,-13.35,33.6833333
chimbumbuka,,18,-12.6,34.1666667
chimbumbuli,,12,-14.3666667,35.5
chimbuto,,18,-12.9333333,34.2166667
chimbwanda,,20,-13.3333333,33.9333333
chimbwanya,,28,-14.9833333,35.5833333
chimbwinda,,25,-15.7166667,34.5
chimdima mhango,,21,-11.3833333,33.6833333
chimelango,,25,-15.65,34.4333333
chimelela,,09,-13.2833333,33.35
chimenya,,15,-12.4333333,33.5333333
chimesya,,12,-14.75,35.3666667
chimgonda,,15,-12.2166667,34.0
chimimba,,13,-13.7166667,33.4
chimji,,13,-13.8,32.9
chimkoka,,09,-12.9,33.7
chimkoka,,20,-13.3166667,33.65
chimkoko,,07,-13.7,33.6
chimkoko,,11,-13.7166667,33.55
chimkusa,,15,-12.25,33.5333333
chimndulu,,09,-13.1333333,33.6333333
chimombi,,19,-16.9166667,35.2666667
chimombo,,07,-13.55,33.8833333
chimombo,,11,-14.1833333,33.95
chimombo,,12,-14.7,35.5833333
chimombo,,19,-17.0166667,35.2333333
chimombo,,21,-11.0166667,33.9333333
chimono,,13,-13.9333333,33.35
chimozimozi banda,,15,-11.5833333,33.4666667
chimpala,,07,-13.6833333,34.0333333
chimpamba,,09,-13.0666667,33.5833333
chimpamba,,12,-14.0666667,34.85
chimpamba,,13,-13.8166667,33.1666667
chimpambana,,05,-16.4666667,34.9
chimpando,,06,-14.2,34.2833333
chimpangu,,11,-14.1166667,33.4833333
chimpanzi,,25,-15.4833333,34.6333333
chimpeni,,11,-13.9333333,33.4333333
chimpere,,20,-13.15,33.8833333
chimphanga,,20,-13.5,34.3333333
chimphepo,,09,-13.05,33.6833333
chimphithi,,09,-13.1833333,33.6833333
chimpipo,,20,-13.3166667,33.8
chimponda,,20,-13.2,33.7666667
chimptsolo,,07,-13.65,33.5333333
chimsewenzo,,15,-12.1166667,33.3833333
chimsoro jere,,15,-12.3,33.5333333
chimtembo,,15,-12.1666667,33.8166667
chimubve,,22,-13.7666667,34.3666667
chimura,,18,-12.4833333,33.9666667
chimute,,13,-13.8,32.95
chimutha,,09,-12.8833333,33.8333333
chimuti,,13,-13.7333333,33.05
chimutu,,11,-13.85,33.9166667
chimutu,,13,-13.6833333,33.0166667
chimutu,,15,-12.0166667,33.45
chimutu,,22,-13.85,34.25
chimwala,,07,-13.6666667,33.8166667
chimwala,,11,-14.0,33.4833333
chimwala,,12,-14.6166667,35.1833333
chimwala,,19,-16.95,35.2333333
chimwala,,20,-13.4833333,33.9333333
chimwara,,09,-13.3,33.4833333
chimwara,,13,-13.6,33.05
chimwaye,,09,-13.1666667,33.5666667
chimwembe,,13,-13.4666667,32.85
chimwendo,,09,-12.9333333,33.4833333
chimwendo,,20,-13.3,33.8833333
chimwere,,07,-13.6833333,33.85
chimwere,,23,-15.4,35.3
chimwesya,,12,-14.75,35.3666667
chimweyo,,17,-12.25,34.0166667
chimzinga,,09,-12.55,33.4166667
chimzu,,11,-13.7,33.4666667
china,,09,-12.5666667,33.3166667
chinamule,,09,-13.3166667,33.4333333
chinavinga,,07,-13.65,33.6
chinchere,,11,-14.15,33.9833333
chinchere,,13,-13.7,33.3666667
chindamba,,28,-14.85,35.6
chindambo,,23,-15.4666667,35.2833333
chindano village,,17,-11.9166667,34.1666667
chinde,,21,-11.45,33.4166667
chindevu,,17,-11.6,34.0666667
chindi jere,,21,-11.45,33.4166667
chindoka,,15,-12.2833333,33.5666667
chindozwa,,17,-11.6,34.3
chindungwa,,22,-13.8166667,34.4833333
chindura,,07,-13.65,33.9333333
chinduta,,09,-13.2333333,33.55
chinduwe,,09,-13.1166667,33.4666667
chinemba,,09,-13.05,33.6666667
chinemba,,18,-12.55,34.1833333
chineusa,,13,-13.85,33.0166667
chineusi,,13,-13.85,33.0166667
chingalande,,11,-13.7166667,33.5166667
chingalanganda,,23,-15.4166667,35.3
chingali,,07,-13.6833333,33.7666667
chingali,,23,-15.4,35.1833333
chingaliwa,,17,-11.6833333,34.3166667
chin'gamba,,16,-14.6166667,34.75
chingamba,,20,-13.1333333,33.9333333
chinganga,,13,-13.8166667,33.3333333
chinganya,,17,-11.7,34.2666667
chinganyama,,07,-13.6666667,33.6333333
chingazi,,05,-16.1833333,35.1
chingelezi mithi,,21,-11.1333333,33.8666667
chingeni,,26,-14.95,34.9
chingila,,11,-13.9666667,33.9
chingole,,18,-13.1833333,34.3333333
chingoma,,20,-13.4166667,33.7
ching'oma,,28,-14.9166667,35.5833333
chingombe,,07,-13.6,33.9
chingombe,,20,-13.1166667,33.8166667
chinguo,,20,-13.4166667,33.6666667
chinguwi,,13,-13.7166667,33.3666667
chinguwo,,11,-14.0833333,34.0166667
chinguwo,,28,-14.95,35.8
chinguza,,28,-14.9666667,35.85
chinjoka,,15,-12.1333333,33.6333333
chinkala,,20,-13.3833333,33.7666667
chinkande,,20,-13.4,33.9333333
chinkata,,07,-13.65,33.9
chinkhoma,,09,-13.2166667,33.5166667
chinkhota,,07,-13.65,33.9
chinkhowoli,,21,-11.15,34.1833333
chinkhwazara,,21,-11.05,34.2166667
chinkoole,,21,-11.15,34.2166667
chinkota,,07,-13.75,33.7666667
chinku,,06,-14.3833333,34.0166667
chinkunda,,11,-14.0333333,33.4833333
chinkuyu,,11,-14.0666667,33.4166667
chinkwangula,,20,-13.3833333,33.5666667
chinkwiri,,20,-13.3666667,33.75
chinkwita,,06,-14.3,34.4166667
chinombo chaya,,15,-11.95,33.6
chinombo,,21,-11.3333333,33.85
chinombo,,22,-13.7333333,34.4833333
chinombo shonga,,21,-11.3166667,33.8833333
chinsamba,,11,-14.0166667,33.8
chinsasa,,20,-13.5333333,33.4666667
chinsowa,,09,-13.0666667,33.6333333
chinsunche,,11,-13.7,33.4666667
chintamtumba,,20,-13.3166667,33.7833333
chintanzi,,13,-13.7333333,32.9666667
chinteche,,17,-11.8333333,34.1666667
chintechi,,17,-11.8333333,34.1666667
chinteji,,17,-11.8333333,34.1666667
chinthankhwa,,11,-14.3,33.9166667
chintheche,,17,-11.8333333,34.1666667
chinthuta,,13,-13.7,33.4166667
chintoto,,13,-13.6666667,33.35
chintumbila,,13,-13.7166667,33.1333333
chintuntha,,11,-14.1666667,33.7
chinunda,,13,-13.6666667,32.9166667
chinunka,,04,-9.65,33.3666667
chinvama,,07,-13.7,33.8166667
chinweza,,20,-13.4666667,33.9166667
chinyakula,,17,-11.6333333,34.1166667
chinyama,,07,-13.7166667,33.7166667
chinyama,,09,-13.0166667,33.6833333
chinyamanyamo,,22,-13.8,34.4666667
chinyamunyamu,,09,-13.0666667,33.4333333
chinyanga,,20,-13.2833333,33.9833333
chinyanya,,17,-12.05,34.75
chinyawa,,13,-13.6333333,33.3666667
chinyenta,,17,-11.8,34.2
chinziri,,30,-15.6166667,35.75
chinzu,,11,-13.7333333,33.45
chiombe,,20,-13.2333333,33.7833333
chionjeza,,20,-13.4833333,34.3
chipaika,,17,-11.4166667,34.1833333
chipalamawamba,,12,-14.5,35.25
chipalanje,,26,-15.4,34.9333333
chipalawe,,20,-13.3,33.7166667
chipamba,,06,-14.2333333,34.0833333
chipanda,,13,-13.7,32.9833333
chipanda,,20,-13.2166667,33.9833333
chipanda,,23,-15.45,35.3666667
chipanda,,28,-14.8833333,35.3166667
chipande,,13,-13.7,32.9833333
chipanza,,22,-13.7166667,34.2666667
chipapi,,07,-13.6166667,34.05
chipapika,,18,-12.6666667,33.9
chipasi,,06,-14.2833333,34.2833333
chipaso,,09,-13.0666667,33.5166667
chipasula,,11,-14.0166667,33.8
chipe,,06,-14.2833333,34.3
chipeka,,17,-11.75,34.2333333
chipekwe,,09,-13.1166667,33.4666667
chipembere,,09,-13.0333333,33.5166667
chipembere,,15,-11.8333333,33.4166667
chipembere,,18,-12.4833333,34.1833333
chipendo,,02,-16.2333333,34.5333333
chipeni,,11,-14.2166667,33.85
chipeni,,13,-13.8166667,33.3833333
chipeni,,20,-13.1,33.8333333
chipenyenye,,21,-11.1166667,34.2166667
chipepola,,23,-15.4166667,35.3
chipeta,,23,-15.45,35.2833333
chipezi,,13,-13.5666667,33.2666667
chiphapi,,09,-13.2166667,33.5166667
chiphazi,,17,-11.5833333,34.2666667
chiphwembwe,,19,-16.9166667,35.25
chipimbininga,,17,-11.5166667,34.0833333
chipita,,04,-9.7166667,33.2666667
chipitite,,07,-13.6833333,33.8
chipoka,,12,-14.3666667,35.1833333
chipoka,4346,22,-13.9833333,34.5166667
chipokolo,,09,-13.2166667,33.5333333
chipokora,,13,-13.3833333,33.1333333
chipokosa,,20,-13.3833333,33.8333333
chipole,,12,-14.5833333,35.3333333
chipolonga,,28,-14.85,35.6833333
chipolopolo,,05,-16.3833333,35.1333333
chipolwa,,20,-13.2666667,33.75
chiponda,,07,-13.65,33.6333333
chiponda,,12,-14.0333333,35.1666667
chiponda,,13,-13.5,33.2166667
chiponde,,09,-13.0833333,33.4333333
chiponde,,11,-13.9,33.8
chiponde,,12,-14.3666667,35.5833333
chiponde,,17,-12.0333333,34.6166667
chipoza,,09,-13.4333333,33.3833333
chipudo,,07,-13.6,33.9833333
chipuka,,20,-13.3833333,33.8833333
chipumi,,13,-13.6166667,33.0833333
chipusile,,16,-14.8166667,34.5833333
chiputa,,13,-13.7333333,33.35
chiputa,,18,-12.95,34.3
chiputula,,18,-12.9833333,34.3166667
chipwaila,,02,-16.4,34.7833333
chipwaila,,09,-12.8333333,33.4333333
chipwaila,,17,-11.55,34.1333333
chipwanya,,11,-14.1,33.4
chipwanya ii,,11,-14.1333333,33.45
chipwayila,,07,-13.6833333,33.7333333
chipwembwe,,19,-16.9166667,35.25
chipyela,,17,-12.0666667,34.7333333
chiradzulu boma,,03,-15.7,35.1833333
chiradzulu,1580,03,-15.7,35.1833333
chirambo,,21,-11.0333333,33.75
chirambo mzoda,,21,-11.0166667,33.75
chirando,,12,-13.7166667,35.0833333
chirerawana,,17,-11.6333333,34.2666667
chirinza,,11,-14.0166667,33.6333333
chiriwiya,,20,-13.4166667,33.9833333
chiromangala,,18,-13.1833333,34.3
chirombo,,12,-14.1166667,34.8333333
chiromo,,19,-16.55,35.1333333
chirongo mkandawire,,15,-11.6333333,33.3166667
chirumba,,21,-10.45,34.2666667
chiruwe,,13,-13.5333333,33.2
chirwa,,09,-12.65,33.5166667
chisa,,09,-13.05,33.65
chisamba,,22,-13.7833333,34.4
chisambi,,20,-13.4666667,33.9666667
chisambilo,,09,-13.1,33.4333333
chisanga,,17,-12.0833333,34.75
chisani,,07,-13.6833333,33.55
chisani,,22,-13.7833333,34.45
chisasa,,13,-13.4,33.1333333
chisau mkandawire,,21,-11.1666667,33.5
chisavya,,21,-10.7666667,33.75
chisawa,,28,-14.75,35.6166667
chiseko,,09,-13.2833333,33.55
chiselema,,22,-13.8833333,34.3166667
chisema,,20,-13.3333333,33.7666667
chisempere,,09,-12.6166667,33.5166667
chisemphere,,09,-12.6166667,33.5166667
chisenga,,04,-9.9333333,33.4333333
chisenga,,07,-13.7333333,33.9666667
chisenga,,13,-13.6166667,33.3
chisepo,,09,-13.1666667,33.5666667
chisepo,,20,-13.6166667,33.4833333
chisepo ii,,20,-13.1166667,33.75
chishimu,,04,-9.5666667,33.2833333
chisikwa,,11,-14.0,33.4833333
chisikwa ii,,13,-13.9666667,33.3666667
chisindi,,17,-11.4333333,34.1833333
chisiza,,12,-14.6666667,35.6
chisiza,,21,-10.5333333,34.2166667
chisokowo,,21,-10.8833333,34.0333333
chisoso,,20,-13.3166667,33.6666667
chisumba,,07,-13.75,33.85
chisumu,,13,-13.65,33.2166667
chisumulu,,17,-12.0333333,34.6166667
chisuse,,28,-14.95,35.5666667
chisuvi,,28,-14.7833333,35.4166667
chisuwi,,28,-14.9666667,35.45
chiswamphila,,17,-11.7333333,34.0666667
chiswamphira,,17,-11.7333333,34.0666667
chiswa mumba,,15,-11.9666667,33.3833333
chitala,,22,-13.6666667,34.2666667
chitango,,21,-10.9333333,33.65
chitanje,,07,-13.7333333,33.9333333
chitanta,,07,-13.6833333,33.8
chitapa moyo,,15,-11.7666667,33.5
chitawala,,20,-13.4833333,33.65
chitedze,,11,-14.2333333,33.6666667
chitedzi,,07,-13.6833333,33.7333333
chitedzi,,13,-13.5166667,33.1833333
chitele,,12,-13.85,35.2
chitengo,,11,-14.3666667,33.7833333
chitenjere,,23,-15.2,35.3833333
chitete,,04,-9.65,33.5833333
chitete,,12,-13.85,35.2
chitete,,17,-12.05,34.05
chitete,,20,-13.4166667,33.8333333
chiteyeye,,09,-13.05,33.5
chithasa,,06,-14.4666667,34.0333333
chithumba,,09,-12.8333333,33.7833333
chithumba,,12,-14.7666667,35.2833333
chiti,,13,-13.65,33.0166667
chitimba,,21,-10.6,34.2
chitipa,8825,04,-9.7166667,33.2666667
chitomeni,,19,-17.1166667,35.25
chitoru,,20,-13.3,33.6333333
chitsa,,19,-17.0333333,35.2833333
chitseko,,05,-16.4333333,35.1833333
chitseko,,09,-13.2833333,33.5333333
chitsulo,,09,-13.15,33.7
chitsulu,,09,-12.9833333,33.8
chitsumba,,02,-16.3166667,34.7
chitukula,,11,-13.7833333,33.7666667
chitumba,,13,-13.7666667,33.0166667
chitumbwe,,25,-15.5333333,34.5
chitundu,,18,-12.55,34.1333333
chitundu,,28,-14.9166667,35.65
chituwe,,11,-13.95,33.5
chituzu,,15,-12.1333333,33.3666667
chiuja,,28,-14.8,35.55
chiula,,20,-13.4666667,33.6
chiunda,,12,-14.7666667,35.3666667
chiunjika,,21,-10.8166667,34.2166667
chiunjisa,,20,-13.3166667,33.8666667
chiunjiza,,20,-13.5,34.3
chiutsi,,09,-13.1833333,33.5833333
chiutsi,,18,-12.5,34.05
chiutula,,12,-14.55,35.3333333
chivala,,20,-13.3,33.85
chivimya,,09,-13.1833333,33.5166667
chivina,,21,-11.0666667,34.2166667
chivuta,,17,-12.05,34.05
chivuti,,17,-11.4,34.1666667
chivwamila,,20,-12.95,33.8833333
chivwara,,21,-11.1166667,33.5333333
chiwala,,11,-13.75,33.45
chiwala,,18,-12.55,34.1666667
chiwale,,11,-14.2166667,33.65
chiwaliwali,,20,-13.3833333,33.85
chiwalo,,28,-14.7333333,35.5333333
chiwalu,,30,-15.5666667,35.7833333
chiwamba,,06,-14.1666667,34.3666667
chiwambo,,12,-14.8166667,35.3
chiwanda,,04,-9.7166667,33.4833333
chiwanda,,20,-13.45,34.0333333
chiwanga,,13,-13.6666667,33.2333333
chiwanganya,,23,-15.45,35.5
chiwara nkhambule,,21,-11.35,33.85
chiwara tembo,,21,-11.45,33.75
chiwasa,,13,-13.6166667,33.15
chiwato jere,,21,-11.1666667,33.85
chiwaula,,13,-13.9166667,33.0166667
chiwaula,,18,-12.9333333,34.2666667
chiwawani nyambose,,21,-11.15,33.85
chiwengo,,09,-13.1166667,33.5333333
chiwere,,07,-13.7666667,34.1333333
chiwerera,,09,-13.0333333,33.5333333
chiwere's,,07,-13.7666667,34.1333333
chiwerewere,,21,-10.7333333,34.05
chiweta,,21,-10.7,34.1833333
chiweto,,21,-10.7,34.1833333
chiweyo,,17,-11.9333333,34.1333333
chiweyo village,,17,-11.9333333,34.1333333
chiweyu,,17,-11.9333333,34.1333333
chiweza,,20,-13.4666667,33.85
chiweze,,11,-13.7333333,33.65
chiwilira,,20,-13.4666667,33.85
chiwinga,,20,-13.15,33.7833333
chiwiza,,16,-14.6666667,34.8333333
chiwoko,,11,-13.9833333,33.8166667
chiwoko,,17,-11.6833333,34.3166667
chiwosa,,11,-14.0666667,33.9833333
chiwotha,,18,-12.9833333,34.3166667
chiwoza,,11,-13.7166667,33.5833333
chiwundasi,,17,-11.8,34.1833333
chiwuri kachari,,21,-11.3666667,33.3833333
chiyankhu chimaliro,,21,-11.3333333,33.9833333
chizangwe,,18,-13.2,34.3166667
chizani,,15,-12.4333333,33.7166667
chizenga,,02,-16.4333333,34.7833333
chiziko,,20,-13.3166667,33.9666667
chiziwachapwa,,21,-10.8833333,34.2333333
chiziwa,,21,-11.1333333,34.2333333
chizumba,,17,-11.5333333,34.2666667
chokolokotha,,11,-13.7666667,33.7333333
chokora mzima,,15,-11.5166667,33.3333333
chokwe,,20,-13.4166667,33.8833333
choloamakande,,11,-13.9333333,33.9
cholo,,05,-16.0666667,35.1333333
chomba,,18,-13.0,34.3166667
chombe,,30,-15.8333333,35.5333333
chombo,,18,-12.8833333,34.2666667
chomola,,09,-13.3333333,33.3666667
chomosa,,06,-14.3333333,34.2833333
chonde,,29,-16.0,35.3166667
chopi,,23,-15.35,35.4
chorwe,,20,-13.4166667,33.8833333
choto,,18,-12.9666667,34.3
chulu,,07,-13.6833333,33.6666667
chulu,,09,-12.8166667,33.3
chumbela,,13,-13.75,32.95
chumbela kombe,,13,-13.75,33.0
chumbiro,,13,-13.75,32.95
chunga,,13,-13.7,33.2833333
chunganiro,,20,-13.3333333,33.9166667
chungu,,09,-13.3,33.5166667
chungu,,13,-13.8166667,33.35
chungu,,20,-13.1666667,33.7833333
chuosa,,06,-14.2833333,34.2833333
chuwuya nkhata,,15,-11.95,33.35
chuzu,,09,-13.3333333,33.4
cibalala,,26,-14.8333333,34.9
cibojora,,09,-12.5333333,33.5333333
ciboko,,18,-12.8166667,34.25
cibuga,,11,-13.9666667,33.45
cibwata,,11,-14.1166667,34.05
cidalanda,,11,-13.7666667,33.6333333
cidewge,,06,-14.3333333,33.9833333
cidya,,11,-14.0,33.5
ciekwete,,09,-12.6166667,33.3333333
cigadula,,09,-12.7166667,33.35
cigunda,,13,-14.0,33.3166667
cihepa,,15,-12.45,33.6333333
cija,,15,-12.4,33.5333333
cikanakuva,,09,-12.5666667,33.4166667
cikazamoto,,11,-14.05,33.3833333
cikhangeni,,09,-12.5333333,33.6666667
cikho,,07,-13.6666667,33.9666667
cikoloka,,13,-13.8333333,33.0833333
cikosi,,06,-14.1666667,34.3333333
cikoti,,13,-13.4833333,33.2333333
cikowi,,23,-15.4166667,35.3
cikoya,,09,-12.5333333,33.5
cikukula,,09,-12.95,33.3833333
cikula,,09,-12.7666667,33.6833333
cikutu,,11,-13.75,33.6833333
cikwengwe,,09,-12.6166667,33.3
cikwesa,,09,-12.9,33.4333333
cilala,,28,-14.9833333,35.55
cilasanje,,23,-15.3,35.3166667
cilembwe,,09,-12.8166667,33.3333333
ciluzi,,06,-14.2,34.2833333
cimbayo,,09,-12.9,33.7
cimbiranjara,,09,-12.6,33.4666667
cimbiya,,09,-12.85,33.65
cimbuli,,09,-12.6833333,33.2833333
cimcimba,,09,-12.7,33.6
cimcira,,11,-13.6666667,33.5
cimdidi,,09,-12.9,33.6833333
cimkoko,,07,-13.7,33.6166667
cimkonbe,,07,-13.75,33.7833333
cimkonbera,,07,-13.75,33.7833333
cimlandu,,11,-14.2166667,33.9166667
cimombo,,09,-12.6333333,33.3
cimpapho,,11,-13.7833333,33.6
cimtake,,09,-12.5833333,33.4666667
cimuna,,11,-13.7833333,33.5666667
cimutu,,11,-13.9833333,33.8666667
cimuzi,,15,-12.4,33.5333333
cimwala,,09,-12.8333333,33.6666667
cimwaye,,23,-15.3333333,35.4166667
cimzinga,,15,-12.3833333,33.5333333
cincembere,,26,-15.3,34.6833333
cincheto,,15,-12.3666667,33.55
cindazi,,26,-14.9,34.8833333
cingala,,11,-14.2666667,33.7833333
cinganji,,18,-12.8666667,33.9333333
cinjoka,,09,-12.6333333,33.45
cinjunju,,09,-12.5666667,33.35
cinkholongo,,09,-12.9166667,33.4
cinkhonko,,06,-14.3,34.4166667
cinsomba,,19,-16.6166667,35.15
cinsonthi,,26,-14.8333333,34.8666667
cinyanga,,05,-16.35,35.0833333
cinyanga,,09,-12.7166667,33.3
cioku,,13,-13.8666667,33.0833333
cipeta,,09,-12.6833333,33.6666667
cipevya,,09,-12.8166667,33.3333333
ciphwanya,,13,-13.7,33.3
cipolopolo,,09,-12.8,33.3166667
cipongola,,15,-12.4,33.5333333
cipuku,,09,-12.6666667,33.4666667
cipwaila,,09,-12.6666667,33.3
cipwere,,23,-15.3166667,35.4333333
ciraldata,,26,-14.8333333,34.8333333
cisazima,,09,-12.9666667,33.4833333
ciseka,,09,-12.8666667,33.3666667
ciseko,,07,-13.75,33.7166667
cisi,,15,-12.4666667,33.5833333
cisinga,,09,-12.6166667,33.3333333
cisokwe,,09,-12.7166667,33.3
cisuwula,,09,-12.8833333,33.35
citoneka,,09,-12.5833333,33.4833333
citoohi,,07,-13.7333333,34.0666667
citsa,,19,-16.65,35.2166667
citsulo,,16,-14.6666667,34.7833333
citundu,,06,-14.1,34.25
ciwadzi,,09,-13.4333333,33.3666667
ciwale,,09,-12.9166667,33.4
ciwalo,,28,-14.7333333,35.5333333
ciwandauka,,09,-12.65,33.6666667
ciwawalo,,15,-12.4,33.5166667
ciwekeka,,09,-12.9833333,33.3833333
ciwela,,09,-12.5666667,33.4666667
ciwera,,09,-12.95,33.6
ciwoshya,,13,-13.8166667,33.1666667
ciwotha,,09,-12.7666667,33.6833333
ciwoza,,09,-12.8833333,33.3333333
ciwoza,,11,-13.95,33.55
ciwumnya,,09,-12.6833333,33.4666667
ciziko,,20,-13.45,33.6333333
cizungu,,09,-12.6833333,33.4666667
cogaka,,02,-16.1166667,34.6166667
combe,,09,-12.7333333,33.65
conga,,04,-9.65,33.3833333
coroni,,13,-13.7833333,32.9833333
crakwita,,06,-14.3166667,34.4333333
crowndi,,02,-16.1833333,34.9333333
cumangwena,,11,-14.3,33.9
daka,,13,-13.7833333,32.9166667
dalien,,20,-13.4833333,33.9333333
damba,,15,-12.3333333,33.75
damba,,20,-13.35,34.1
dambalika,,09,-13.2166667,33.6666667
dambaliuzi,,17,-12.2,34.0166667
dambe,,25,-15.3333333,34.5333333
dambo,,13,-13.9666667,33.0666667
dambolankhanga,,26,-14.7833333,34.9833333
danda,,11,-14.1166667,33.95
dande,,19,-16.6833333,34.9333333
dangalilo,,07,-13.6666667,33.6666667
daniel,,02,-16.0166667,34.8
daniel,,13,-13.7166667,33.0333333
daniel,,20,-12.95,33.85
daniele,,13,-13.7333333,33.0666667
daniel gausi,,15,-11.95,33.6333333
daniel jere,,21,-11.2333333,33.6166667
daniel muwowo,,15,-11.7333333,33.3833333
daniel ndhlovu,,21,-11.3833333,33.4833333
daudi mbizi,,15,-11.5,33.4166667
daudi thera,,21,-11.3,33.7833333
daud jere,,21,-11.4666667,33.7333333
dauyo,,06,-14.3666667,34.2833333
david nyirenda,,21,-11.35,33.4833333
dawa,,09,-12.9333333,33.5166667
dawurire moyo,,15,-11.7166667,33.5833333
dedza,15611,06,-14.3666667,34.3333333
deep bay,,21,-10.45,34.2666667
deleleka,,09,-12.5666667,33.3166667
deni,,09,-12.4833333,33.6166667
derale,,07,-13.7166667,33.8166667
dete,,20,-13.1666667,33.8
devwe,,09,-12.75,33.55
dewe,,17,-11.55,34.0
dickson,,11,-14.2,33.65
diere,,21,-11.1666667,33.5666667
dimakudi,,17,-11.0166667,34.6333333
dimi,,15,-12.1666667,33.45
dimu,,12,-14.5166667,35.2833333
dinje,,28,-14.7333333,35.85
disi,,23,-15.35,35.4333333
diyere mdumila,,21,-11.1666667,33.5666667
doka,,09,-12.75,33.55
domasi,,23,-15.2833333,35.4
donda,,25,-15.3833333,34.6666667
donija nkhoma,,15,-12.1833333,33.7
dooko,,17,-12.0166667,34.6166667
dothi,,07,-13.7666667,33.7666667
dowa,5568,07,-13.65,33.9333333
dowoko,,09,-12.6333333,33.3166667
dsoka,,11,-13.9166667,33.8
dudu,,09,-12.5833333,33.3333333
dukuduku,,21,-10.7333333,34.05
dumanika,,09,-12.7333333,33.3833333
dumba,,19,-16.7,35.2666667
dumea,,20,-13.4666667,33.8833333
duwalani,,17,-11.6,34.2
dwangwa,,18,-12.5666667,34.15
dyakanani,,15,-11.85,33.4333333
dyanyama,,03,-15.6833333,35.4166667
dzaipa,,06,-14.4166667,34.0166667
dzama,,13,-13.85,33.2833333
dzamalala,,11,-14.2,33.9166667
dzikolatha,,02,-16.25,34.6166667
dzilasye,,20,-13.45,34.0666667
dzinjiriza,,26,-15.2,34.65
dzoole,,07,-13.6,33.7
dzoole,,11,-14.0333333,33.4833333
dzoole,,20,-13.3833333,33.95
dzuwo,,11,-14.1,33.9666667
edingeni,,15,-12.05,33.3166667
edundu,,21,-11.3666667,33.7833333
edwin,,19,-16.95,35.2333333
edwin tengani,,19,-16.95,35.2333333
eheleni,,15,-12.3166667,33.6
ehlehleni,,15,-12.25,33.5833333
ekhama,,28,-14.9666667,35.8166667
ekwendeni,,21,-11.3666667,33.8833333
elangeni,,21,-11.45,33.7333333
eliacuntengo,,06,-14.3166667,34.1333333
eliakimu nguluwe,,15,-12.1833333,33.45
elisa,,20,-13.4,33.6833333
emanyeleni,,21,-11.1833333,33.85
embangweni,,15,-12.1666667,33.4666667
embombeni,,21,-11.25,33.8666667
emchakachakeni,,15,-12.15,33.5333333
emcisweni,,21,-11.2833333,33.6
emfeni,,09,-12.6,33.5833333
emoneni,,15,-11.65,33.6666667
eneya kumwenda,,21,-11.15,33.6666667
engalaweni,,15,-11.9,33.3666667
engucwini,,21,-11.2,33.8166667
enukweni,,21,-11.1833333,33.8833333
enyazini,,17,-11.45,33.9166667
ephandeni ziwa,,15,-11.5,33.6333333
ephangweni,,15,-12.1666667,33.4666667
eutini,,15,-11.4666667,33.4166667
ewombeni,,15,-12.1666667,33.35
ezondweni,,21,-11.4,33.75
faint,,26,-14.9833333,34.75
fanuel,,13,-13.5,33.0333333
fanwere,,13,-13.5,33.0333333
faringdon,,26,-14.8333333,34.8833333
farringdon,,26,-14.8333333,34.8833333
feremu,,25,-15.7333333,34.65
filimoni,,11,-14.3333333,33.6166667
filimoni nguluwe,,15,-12.1833333,33.45
filimon kumwenda,,21,-11.1666667,33.4333333
filimon zungu,,15,-11.75,33.6833333
fimbo moyo,,15,-12.1166667,33.5166667
fisi,,09,-13.1166667,33.6666667
fisi,,13,-13.9333333,33.35
fitizalimba,,20,-13.4333333,33.85
florence bay,,21,-10.6,34.2
fodya,,02,-16.4666667,34.7
folotia,,13,-13.5,33.1166667
fombe,,02,-16.0666667,34.7333333
fondane,,07,-13.7166667,34.0166667
fonka,,04,-9.65,33.25
foo,,09,-13.3333333,33.4166667
foroka,,04,-9.7333333,33.4333333
forosani,,13,-13.6333333,33.1
fort hill,,04,-9.7166667,33.2666667
fort johnston,,12,-14.4666667,35.2666667
fort manning,,13,-13.8,32.9
fosa,,06,-14.3833333,34.1166667
fowodenge,,09,-12.9,33.7166667
fowo,,09,-12.9333333,33.7333333
francisco,,06,-14.4833333,34.0333333
fransiku,,19,-17.0333333,35.2333333
fuha,,17,-11.95,34.1166667
fukamalaza,,17,-11.75,34.2333333
fukamapiri,,17,-11.95,34.1166667
fumbawowa,,15,-12.0,33.95
fumozose,,09,-12.6333333,33.6666667
fundi,,08,-9.7333333,33.9166667
fungwe,,09,-12.9833333,33.7666667
funsani,,20,-13.45,34.3166667
funwayo,,09,-12.65,33.6666667
fwifwi,,09,-12.75,33.75
fwita,,21,-10.7,34.05
fyopa mtonga,,15,-11.8666667,33.4833333
gaga,,09,-12.6666667,33.35
galafa,,25,-15.7333333,34.65
galangombe,,20,-13.3666667,33.65
galasi madise,,21,-11.2666667,33.7666667
galika,,09,-12.9333333,33.3666667
galova,,25,-15.65,34.4333333
gamadzi,,07,-13.75,33.9833333
gandali,,13,-13.6,33.1166667
ganya,,16,-14.4666667,34.6333333
ganya,,17,-11.6833333,34.2666667
garamara mugonje,,15,-11.85,33.4833333
gawati,,20,-13.5,33.85
gawaza,,18,-13.1833333,34.7166667
gema,,13,-13.7166667,33.1333333
gemu,,15,-12.1,33.2833333
genesis mzima,,21,-11.3333333,33.5
george,,25,-15.35,34.6833333
geremani,,09,-12.7,33.6666667
geresom,,13,-13.75,33.0833333
germani nthala,,15,-12.1666667,33.6833333
gezamunjowe thawe,,21,-11.4333333,33.7666667
gharo,,21,-11.0,34.25
gideon,,09,-13.0666667,33.5166667
gideon,,11,-14.4333333,33.6833333
gideon msowoya,,21,-10.6333333,34.2
gidioni,,09,-12.6333333,33.65
gilipa,,09,-12.6166667,33.3333333
gobedi,,09,-13.35,33.5333333
gochi,,26,-15.2,34.6333333
godiyawo shawa,,15,-12.2,33.4833333
godzikhale,,06,-14.2666667,34.4333333
gogode,,09,-12.8833333,33.5666667
gogo,,07,-13.7666667,34.1166667
golombe,,13,-13.7,33.45
golomoti,,06,-14.4166667,34.6
golomoti station,,06,-14.4166667,34.6
goma,,05,-16.4,34.8666667
gomani,,13,-13.8166667,32.9833333
gomba,,07,-13.6833333,33.9666667
gomba,,13,-13.8,33.35
gombati,,11,-14.2,33.95
gomes,,11,-14.4,33.8833333
gondoli,,17,-11.9166667,34.1
gondwe,,21,-11.3666667,33.4666667
gondwe kadyungu,,21,-11.0166667,33.7666667
goneka,,17,-11.5,34.2
gonekeni,,09,-12.8166667,33.3166667
gongoli chilanga,,15,-11.6666667,33.4333333
gongula,,06,-14.3833333,34.3
gonyo,,02,-16.4166667,34.8166667
gopole,,12,-14.8,35.2833333
goseni,,13,-13.7166667,33.1166667
gotangota,,30,-15.3,35.8166667
gouvate,,25,-15.7166667,34.3833333
gowoka nyanguru,,15,-11.5166667,33.6
gulawe,,17,-11.45,34.2666667
guliguli,,13,-14.05,33.35
gulu,,17,-11.8166667,34.1666667
gulugulu,,17,-11.6833333,34.1666667
gulumba,,19,-17.05,35.0833333
gulumba,,28,-14.7666667,35.4333333
gulundu,,07,-13.7,33.7666667
guma,,06,-14.1,34.2
guma,,09,-12.9,33.4333333
guma,,11,-13.7166667,33.5333333
guma,,13,-13.4333333,33.2666667
guma,,20,-13.3166667,33.6833333
gumba,,09,-13.0833333,33.5
gumba,,13,-13.4166667,33.1166667
gumba,,20,-13.25,33.8
gumbi,,26,-14.95,34.8833333
gumbo,,09,-12.7333333,33.7
gumbo,,20,-13.4666667,33.7
gumulira,,13,-13.95,33.25
gunda,,11,-14.3666667,33.7
gundani,,09,-13.05,33.5
gundasiche nyambwane,,15,-12.2166667,33.7
gunde,,11,-14.1333333,33.9666667
gunya,,16,-14.4666667,34.6333333
guwende,,22,-13.6833333,34.2833333
guy kaludwe,,18,-12.55,34.1333333
gwalangwa,,23,-15.3333333,35.4833333
gwaligwali,,13,-13.75,33.0666667
gwamba,,09,-12.9166667,33.7
gwaza,,26,-14.8833333,34.8166667
gwazeni,,07,-13.5666667,33.95
gwazeni,,15,-12.4333333,33.7666667
gwechengwe,,19,-16.9833333,35.2833333
gwede,,07,-13.65,33.7333333
gwedi,,13,-13.7166667,32.9166667
gwenembe,,11,-14.0666667,34.1
gwengwe,,22,-14.05,34.3
gwenje,,13,-13.8333333,33.1
gwesele,,09,-13.2166667,33.5
gwileni,,07,-13.5333333,33.9
gwilre,,22,-13.8333333,34.5
halala,,28,-14.9833333,35.5833333
handire ndhlovu,,15,-12.0833333,33.4333333
hangeni,,09,-12.5,33.5666667
hango,,09,-12.8166667,33.6
hanock beza,,21,-11.5166667,33.7833333
hanock longwe,,21,-11.1666667,33.7
hanock ngwira,,15,-11.6,33.5666667
hawilani,,16,-14.8166667,34.75
hawu,,16,-14.9166667,34.7666667
heta,,15,-12.2166667,33.9333333
hicaje,,13,-13.8333333,33.0666667
hola,,16,-14.8,34.8333333
idi,,28,-14.7833333,35.5666667
ifwatose,,15,-11.4666667,33.2666667
ilemba,,25,-15.6833333,34.4833333
imbwa,,24,-15.85,34.8666667
imfayatonse,,07,-13.7,33.9833333
inje,,20,-13.5,33.8333333
inoch,,06,-14.4166667,34.0166667
ipulukutu,,04,-9.6333333,33.4166667
isaac,,20,-13.3166667,33.6666667
isaac mukuntha,,15,-11.85,33.7166667
isanga,,04,-9.7333333,33.5333333
iscariot,,13,-13.7333333,33.0666667
issa,,28,-14.75,35.5833333
izaki lukhanda,,15,-12.2,33.3166667
izaki ngoyi,,15,-12.1,33.5666667
jaasi,,20,-13.45,33.6833333
jailosi ndora,,15,-12.1333333,33.4166667
jailos,,13,-13.5333333,32.8666667
jailos,,23,-15.4833333,35.2833333
jalangombe,,09,-13.0333333,33.4333333
jalani kaunda,,15,-11.5833333,33.5833333
jalasi,,12,-14.3666667,35.45
jalusa,,11,-14.05,33.4333333
jambo,,28,-14.9,35.4166667
james,,02,-16.2333333,34.5333333
james,,04,-9.6,33.0666667
james,,19,-16.4833333,35.15
james,,23,-15.45,35.35
james,,26,-14.95,34.9
james jere,,21,-11.2333333,33.6
james kantondobi,,21,-11.3666667,33.4666667
jamu jere,,15,-11.95,33.3833333
jamu kumwenda,,15,-12.1333333,33.5166667
jana,,13,-13.6333333,33.2
jandalala,,09,-13.0166667,33.5166667
jandalala,,15,-11.5833333,33.6333333
janda n'gombe,,21,-11.0,33.7833333
jasi,,20,-13.2666667,33.8166667
jede,,16,-14.6166667,34.7833333
jeke nkhate,,15,-12.1666667,33.7166667
jelamu,,12,-14.55,35.5666667
jembe,,09,-12.8166667,33.4333333
jemsi,,09,-12.5333333,33.4166667
jemus,,07,-13.6166667,34.0166667
jenda theo,,15,-12.3333333,33.55
jenga,,06,-14.2833333,34.1333333
jentha jembe,,21,-11.05,34.1166667
jeque,,25,-15.7,34.4
jere,,06,-14.4,34.3666667
jere,,09,-12.6333333,33.4
jere,,20,-13.3333333,33.8166667
jeremani mahoye,,15,-11.9166667,33.55
jeremiah boa,,18,-12.5333333,34.15
jeremiya myaro,,21,-11.2,33.7166667
jeremiya samwili,,15,-11.7333333,33.35
jerobivamu,,21,-11.1333333,33.6833333
jesaya,,20,-13.4333333,33.6
jese,,19,-16.5166667,35.0333333
jigson,,13,-13.6833333,33.1166667
jiliki,,17,-11.85,34.1833333
jim,,09,-13.3333333,33.5166667
jisoso,,20,-13.4833333,33.8833333
jiwa,,19,-16.75,35.2833333
jobo,,09,-12.8,33.6666667
jogo,,20,-13.1333333,33.7833333
johani,,13,-13.7,33.25
johani,,20,-13.4166667,33.8
john chima,,17,-11.65,33.9833333
john here,,21,-11.2666667,33.6
john,,02,-16.1166667,34.8833333
john,,09,-13.0833333,33.5
john,,13,-13.9333333,33.15
john malindeni,,02,-16.1,34.85
john mzumara,,21,-11.1,33.8833333
jojo,,07,-13.7,34.0
jombe,,09,-13.0666667,33.7166667
jombo,,02,-16.3166667,34.8666667
jona nhlani,,15,-12.2333333,33.6666667
jonashani,,15,-12.2666667,33.6833333
jonasi,,09,-12.8333333,33.6666667
jonasi,,19,-16.6166667,35.15
jonasi lowora,,15,-11.85,33.5333333
jonas,,07,-13.6,34.0333333
jonathan,,13,-13.55,33.2833333
jonathan,,25,-15.6,34.7333333
joni,,09,-12.85,33.3833333
joseph,,25,-15.5333333,34.75
joseph mkandawire,,21,-11.15,33.55
jowe,,21,-10.8166667,34.0333333
jowel,,20,-13.3833333,33.6333333
joyele mhango,,15,-11.65,33.35
juliasi,,09,-12.7333333,33.7166667
juma,,09,-13.0333333,33.4666667
juma,,12,-14.6166667,35.6
jumbo,,09,-12.7333333,33.7166667
jumbo,,17,-11.2666667,34.1666667
jumo,,09,-12.75,33.5833333
jumpha,,07,-13.6666667,33.7833333
jumwa,,30,-15.7666667,35.6666667
junche,,07,-13.6833333,33.6666667
juwaki,,19,-16.5,35.2
juweka chipeta,,15,-11.55,33.3666667
jwanthi,,09,-12.5666667,33.3333333
kababwa,,22,-13.85,34.5
kabadula,,11,-13.8166667,33.45
kabagosa,,07,-13.6,33.8833333
kabala,,06,-14.3833333,34.35
kabalamula,,15,-12.0166667,33.3333333
kabalulu,,18,-12.85,34.2166667
kabanga,,20,-13.5,33.6166667
kabango,,06,-14.2833333,34.1166667
kabapha,,09,-13.1,33.4
kabengo,,06,-14.25,34.0166667
kabenu,,20,-13.25,33.85
kabenu,,21,-11.0,34.2166667
kabgana,,11,-13.95,33.4666667
kabila,,15,-12.15,33.4666667
kabira,,17,-11.8,34.15
kabiri,,18,-12.4666667,33.7833333
kabombe,,05,-16.1166667,35.2166667
kabudula,,13,-13.6666667,33.4166667
kabukhu phiri,,15,-11.9833333,33.3333333
kabula,,24,-15.7833333,35.0
kabululu,,18,-12.85,34.2166667
kabuluzi,,09,-13.0666667,33.5
kabumba,,22,-13.9,34.5
kabumbo,,20,-13.2,33.9
kabundile,,20,-13.3333333,34.1
kabunduli,,17,-11.7333333,34.0666667
kabungwe,,13,-13.8833333,33.2833333
kabutu,,13,-14.0833333,33.3333333
kabvala,,22,-13.8,34.3833333
kabwana,,11,-13.95,33.4666667
kabwanda,,09,-12.7166667,33.6
kabwanzi,,26,-14.9,34.85
kabwinja,,20,-13.4833333,33.55
kacere,,19,-16.6666667,35.2333333
kachaje,,13,-13.7666667,33.0666667
kachala,,11,-14.05,33.7666667
kachapira,,23,-15.5,35.3833333
kachara,,09,-13.2833333,33.5833333
kachebere,,13,-13.55,32.8166667
kachece,,21,-11.1,33.8833333
kachecne,,21,-11.1,33.8833333
kachele,,22,-13.8,34.4833333
kachelenga,,09,-13.1333333,33.5666667
kachembwe,,09,-13.2166667,33.6
kachenje,,09,-13.3,33.1666667
kachenpanje,,20,-13.5,33.4166667
kachepa,,11,-14.0166667,34.1
kachere,,06,-14.4166667,34.1166667
kachibere,,13,-13.7833333,32.8166667
kachibere mission,,13,-13.7833333,32.8166667
kachigulu,,13,-13.9833333,33.2666667
kachikopa,,06,-14.3,34.0833333
kachimbwe,,07,-13.6166667,33.9
kachimela,,13,-13.65,33.4166667
kachindamoto,,06,-14.1666667,34.5833333
kachipande,,09,-12.8833333,33.8333333
kachipande,,20,-13.3166667,33.7
kachipapa,,17,-11.6833333,34.3166667
kachirikisa,,13,-13.7333333,33.3166667
kachiscopa,,06,-14.3,34.0833333
kachitsa,,09,-13.1166667,33.5166667
kachons,,11,-14.2333333,33.85
kachule,,06,-14.3166667,34.0666667
kachuli,,07,-13.7333333,33.8
kachulu,,22,-13.6166667,34.5333333
kachuma,,18,-12.9666667,34.2333333
kachure,,13,-13.6666667,33.45
kachuta,,13,-13.7666667,33.0166667
kacikhomeni,,15,-12.1,33.6333333
kacimphula,,09,-12.6666667,33.4
kacinda,,09,-12.5,33.4333333
kacisa,,20,-13.55,33.6
kacitja,,22,-13.8,34.45
kada,,18,-12.4166667,34.0833333
kada,,30,-15.85,35.5333333
kadambo,,06,-14.4333333,34.4166667
kadamela,,19,-16.5833333,35.1333333
kadango,,12,-14.0833333,35.1833333
kadango,,20,-13.4,33.8666667
kadanzhe,,12,-13.8666667,35.1333333
kadazi,,09,-12.9333333,33.6666667
kadeka,,22,-13.8166667,34.4833333
kadeta,,16,-14.6833333,34.65
kadeta's village,,16,-14.6833333,34.65
kadewele,,12,-14.6166667,35.35
kadewere,,07,-13.5666667,33.85
kadewere,,23,-15.5,35.3833333
kadewere,,30,-15.8333333,35.7
kadifula,,09,-13.15,33.6166667
kadisi,,25,-15.4833333,34.4333333
kadosola,,09,-12.6166667,33.4333333
kadula,,07,-13.5833333,33.9666667
kadulama lambo,,13,-13.7833333,32.8666667
kadulandeo,,13,-13.4,33.0666667
kadumba,,09,-12.9333333,33.3666667
kadyauzu,,11,-14.0166667,33.5
kadzani,,13,-13.9333333,33.3
kadzanja,,20,-13.3833333,33.6833333
kadzimete,,09,-13.1666667,33.6833333
kadzombe,,13,-14.0166667,33.3333333
kadzuwa,,13,-13.5166667,32.9166667
kaewa,,20,-13.3166667,33.95
kafafwa,,06,-14.0666667,34.2833333
kafita,,18,-12.85,34.2666667
kaflta,,18,-12.85,34.2666667
kafora,,04,-9.6,33.2666667
kafotewa mkandawire,,15,-11.9333333,33.6
kafotokoza,,06,-14.4166667,33.9833333
kafukule,,21,-11.4666667,33.6333333
kafulama,,13,-13.9,32.9833333
kafumphe,,07,-13.7833333,34.0
kafuzila,,18,-12.3,34.0333333
kafwafwa,,20,-13.4166667,33.7833333
kafwili,,17,-11.3833333,33.9833333
kafwimbiri,,21,-11.45,33.2833333
kafwiri,,21,-11.3666667,34.0
kagaso,,23,-15.4833333,35.3
kagesi,,06,-14.4,34.3166667
kagona,,09,-12.7166667,33.6166667
kagona,,25,-15.35,34.5333333
kagoti,,13,-13.65,33.3
kagumbe,,11,-13.9833333,33.9166667
kagumbi,,11,-13.9833333,33.9166667
kahadenga,,11,-14.05,34.0666667
kahumbe,,06,-14.4166667,34.4166667
kaigunde,,15,-12.3666667,33.6
kaigwazanga,,13,-13.6333333,32.9333333
kaikwinde,,09,-12.7833333,33.3166667
kailole,,09,-12.4833333,33.55
kainga,,06,-14.3833333,34.0666667
kaingilira,,25,-15.3666667,34.55
kainja,,07,-13.7333333,33.9333333
kaipa,,12,-14.55,35.7166667
kaiwale,,21,-11.0166667,33.8
kaizwanga,,09,-12.5833333,33.3166667
kajaliza,,20,-13.2666667,34.1166667
kajawa nyirenda,,21,-11.1833333,33.5166667
kajawo,,24,-15.7666667,34.8833333
kajembe kumwenda,,21,-11.45,33.45
kajinyira,,18,-12.8666667,33.9
kajiso shawa,,21,-11.35,33.9
kajizingi,,17,-11.4,34.2666667
kajontha,,20,-12.9333333,33.8333333
kajosi,,09,-12.5666667,33.5
kajula,,17,-11.8166667,34.1833333
kajulamonjo,,17,-11.7166667,34.2833333
kajwanthira,,09,-12.5333333,33.45
ka,,13,-13.7,33.0666667
kakawa,,19,-17.0166667,35.3
kakhola,,26,-14.85,34.9166667
kakhomwa,,22,-13.8333333,34.35
kakoma,,02,-16.0833333,34.6333333
kakonkwe,,20,-13.2666667,33.8166667
kakopa,,13,-13.7,33.1333333
kakowa,,09,-12.7833333,33.4833333
kakowa,,12,-13.55,35.55
kakuda,,13,-13.6666667,33.25
kakungwa,,13,-13.5666667,33.1666667
kakutu,,12,-14.6666667,35.5833333
kakwale,,09,-12.4833333,33.5333333
kakware,,09,-12.5,33.5333333
kakwazi,,11,-14.2666667,33.9666667
kakwesa,,07,-13.7,33.6666667
kakwesa,,09,-12.8333333,33.3333333
kakwesa,,13,-13.6666667,33.3
kalaile,,09,-12.8166667,33.4833333
kalaluma,,09,-12.5833333,33.5166667
kalambani,,13,-13.8,33.0166667
kalambo,,28,-14.9666667,35.55
kalambwe,,13,-13.6333333,33.3
kalanga,,25,-15.7666667,34.4333333
kalaundi,,05,-16.2666667,34.95
kalawa,,13,-13.6333333,33.4166667
kaledzera,,30,-15.8,35.5666667
kalekalele,,20,-13.35,33.6666667
kalelo,,06,-14.3166667,34.0
kalemba,,09,-12.65,33.7333333
kalembela,,06,-14.3833333,34.2166667
kalembo,,26,-14.8333333,35.1666667
kalenga,,28,-14.9333333,35.5666667
kalengo,,20,-13.3666667,33.7333333
kaleya,,25,-15.7,34.4166667
kalezera,,30,-15.8,35.5666667
kalibwe,,21,-11.0166667,33.6166667
kalikoka,,09,-12.5333333,33.5166667
kalikoko,,09,-12.5333333,33.5166667
kalikwembe,,09,-12.8833333,33.4666667
kalila,,11,-14.1666667,33.9666667
kalilangwe,,20,-13.4666667,34.35
kalilombe,,06,-14.3833333,34.4166667
kalilome,,06,-14.3833333,34.4166667
kalimadola,,09,-12.5666667,33.4166667
kalima,,13,-13.7666667,32.9833333
kalimanjira,,26,-14.8666667,34.9166667
kalimbila,,20,-13.4833333,33.6166667
kalimila,,13,-13.6,33.3333333
kalinda,,20,-13.5,33.9
kalindangoma,,07,-13.6333333,33.95
kalinde,,13,-13.7166667,33.1833333
kalinde,,25,-15.4666667,34.6333333
kaliopa,,11,-14.0166667,33.5166667
kalipoli,,13,-13.8666667,33.0333333
kalisha,,07,-13.7333333,33.8833333
kalitao,,20,-13.2666667,33.8833333
kalitsila,,11,-14.35,33.6333333
kalitsilo,,16,-14.5833333,34.5333333
kalola,,08,-10.3166667,34.1666667
kalolo,,13,-14.0,33.3833333
kalombola,,22,-13.9166667,34.45
kalonga,,07,-13.6666667,33.7166667
kalonga,,09,-13.35,33.4666667
kalonga,,11,-13.7833333,33.5833333
kalonga,,12,-14.7333333,35.4333333
kalonga,,16,-14.9,34.5833333
kalonga,,19,-16.5166667,35.15
kalongobyela,,11,-14.1333333,33.3833333
kalongo,,18,-12.8166667,34.25
kalowe,,13,-13.5666667,33.4
kalowe,,26,-14.9666667,34.9666667
kalulu,,02,-16.4166667,34.8166667
kalulu,,13,-13.5833333,33.0333333
kaluluma,,09,-12.5833333,33.5166667
kalumba,,11,-14.0833333,33.8166667
kalumbe,,11,-13.6833333,33.4833333
kalumbi,,11,-14.25,33.95
kalumbi,,19,-16.8166667,35.3
kalumbu,,11,-14.1333333,33.95
kalumbwi,,07,-13.65,33.7
kalumpha,,17,-11.6,34.1
kalungama,,18,-13.1666667,34.25
kalunza,,13,-13.7333333,32.9333333
kalusi,,13,-13.7,33.3333333
kaluunda,,22,-13.6166667,34.5333333
kaluva,,12,-13.9833333,35.3166667
kaluwa,,09,-12.8333333,33.4166667
kaluwila,,07,-13.6833333,33.7166667
kaluzu,,22,-13.6666667,34.3333333
kalzengo,,13,-13.9666667,33.2
kamagwahkwa,,07,-13.6833333,34.1
kamakoko,,16,-14.7833333,34.8333333
kamakule,,06,-14.4333333,33.9
kamala,,28,-14.8833333,35.5666667
kamando,,09,-12.4833333,33.6333333
kamando,,15,-12.4666667,33.65
kamane,,04,-9.5666667,33.0833333
kamanga dazi makwakwa,,21,-11.15,33.6
kamangadazi moyo,,15,-12.15,33.4833333
kamanga,,07,-13.65,33.5666667
kamanga,,13,-13.7,33.4
kamanga,,15,-12.1666667,33.6666667
kamanga,,20,-13.4666667,33.6166667
kamanga,,21,-11.2833333,34.0166667
kamange,,13,-13.7666667,33.2
kamangira,,13,-13.9833333,33.3833333
kamanjawira,,26,-14.9833333,34.8333333
kambadzo,,06,-14.4333333,33.95
kambalame,,25,-15.7,34.7166667
kambalame's village,,25,-15.7,34.7166667
kambale,,20,-13.1666667,33.85
kambalima,,07,-13.6833333,33.7
kambanbanga,,20,-13.3833333,34.0333333
kambanje,,09,-13.1333333,33.6333333
kambatuwa,,09,-12.5833333,33.55
kambawi,,17,-11.7333333,34.0666667
kambewa,,15,-12.1166667,33.2666667
kambola,,18,-12.7166667,34.2166667
kambombo,,15,-12.15,33.2833333
kambona,,12,-14.7,35.4333333
kambona,,18,-12.75,34.25
kambue,,13,-13.5166667,33.0666667
kambuku,,16,-14.75,34.85
kambula,,20,-13.3,33.7833333
kambumula,,13,-13.6333333,33.4333333
kambwili,,22,-13.75,34.4
kambwiri,,22,-13.8,34.4166667
kamcaeni,,18,-12.5,34.1166667
kamchira,,07,-13.6666667,33.8
kamchocho banda,,15,-11.6666667,33.4166667
kamcoco,,09,-12.8,33.6666667
kamdale,,09,-12.8833333,33.45
kamdidi,,09,-12.5166667,33.4666667
kamehe,,21,-10.95,33.6666667
kameme,,04,-9.5666667,33.0833333
kamenya-gwaza,,06,-14.3666667,34.45
kamfumu,,22,-13.5833333,34.4166667
kamgomi,,20,-13.3,33.9166667
kamilangombe,,13,-13.8333333,33.0166667
kamilangombi,,13,-13.8333333,33.0166667
kamkambo,,07,-13.55,33.9
kamkande,,13,-13.95,33.2166667
kamkoba,,09,-12.8,33.4
kamkondo,,18,-12.3666667,34.0833333
kamkunguzeni zgambo,,21,-11.35,33.8833333
kamkwinya,,09,-12.9,33.55
kamlembo,,07,-13.7833333,33.7833333
kamlilika,,13,-13.8666667,33.2333333
kamndalilo,,09,-12.8166667,33.7
kamnthambala,,21,-11.1333333,33.8833333
kamonga,,06,-14.2833333,34.0833333
kamoto,,07,-13.6666667,33.5666667
kamoza,,17,-11.6166667,34.2833333
kampala ndhlovu,,15,-12.2,33.4
kampalilo,,09,-12.6166667,33.45
kampambe,,11,-13.9166667,33.8
kampango,,26,-14.8333333,34.95
kampani,,02,-16.1833333,34.7333333
kampanikiza,,11,-14.35,33.7
kampanizita,,11,-14.35,33.7
kampanje,,16,-14.6,34.5833333
kampata,,11,-14.1,34.0
kampata,,19,-17.05,35.2166667
kampenga,,20,-13.5666667,33.5333333
kamphambale,,13,-13.5833333,33.2666667
kamphambale,,15,-12.2666667,33.9833333
kamphambalk,,15,-12.2666667,33.9833333
kamphandila,,17,-12.2833333,34.0333333
kamphasi,,07,-13.6,33.8666667
kamphata,,11,-14.1,34.0
kamphata,,20,-13.4166667,33.55
kamphido,,22,-13.75,34.45
kamphimba,,07,-13.6666667,34.1166667
kamphiningo,,11,-14.1,34.0
kamphulusa,,16,-14.6,34.5833333
kamphuru,,09,-13.25,33.45
kampido,,22,-13.75,34.4666667
kampinga,,09,-12.6333333,33.4
kampingo,,15,-11.6166667,33.5666667
kam'pingo sibande,,21,-11.4833333,33.8
kampini,,11,-14.3,33.7666667
kampomo,,02,-16.1333333,34.6333333
kampongo,,18,-12.5666667,34.1666667
kampoti,,18,-12.4833333,33.7333333
kampulusa,,16,-14.6,34.5833333
kampupu,,09,-12.4833333,33.6333333
kamsale,,20,-13.35,33.7833333
kamsonga,,20,-13.2833333,33.8
kamtadzo,,06,-14.4333333,33.95
kamtawa,,09,-12.9166667,33.4833333
kamtepa,,15,-12.0166667,33.4333333
kamteteka,,15,-11.7833333,33.35
kamteteka phili,,15,-12.15,33.4333333
kamtibule,,09,-12.7166667,33.6
kamtoma,,17,-12.2833333,34.0333333
kamtumbo,,07,-13.7,33.9333333
kamtuwale,,09,-12.7666667,33.35
kamulu,,11,-13.7333333,33.4833333
kamuna,,09,-12.85,33.35
kamunda,,09,-12.5166667,33.45
kamungwe,,20,-13.35,33.6166667
kamuninga,,17,-11.7166667,34.3
kamunkokwe,,20,-13.4,34.2833333
kamunwe,,09,-12.85,33.35
kamuona,,07,-13.6666667,33.95
kamuona,,20,-13.45,34.2833333
kamuwanga,,15,-11.4833333,33.5166667
kamvona guiani,,20,-13.45,34.2833333
kamwala,,09,-13.05,33.65
kamwalaperere,,26,-14.85,34.8666667
kamwamba,,26,-14.95,34.7833333
kamwaza,,23,-15.35,35.4
kamwendo,,07,-13.8166667,34.0166667
kamwendo,,20,-13.55,33.45
kamwenye,,09,-12.5666667,33.65
kamzati,,09,-12.7666667,33.3333333
kamzimbi,,09,-12.5833333,33.5
kamzimbi,,13,-13.7,33.4333333
kamzingen,,20,-13.45,33.5833333
kamzunguzeni,,15,-12.2,33.7166667
kanache,,23,-15.2833333,35.3833333
kanaiza,,15,-12.4666667,33.6
kanakulera,,21,-10.6333333,34.1166667
kaname,,11,-14.2333333,33.9666667
kancele,,11,-13.6833333,33.5333333
kancence,,11,-13.7166667,33.5166667
kanchembele,,09,-13.0166667,33.4833333
kanchire,,19,-17.1,35.0833333
kanchito,,06,-14.35,34.4
kanda,,20,-13.4333333,33.8166667
kandale,,20,-13.2,33.8166667
kandama,,13,-13.6666667,33.2333333
kandaya,,11,-14.0666667,33.4166667
kandere,,16,-14.8833333,34.7833333
kandete,,16,-14.6833333,34.65
kandeu,,16,-14.5833333,34.6166667
kandiya,,11,-14.0666667,33.4166667
kandodo chisi,,15,-11.9,33.55
kandowe,,20,-13.25,34.0333333
kanduku,,25,-15.5666667,34.5
kandulo,,30,-15.7666667,35.5333333
kandulu,,23,-15.3333333,35.4333333
kandusiwa,,22,-13.8166667,34.4833333
kandusu,,13,-13.7666667,32.85
kandzu,,07,-13.6333333,34.05
kane,,12,-14.5333333,35.5666667
kangawa,,09,-12.55,33.6
kangimbe,,06,-14.3833333,34.1
kango,,13,-13.8666667,33.3833333
kango,,17,-11.4833333,34.1833333
kangolwa,,20,-13.2166667,33.7333333
kangoma,,17,-11.7333333,34.2833333
kangula,,13,-13.3333333,33.15
kangulu,,11,-14.2166667,34.0
kangulu,,13,-13.6166667,33.0166667
kangunda,,06,-14.0833333,34.2333333
kangunje,,13,-13.7833333,33.3333333
kangwere,,13,-13.7166667,32.95
kaninga,,09,-13.0666667,33.4833333
kanitute,,09,-12.6,33.4166667
kanjawala,,11,-13.95,33.4333333
kanjedza,,24,-15.8166667,35.05
kanjengo moyo,,21,-11.4166667,33.7666667
kanjerengwa,,13,-13.8166667,33.1666667
kanjesa,,13,-13.65,33.3833333
kankenda,,18,-12.4666667,34.0833333
kankhande,,09,-13.0833333,33.5166667
kankhande,,13,-13.9666667,33.2666667
kankhoma,,11,-14.1166667,33.6666667
kankhomba,,18,-12.5,34.1166667
kankhomba,,23,-15.45,35.35
kankhumbwa,,07,-13.6666667,34.0166667
kankoma,,06,-14.2333333,34.2666667
kankomba,,06,-14.2333333,34.2666667
kankomwa,,22,-13.8166667,34.35
kankwatekuti,,09,-12.6333333,33.3166667
kannene,,12,-14.5833333,35.6666667
kanolo,,06,-14.2833333,34.0166667
kanongola,,20,-13.3333333,34.1166667
kanowa,,04,-9.5666667,33.25
kansile,,20,-13.4666667,34.35
kansilikiza,,13,-13.65,33.4166667
kansukwa,,13,-14.0,33.3
kanthole,,09,-12.8166667,33.3833333
kanthusi,,13,-13.6666667,33.45
kantibulira,,13,-13.6333333,33.1
kantukule,,24,-15.8666667,34.9333333
kantungu,,20,-13.2333333,33.7333333
kanunkha,,18,-12.9166667,34.2333333
kanyakatifa,,09,-12.8,33.3833333
kanyala,,04,-9.7,33.2333333
kanyama,,06,-14.2333333,34.3333333
kanyama,,20,-13.45,33.9833333
kanyama,,22,-13.8,34.4833333
kanyambo,,07,-13.7,33.8666667
kanyamngondo,,15,-12.2666667,34.0166667
kanyamula,,20,-13.15,33.8166667
kanyanda,,17,-11.9,34.1666667
kanyangala,,09,-13.1333333,33.5833333
kanyenda bondo,,21,-11.0,34.05
kanyenda,,06,-14.2166667,34.3666667
kanyenda,,09,-12.9333333,33.3833333
kanyenda,,13,-13.7166667,33.25
kanyenda,,18,-12.4666667,34.0833333
kanyenda,,20,-13.4833333,33.85
kanyenduli,,11,-13.9333333,33.5333333
kanyerere,,20,-13.3666667,33.95
kanyerere,,21,-11.1333333,33.6666667
kanyesi,,06,-14.3,33.9833333
kanyezi,,06,-14.3,33.9833333
kanyimbi,,19,-16.7,34.9666667
kanyimbiri,,05,-16.2666667,35.0333333
kanyimbo,,13,-13.75,33.1166667
kanyindo,,02,-16.5,34.7333333
kanyinji,,09,-12.6333333,33.5333333
kanyinji,,18,-12.45,33.7833333
kanyole,,17,-11.6666667,34.3166667
kanyoni,,11,-14.0666667,33.8
kanyuka,,21,-10.8666667,34.0333333
kanyumbaka,,26,-14.95,35.0
kanyumba,,09,-12.85,33.7833333
kanyundo,,09,-13.2333333,33.5333333
kanyunya,,09,-12.5166667,33.45
kanzati,,26,-14.95,34.7666667
kanzedu,,17,-11.5333333,34.2833333
kanzele,,19,-16.5333333,34.9833333
kanzimbi,,02,-16.1,34.5833333
kaodzela,,13,-13.65,33.4333333
kaole,,11,-14.0333333,33.7666667
kaombachidzenje,,09,-13.1166667,33.4666667
kaomba,,09,-13.1,33.5
kaondo,,11,-14.0166667,33.7833333
kaongo,,09,-12.8166667,33.55
kapaika,,15,-12.3666667,33.7666667
kapaiza,,09,-12.9666667,33.3833333
kapaizi,,09,-12.9666667,33.3833333
kapala,,09,-13.3833333,33.3833333
kapalamula,,13,-13.7666667,33.0333333
kapalamula,,26,-14.9666667,34.9166667
kapalapata,,17,-11.5,34.1833333
kapampika,,13,-13.7,32.9666667
kapandula,,09,-12.5333333,33.4833333
kapanga,,18,-13.05,34.3333333
kapangama,,20,-13.1666667,33.9166667
kapanglika,,13,-13.5333333,33.4166667
kapanira,,13,-13.85,33.05
kapara,,09,-13.4166667,33.3833333
kapatika,,20,-13.1333333,33.8166667
kapatuka,,09,-12.7,33.3833333
kapawala,,09,-12.9,33.5333333
kapaza,,09,-12.85,33.35
kapelula,,09,-12.9,33.8
kapelula,,13,-13.9333333,33.3666667
kapelula,,18,-12.8666667,33.85
kapeni,,24,-15.7833333,35.0
kapenuka,,06,-14.35,34.4333333
kapesi,,06,-14.2333333,34.3666667
kapeta,,18,-12.8833333,34.3
kapezi,,13,-13.6,32.7166667
kaphambale,,15,-12.2666667,33.9833333
kaphamtengo,,07,-13.5333333,33.8666667
kaphathenga,,22,-13.7666667,34.3833333
kaphene,,09,-12.9166667,33.8166667
kapheni,,09,-12.9166667,33.8166667
kaphilijonjo,,19,-16.5833333,34.9
kaphiri,,11,-14.0,34.1
kaphisi,,11,-14.0333333,33.7833333
kaphiza,,18,-12.4833333,33.8833333
kaphuka,,06,-14.15,34.1666667
kapichi,,23,-15.25,35.45
kapichila,,18,-12.3666667,34.0
kapichira,,18,-12.8833333,33.9333333
kapicila,,07,-13.6666667,33.7666667
kapicila,,22,-13.8166667,34.4666667
kapicilati,,22,-13.8,34.3833333
kapida,,20,-13.5166667,33.45
kapika,,21,-10.45,34.0833333
kapindula,,15,-12.4166667,33.7166667
kapinga,,09,-12.65,33.4
kapinya,,09,-13.0666667,33.5833333
kapinya,,15,-12.15,33.3333333
kapiri,,06,-14.3666667,34.65
kapiri,,13,-13.65,33.3666667
kapiri,,20,-13.4333333,33.8833333
kapitapita,,06,-14.4333333,34.1333333
kapolo,,20,-13.3,34.0833333
kapoloma,,28,-14.7333333,35.5666667
kapoloza,,20,-13.35,33.8166667
kaponda,,20,-13.1833333,33.7833333
kaponda,,22,-13.8,34.35
kapondasoka,,07,-13.7,33.95
kaponya,,07,-13.6166667,33.6
kapopo,,09,-12.7,33.6166667
kaporo,,08,-9.75,33.9166667
kapotokoza,,06,-14.4166667,33.9833333
kapulanga,,20,-13.4666667,33.6333333
kapulukira,,11,-13.75,33.5833333
kapundo,,20,-13.45,33.75
kapundu,,13,-13.6,33.45
kapunduli,,18,-12.5333333,34.1333333
kapunga mabuka khonje,,21,-11.0,34.0833333
kapunula,,11,-13.9666667,33.6
kapunula,,13,-13.5833333,32.7833333
kapuzama,,13,-13.95,33.3166667
kapyanga,,09,-12.8,33.8
kapyela,,09,-12.95,33.3666667
kapyepye,,12,-13.3333333,35.3833333
kapyokola,,09,-12.5833333,33.3666667
kapyola,,09,-13.2333333,33.6
karama,,13,-13.75,33.3333333
karimbira,,18,-12.75,34.2
karonga,34211,08,-9.9333333,33.9333333
karonga,,11,-14.1833333,33.6
karonga,,17,-11.3666667,34.1666667
karonga,,22,-13.7666667,34.45
karonga longwe,,17,-11.75,34.25
karonsa,,22,-13.7666667,34.45
karusi,,07,-13.65,33.95
karzizila,,11,-13.9666667,33.9333333
kasache,,20,-13.4833333,34.3666667
kasagula,,07,-13.65,33.9
kasaha,,06,-14.2166667,34.0333333
kasaja,,20,-13.3166667,34.1
kasakula,,20,-13.2333333,33.7333333
kasakula woyera,,20,-13.35,34.0833333
kasakumania,,13,-13.9166667,33.0666667
kasakura,,20,-13.3166667,33.7333333
kasaliga,,20,-13.3666667,33.7
kasalika,,09,-12.6833333,33.4666667
kasamba,,20,-13.45,33.7166667
kasamba,,26,-15.35,34.8
kasambe,,17,-11.7,34.3166667
kasanda,,13,-13.7333333,33.35
kasande,,13,-13.5833333,33.2
kasanka,,09,-13.0333333,33.5
kasanza,,11,-13.7833333,33.5666667
kaseka,,09,-12.6666667,33.45
kasembe,,23,-15.4,35.3333333
kasendeka,,18,-12.8666667,33.8666667
kasengwa,,20,-13.3333333,33.95
kasenza,,13,-14.05,33.3666667
kasera,,09,-13.3166667,33.4333333
kasese i,,20,-13.3,33.65
kasese,,09,-13.2833333,33.5
kasese,,20,-13.3166667,33.65
kasguli,,08,-10.1833333,33.8166667
kashele,,20,-13.5166667,33.9666667
kasichi,,09,-12.5166667,33.4833333
kasichi,,20,-12.9833333,33.85
kasina,,06,-14.15,34.1166667
kasinda,,21,-10.8,34.2166667
kasinja,,09,-12.75,33.3333333
kasinja,,20,-13.25,33.7666667
kasinje,,16,-14.5333333,34.6833333
kasiputa,,13,-13.7333333,33.4
kasisi,,02,-15.95,34.7666667
kasiyadanga,,09,-12.75,33.3666667
kasiya,,09,-12.8,33.7166667
kasiya,,13,-13.75,33.3833333
kasiya,,20,-13.2666667,33.9
kasizika,,09,-12.6,33.4666667
kasokera kaunda,,15,-11.6833333,33.3333333
kasompe,,20,-13.4166667,33.7833333
kasonda,,13,-13.3666667,33.1
kasonga,,23,-15.3,35.2833333
kasoti phiri,,15,-11.8666667,33.5333333
kassoche,,20,-13.5333333,33.4333333
kastomo,,15,-12.3333333,33.6333333
kasugulu,,12,-14.6166667,35.4666667
kasumba,,09,-13.2333333,33.55
kasumba,,13,-13.6833333,33.1833333
kasumbi,,06,-14.3,34.35
kasumbu,,06,-14.3,34.35
kasungu,42565,09,-13.0333333,33.4833333
kasuntha,,20,-13.55,33.5166667
kasupe,,23,-15.1666667,35.3
kasupi boma,,23,-15.1666667,35.3
kasupi,,23,-15.1666667,35.3
kaswanda,,09,-12.6833333,33.5166667
kaswaya,,18,-12.3166667,34.0333333
kasweswe,,17,-11.6333333,34.3
kasyeleka,,09,-12.8166667,33.3
katakula,,13,-13.55,33.2833333
katakungwa,,11,-14.0,33.4666667
katakwi,,13,-13.5333333,33.35
katalima,,09,-12.6833333,33.35
katalima,,20,-13.0,33.8666667
katama,,20,-13.3166667,33.7666667
katambalala,,15,-12.0333333,33.4333333
katambo,,07,-13.6666667,33.7833333
katambo,,20,-13.45,33.6666667
katambo,,22,-13.7666667,34.4166667
katanda,,13,-13.5833333,33.2833333
katangara,,07,-13.6,34.0166667
katanta,,11,-14.0333333,33.7833333
katantha,,09,-12.6,33.3
katawa,,13,-13.6833333,33.1666667
katawa,,21,-10.9333333,34.0166667
katawa,,22,-13.7666667,34.4
katayene,,20,-13.3666667,33.6
katema,,07,-13.65,33.9166667
katema,,09,-12.7166667,33.6166667
katema,,12,-14.5166667,35.0333333
katema,,13,-13.5166667,33.3833333
katema,,17,-11.6333333,34.3
katembo,,13,-13.6166667,33.45
katengeza,,18,-12.9166667,34.25
katengeza,,20,-13.3333333,33.6166667
katenji,,13,-13.5833333,33.3
katenthe,,13,-13.7166667,33.2833333
katera,,07,-13.75,33.7166667
katete,,09,-12.6,33.3333333
katete,,15,-12.35,33.6166667
katete mission,,15,-12.35,33.6166667
katewe,,06,-14.2833333,34.0
kateya,,20,-13.1833333,33.7666667
kathewela,,09,-13.0166667,33.45
kathontha,,07,-13.6833333,33.6
kathundu,,15,-12.2333333,33.65
katikwiri,,20,-13.35,33.8833333
katimba,,20,-13.2833333,33.7666667
katimbila,,18,-12.7333333,34.2166667
katimbira,,18,-12.75,34.2
katobwa,,13,-13.55,33.1666667
katola,,11,-13.8333333,33.8166667
katolokoso,,28,-14.75,35.7333333
katonda,,13,-13.6,33.2166667
katonda,,20,-13.3333333,33.6166667
katongomara zimba,,21,-11.4,33.3666667
katorora mfwuni,,15,-11.7166667,33.35
katoto,,17,-11.45,33.9833333
katowili,,13,-13.7333333,33.4333333
katowo,,21,-10.8333333,33.5333333
katsika,,20,-13.4333333,33.9
katsilizika,,09,-12.6333333,33.3
katsukunya,,07,-13.6333333,33.9
katsukunya,,20,-13.4833333,33.6166667
katswatswata,,11,-14.2666667,33.8666667
katumba,,16,-14.7166667,34.6833333
katumba,,20,-13.3,33.8666667
katumba,,22,-13.85,34.45
katumba's village,,16,-14.7166667,34.6833333
katumbi,,08,-9.7333333,33.8666667
katumbi,,21,-10.8166667,33.5333333
katunga,,19,-16.7166667,35.2666667
katungo,,17,-11.7,34.0333333
katungu,,13,-13.5333333,33.4
katuru,,20,-13.2,33.9
katutuka,,06,-14.4333333,34.0
katutula,,11,-13.75,33.45
katuwa,,09,-12.6,33.4333333
katuwa,,17,-11.4166667,34.2666667
katyuka,,13,-13.8333333,33.0666667
katzenga,,13,-13.9666667,33.2
kaugule,,28,-15.1833333,35.5
kaulamwene,,09,-12.6666667,33.4666667
kauma,,07,-13.7333333,34.0333333
kauma,,13,-13.6166667,33.2166667
kaunda,,09,-12.75,33.6
kaunda,,11,-14.1333333,33.7166667
kaunda,,17,-11.2166667,34.2166667
kaundo,,06,-14.3833333,34.2666667
kausiku,,15,-12.3833333,33.7166667
kausiwa,,24,-15.8,34.95
kauta,,15,-12.2,33.5833333
kauzagaru,,09,-13.0833333,33.65
kavala,,20,-13.2,33.7666667
kavalho,,02,-15.9833333,34.8
kavalo,,02,-15.9833333,34.8
kawaka,,20,-13.25,33.7833333
kawa,,28,-14.95,35.75
kawale,,07,-13.6666667,33.6
kawale,,09,-12.7,33.6666667
kawalika,,13,-13.6166667,33.3833333
kawali,,11,-14.0,33.8
kawamba,,09,-13.3,33.3333333
kawamba misozi,,09,-13.3,33.3333333
kawanga,,20,-13.3166667,34.0833333
kawanga,,22,-13.6,34.4833333
kawaye,,09,-13.0833333,33.4333333
kaweche,,11,-14.1833333,33.6166667
kawelama,,28,-14.95,35.6
kawenda,,20,-13.35,33.8166667
kawere,,13,-13.5833333,32.9666667
kaweta,,09,-12.8,33.5833333
kaweteka,,15,-12.0666667,33.3333333
kawiliza,,25,-15.75,34.4166667
kawinga,,12,-14.5666667,35.3833333
kawinga,,28,-14.85,35.55
kawoli,,13,-13.95,33.1666667
kayembe,,07,-13.6333333,33.6
kayembe,,11,-13.6666667,33.5
kayembe,,13,-13.4666667,33.1
kayesa,,09,-13.0833333,33.4166667
kayesa,,13,-13.7833333,32.9333333
kayeya,,09,-13.0833333,33.7166667
kayidoke luhanga,,21,-11.4166667,33.55
kayidu purani,,21,-11.3666667,33.7833333
kayora,,21,-11.0166667,33.5833333
kayowoyero,,21,-10.7,34.1333333
kayuni,,17,-11.3833333,34.15
kayuni luhanga,,15,-11.7333333,33.3833333
kazando,,17,-12.2333333,34.0166667
kazembe,,07,-13.7,33.75
kazembe,,09,-12.65,33.7
kazimbe,,22,-13.7,34.3166667
kazira,,13,-13.7166667,33.25
kazithule ziwa,,15,-11.5333333,33.5833333
kazomba,,20,-13.1333333,33.8833333
kazombo,,09,-13.1166667,33.6
kazonga,,20,-13.3166667,33.8166667
kazumba,,13,-13.5833333,33.4
kazyozyo,,13,-13.55,32.85
kelula,,09,-12.5833333,33.5
kenan muzigha,,21,-11.1166667,33.8833333
kenan ngomba,,08,-10.0833333,33.6833333
kesale nyanguru,,15,-11.65,33.3166667
khamakhala,,13,-13.5833333,33.45
khamisa,,17,-11.6833333,34.3166667
khanda,,11,-14.0166667,33.45
khara pamuhanya gondwe,,21,-11.0,33.5833333
khazi,,17,-11.6666667,34.3166667
khaziko,,23,-15.35,35.3666667
khofi,,13,-13.5333333,33.4
khola,,09,-13.3,33.4
kholowani,,09,-12.7,33.3666667
khomani,,20,-13.55,33.4833333
khombe,,09,-12.6833333,33.3333333
khombe,,11,-14.1833333,33.9833333
khombe,,13,-13.75,33.0
khombe,,20,-13.45,33.6666667
khomera,,16,-14.8166667,34.8
khomera,,25,-15.4,34.5666667
khongoni,,13,-13.7333333,33.3
khonje,,21,-11.0666667,34.2166667
khosolo jere,,15,-12.4166667,33.7833333
khoza,,15,-12.4,33.85
khoza,,17,-11.4333333,34.2666667
khoza lisali,,17,-11.65,34.3166667
khozapi mtonga,,21,-11.3333333,33.5166667
khulume,,23,-15.4833333,35.4833333
khulumuniyu,,13,-13.6833333,33.4666667
khumi,,13,-13.75,33.25
khungwa,,09,-12.8333333,33.6
khuwi,,20,-13.4333333,33.85
khuzi,,11,-14.2166667,33.95
khuzumba,,28,-15.0,35.55
khwere,,13,-13.5,33.1
kindwe,,06,-14.2666667,34.2
kinsigala,,24,-15.7666667,34.95
kisoso,,20,-13.4833333,33.9
kisyombe,,08,-10.1,34.0
kliwawa,,21,-10.5166667,34.2166667
kochiwe,,05,-16.1166667,35.2166667
koda,,18,-12.4166667,34.0833333
kodikila,,07,-13.6833333,34.1
kokoti,,28,-14.7166667,35.7333333
koleni,,13,-13.55,33.3833333
kolopa,,28,-14.9333333,35.45
kolopele,,13,-13.7333333,33.2666667
koloweko,,13,-13.5666667,33.4
kolowika,,30,-15.5666667,35.8333333
koma,,12,-14.5333333,35.3666667
komakule,,06,-14.4333333,33.9
kombedza,,22,-13.6,34.3166667
kombi,,20,-13.4666667,33.6666667
kondowe,,21,-10.6,34.1166667
kongani,,13,-13.8,33.2833333
kongoni,,13,-13.8,33.2833333
konjiwa,,25,-15.3333333,34.5666667
konka,,06,-14.0833333,34.1666667
kopa kopa,,08,-10.1666667,33.75
kosam,,13,-13.8166667,33.35
kota kota,,18,-12.9166667,34.3
koti,,07,-13.6333333,33.8666667
ktalala,,11,-14.1833333,33.9333333
kuasinja,,06,-14.4333333,34.2
kubonda,,11,-13.95,33.9666667
kudana,,22,-13.7666667,34.45
kude,,11,-14.4833333,33.7
kudzoe,,06,-14.35,34.3666667
kui,,20,-13.2333333,33.8
kukalanje,,12,-14.65,35.1666667
kukalanjes village,,12,-14.65,35.1666667
kukanga,,23,-15.4833333,35.2833333
kukulanga,,12,-14.65,35.1666667
kulanga,,16,-14.5333333,34.7833333
kulemeka,,06,-14.4,34.4333333
kulizamimba,,11,-14.2,33.6333333
kulupsya,,26,-15.3,34.6833333
kuluwe,,12,-14.5333333,35.5833333
kuluwina,,06,-14.1666667,34.1333333
kuluwira,,06,-14.1666667,34.1333333
kumbande,,06,-14.15,34.3166667
kumbawa,,23,-15.3,35.3166667
kumbi,,20,-13.4666667,33.8666667
kumela,,07,-13.6166667,34.0333333
kumisu,,11,-14.1333333,33.8666667
kumlira,,11,-14.0,33.75
kumpatola,,06,-14.2333333,34.35
kumpika,,25,-15.4333333,34.5166667
kumtumanji,,23,-15.3,35.45
kumwenda,,15,-11.6,33.5166667
kunchakama,,22,-13.7833333,34.4166667
kundembo,,26,-15.2666667,34.6333333
kundwe,,07,-13.7333333,33.8166667
kunendekude,,25,-15.4666667,34.4666667
kungauma,,23,-15.4166667,35.3166667
kungungwe,,06,-14.1166667,34.2833333
kungwa,,12,-14.65,35.85
kungwa,,13,-13.9333333,33.0833333
kunjawa,,13,-13.9333333,33.0333333
kunkhokwe,,20,-13.4333333,33.9833333
kunsinja,,06,-14.4166667,34.2166667
kuntelela,,06,-14.3833333,34.2666667
kuntemba,,23,-15.4833333,35.3833333
kuntewa,,28,-14.8833333,35.3
kunundura,,13,-13.95,33.2
kunyinda,,02,-16.5,34.7333333
kurdzi,,11,-14.0666667,33.9833333
kurumemu,,21,-11.0333333,33.8666667
kuthenje,,22,-13.8,34.4833333
kuwanje,,13,-13.75,33.2333333
kuyu,,17,-12.0666667,34.7166667
kwakwala,,18,-12.7333333,34.2
kwalala,,03,-15.7166667,35.3166667
kwangala,,20,-13.5,33.9166667
kware,,13,-13.5,33.1
kwaroza,,13,-13.55,33.2
kwataine,,16,-14.8333333,34.6833333
kwataine's village,,16,-14.8333333,34.6833333
kwengwele,,09,-12.8833333,33.45
kwera,,20,-13.35,33.9
kwerekwere,,13,-13.6833333,33.0333333
kwilembe,,12,-14.35,35.4
kwilindi,,12,-14.1333333,35.4333333
kwisa,,26,-14.8833333,34.95
kwisimba,,12,-14.65,35.3333333
kwis,,07,-13.7166667,34.0833333
kwitambo,,12,-14.5166667,35.2666667
kwitanda,,12,-14.5333333,35.3666667
kyinge,,06,-14.0833333,34.2333333
lambulila,,28,-14.9833333,35.5
lambulira,,23,-15.4833333,35.3
lambwe,,13,-14.1333333,33.35
lameck chisi,,21,-11.1666667,33.5333333
langa,,13,-13.6666667,32.9166667
langa mgemezulu,,21,-11.3166667,33.6
langeni,,09,-12.5833333,33.6
languo,,22,-13.5666667,34.4166667
lavu,,07,-13.7166667,34.1
lawrence kaculu,,18,-12.3666667,34.0666667
lazalo jere,,21,-11.2833333,33.8833333
lazalo,,02,-16.2166667,34.6833333
lazalo,,09,-12.5,33.5833333
lemwe,,13,-13.8833333,33.3166667
leven,,26,-14.6833333,34.9333333
levi jere,,15,-12.3666667,33.55
levi,,22,-13.6333333,34.3333333
levi mphanje,,15,-11.6833333,33.3333333
leza,,09,-13.1166667,33.6333333
lezani,,13,-13.75,33.1166667
licere,,18,-12.5333333,34.0833333
lichapa,,07,-13.6833333,33.9833333
lienda,,25,-15.55,34.75
liganga,,22,-13.7833333,34.4333333
ligwangwa,,26,-14.85,35.25
lihana,,20,-13.1666667,33.75
likaka,,30,-15.7666667,35.65
likambwili,,12,-14.5666667,35.5333333
likangala,,30,-15.8833333,35.8
likangaria,,30,-15.7,35.7666667
likhakhama,,23,-15.4,35.3666667
likhonyowa,,28,-14.95,35.7833333
likonde,,23,-15.2833333,35.3833333
likongaji,,23,-15.3166667,35.45
likongwe,,11,-13.9833333,33.4166667
likulu,,03,-15.65,35.05
likulungwa village,,12,-14.6833333,35.3166667
likuni,,11,-14.0333333,33.7
likuni mission,,11,-14.0333333,33.7
lilongwe,646738,11,-13.9833333,33.7833333
limamu,,12,-14.5833333,35.7333333
limbalile,,12,-14.6333333,35.4833333
limbe,,24,-15.8166667,35.05
limela,,16,-14.8833333,34.7166667
lingake,,06,-14.4333333,34.1166667
lingonya,,09,-12.8166667,33.6666667
linthipe,,06,-14.1666667,34.1666667
lintipe,,06,-14.1666667,34.1666667
linyangwa,,09,-13.1166667,33.2833333
lions cave,,17,-11.35,34.25
lipempe,,20,-13.4333333,33.75
lipenga,,20,-13.4166667,33.5666667
liphala,,30,-15.7666667,35.8
lipunga,,13,-13.5833333,32.8
lisandwa,,09,-13.3166667,33.4333333
lisiti,,17,-12.0333333,34.6166667
livaro,,16,-14.8333333,34.8166667
livingstonia,5552,21,-10.6,34.1166667
livingstonia mission,,21,-10.6,34.1166667
livinza,,06,-14.3833333,34.0333333
liwaladzi,,18,-12.6166667,34.1666667
liwani,,12,-14.6833333,35.55
liwenga,,20,-13.0833333,33.8333333
liwewe,,18,-12.95,34.2666667
liwinga,,13,-13.8833333,33.3666667
liwonde,22476,26,-15.0666667,35.2166667
liwonde,,28,-14.8666667,35.4666667
lizulu,,06,-14.5166667,34.4666667
loba,,09,-12.4833333,33.6
lobi,,06,-14.3833333,34.0833333
lodjwa,,15,-12.4166667,33.5166667
lombadzi,,07,-13.7833333,33.8166667
lombe,,19,-16.5666667,34.9166667
lombwa,,09,-12.8333333,33.3166667
lombwa,,13,-13.4666667,33.0666667
londo,,21,-11.0333333,34.2166667
longwe,,09,-13.0333333,33.6666667
longwe,,15,-11.4833333,33.2666667
longwe,,17,-11.7666667,34.2333333
longwe,,20,-13.4833333,34.3333333
loni,,09,-12.6833333,33.3166667
lonya,,17,-11.65,34.3
loudon,,15,-12.1333333,33.4833333
loudon mission,,15,-12.1333333,33.4833333
lowe,,22,-13.8333333,34.5
luchenya,,29,-16.0166667,35.3
luchenza,11958,29,-16.0166667,35.3
lughenza,,29,-16.0166667,35.3
lujeri,,29,-16.0333333,35.6666667
lukhanda,,21,-11.2166667,34.1666667
lukulungwa,,12,-14.6833333,35.3166667
lukwa,,09,-13.1,33.45
lukwa,,19,-16.75,35.2333333
lulanga,,28,-14.7833333,35.6833333
lularwe,,21,-11.0,33.6166667
lumbadzi,,07,-13.7833333,33.8166667
lumphombo,,17,-11.4333333,34.1833333
lumwira,,06,-14.3166667,33.9833333
lunda,,18,-12.7333333,34.2166667
lundu,,02,-15.9833333,34.45
lundu,,19,-16.8833333,35.2833333
lundu,,26,-15.3833333,34.9833333
lungu,,09,-12.5666667,33.4333333
lupafya,,09,-12.8833333,33.6833333
lupembe,,08,-10.05,33.9833333
lupenga,,13,-13.9166667,33.1666667
lusale,,09,-12.6333333,33.6833333
lusumbwe,,12,-14.0833333,34.9166667
luthuli makamo,,15,-11.8333333,33.45
luwafwa,,17,-11.5166667,33.9833333
luwagala,,22,-13.9166667,34.5
luwanda,,18,-12.7666667,33.95
luwazi,,17,-11.5166667,34.15
luwitika,,04,-9.55,33.3833333
luziwa,,09,-12.5833333,33.4166667
lwazi,,17,-11.5166667,34.15
mabulabo,,09,-12.6,33.6
mabwera,,11,-13.7333333,33.5
macala,,06,-14.45,34.1166667
macece,,28,-14.8,35.7666667
maceka,,28,-14.8333333,35.4666667
macepa,,28,-14.8666667,35.6333333
machado,,19,-16.6833333,35.25
machedwa,,30,-15.5833333,35.8
machemba,,12,-14.6833333,35.4166667
machilika,,05,-16.4666667,34.9833333
machina,,28,-14.7666667,35.7333333
machinga,1418,28,-14.9666667,35.5166667
machinjiri,,23,-15.2333333,35.4166667
machirinka,,13,-13.65,33.1666667
machisanu mkandawire,,21,-11.1333333,33.6333333
machowani musi,,15,-12.15,33.5833333
machuleka,,09,-12.5666667,33.4666667
macikika,,05,-16.4833333,35.0166667
macilinga,,28,-14.8333333,35.6833333
macinyila,,09,-13.0333333,33.6833333
maclean,,21,-11.2666667,33.3833333
macmaurice,,23,-15.4333333,35.3833333
maconga,,04,-9.6333333,33.45
madaba,,20,-13.3333333,33.8666667
madebe mzima,,15,-11.55,33.2833333
made,,13,-13.6666667,33.3
madenda,,12,-13.7,35.0333333
madika,,09,-13.2333333,33.6
madimba,,17,-12.05,34.75
madimba mana,,17,-12.05,34.75
madisi,,20,-13.4166667,33.6
madisi,,21,-11.2666667,33.7833333
madjamanda,,25,-15.6166667,34.4333333
madoro jere,,21,-11.3666667,33.8
maduna singini,,21,-11.1333333,33.8666667
madzanje,,16,-14.8333333,34.7166667
madziada,,20,-13.35,33.6833333
madzi,,11,-14.0333333,33.4666667
madzi,,13,-13.4833333,33.1666667
madzi,,20,-13.4833333,33.8666667
madzonga,,13,-13.75,33.4166667
maere,,19,-16.6166667,35.15
mafiosi,,13,-13.5,33.4
mafisau,,20,-13.3333333,33.7333333
mafuleka,,09,-12.6666667,33.6666667
mafunga,,05,-16.2833333,35.0333333
mafunte,,20,-13.5333333,33.4666667
mafupa,,18,-12.4833333,34.1833333
mafuta,,13,-14.15,33.3333333
magaga khonje,,21,-11.0833333,34.0
maganaa,,22,-13.85,34.5666667
maganga,,02,-15.9166667,34.75
maganga,,17,-12.15,34.0333333
maganga,,22,-13.85,34.5666667
maganitsa,,06,-14.2666667,34.3333333
magansa,,22,-13.85,34.5666667
magareta,,25,-15.55,34.6333333
magasu,,05,-16.4166667,35.15
magayisa,,20,-13.3666667,33.9666667
magenga,,06,-14.0666667,34.25
magido,,15,-11.6,33.35
magido,,21,-11.45,33.3833333
maglas,,13,-13.75,33.1166667
magoda chipeda,,21,-11.4333333,33.7666667
magodi,,07,-13.75,34.1
magodi nyirenda,,15,-11.55,33.5666667
magombe,,23,-15.4666667,35.2833333
magombo,,26,-14.7666667,34.8833333
magomero,,03,-15.6,35.25
magomo,,09,-12.8833333,33.4333333
magonera,,17,-12.1833333,34.0166667
magumbe,,07,-13.6166667,33.9
magunje,,09,-12.5833333,33.3833333
magwalangwa,,09,-12.8166667,33.4833333
magwaza,,06,-14.2666667,34.0333333
magwila,,28,-14.9,35.5833333
mahata,,28,-14.8333333,35.7333333
mahau,,17,-11.8166667,34.1833333
mahowe,,21,-11.4333333,33.3666667
mahuza mzima,,21,-11.1833333,33.8166667
mainja,,17,-12.05,34.75
mainuka,,23,-15.4,35.3333333
mainza,,22,-13.8166667,34.45
maiwa,,11,-14.1166667,33.9833333
majaja,,12,-14.6833333,35.5833333
majawa,,16,-14.6333333,34.6166667
majawa,,23,-15.4833333,35.2833333
majawa's village,,16,-14.6333333,34.6166667
majega,,07,-13.6666667,33.7833333
majiasawa,,15,-11.9833333,33.6333333
majiga,,13,-13.8666667,33.3833333
majika,,13,-13.8666667,33.3833333
maji kapotwe,,17,-11.7833333,34.2
majimsingo zgambo,,21,-11.0666667,33.9
majiri,,16,-14.7666667,34.8333333
majomba,,13,-13.7833333,33.0333333
majuni,,12,-14.3666667,35.45
makabola,,11,-14.1,33.4166667
makala,,03,-15.6166667,35.0833333
makala,,13,-14.05,33.35
makalani,,11,-13.9166667,33.9666667
maka,,16,-14.5666667,34.5833333
makanda,,09,-12.9833333,33.6333333
makande,,05,-16.0,35.2666667
makanga,,07,-13.65,33.6
makanjila,,07,-13.55,33.9
makanjila,,12,-13.7,35.05
makanjila,,22,-13.55,34.3833333
makanjira,,23,-15.45,35.3166667
makanyila,,22,-13.55,34.3833333
makasa,,13,-13.65,33.45
makata,,28,-14.7333333,35.55
makawa,,23,-15.4666667,35.2666667
makawila,,15,-12.25,33.7166667
makawira chirwa,,15,-12.2,33.6833333
makho,,20,-13.4666667,34.35
makhula,,09,-12.8666667,33.3833333
makhumba,,17,-11.4666667,34.2833333
makhura,,15,-12.3833333,33.55
makhuwila nkhoma,,15,-12.4166667,33.7666667
makhuwira,,18,-12.4333333,33.8166667
makikomi,,04,-9.6166667,33.5166667
makius,,13,-14.05,33.35
makoka,,28,-14.7,35.6
makoko,,19,-17.0,35.1833333
makombwa,,09,-13.3666667,33.4666667
makome,,28,-14.7833333,35.5666667
makondesa,,07,-13.7,33.75
makopala hara,,15,-12.45,33.75
makulawe,,17,-12.0333333,34.7333333
makumba,,12,-14.3166667,35.2666667
makumbe,,13,-13.7166667,33.2833333
makumbi,,12,-14.3166667,35.2666667
makumbira,,13,-13.5333333,33.1166667
makungula,,23,-15.3833333,35.3666667
makungulu,,17,-12.1,34.7333333
makuni,,21,-10.95,33.6666667
makunula,,16,-14.55,34.8666667
makuta,,18,-12.9166667,34.2833333
makuvani,,13,-13.6666667,32.9833333
makwakwa,,28,-14.7166667,35.8166667
makwalo,,05,-16.4666667,35.1666667
makwangwala,,16,-14.8,34.7666667
makwani,,09,-12.8,33.3
makwasa,,05,-16.1666667,35.1
makwasi,,07,-13.7333333,33.8166667
makwazi,,20,-13.3,34.3166667
makwemba,,28,-14.9,35.6333333
makwinja,,12,-14.3333333,35.2833333
malagamula,,11,-14.0333333,33.8333333
malaicha,,20,-13.2833333,33.8
malajira,,23,-15.4833333,35.2666667
malala,,13,-13.65,33.4
malamba,,17,-12.25,34.0166667
malambo,,20,-13.2166667,33.7666667
malanda,,07,-13.6666667,33.5166667
malanda,,09,-12.85,33.3
malanda,,17,-11.8666667,34.1666667
malande,,11,-13.7666667,33.7
malango,,12,-14.7,35.5666667
malangwasila,,07,-13.6833333,33.65
malapa,,22,-13.8,34.3666667
malauli,,25,-15.5,34.6333333
malavi,,07,-13.7166667,33.7
malaza,,11,-14.1,34.0166667
malekeza,,19,-16.9666667,35.2833333
malema,,19,-16.9333333,35.2333333
malemba,,17,-11.5666667,34.3
malembo,,13,-13.6166667,33.4166667
malemia,,05,-16.45,34.8833333
malemia,,12,-14.3666667,35.2833333
malemia,,23,-15.2666667,35.3666667
malemi,,11,-13.9333333,33.4
malenga,,12,-14.65,34.9666667
malenga,,17,-11.9333333,34.15
malenga,,18,-12.95,34.2833333
malenga,,20,-13.3333333,33.8833333
malenga mzoma,,17,-11.9333333,34.15
malenga sanga,,17,-12.0,34.05
malepa,,17,-11.6333333,34.2166667
maleta,,28,-14.7,35.7833333
malewani,,13,-13.85,33.0
malewu,,11,-14.1833333,33.9166667
maleyele,,09,-12.5666667,33.3666667
malico,,25,-15.7166667,34.7166667
malidade jere,,21,-11.2333333,33.25
malika,,23,-15.2833333,35.4166667
malikholeni,,16,-14.9,34.7666667
malikolo,,12,-14.5833333,35.3
malikopo,,05,-16.4,34.8833333
malili,,11,-14.0833333,33.7
malima,,07,-13.7333333,33.8666667
malimanji,,23,-15.3,35.45
malimba,,11,-14.35,33.9
malimbwe,,11,-14.1333333,33.8666667
malingula,,12,-14.5166667,35.3833333
malisawa ngwira,,21,-11.1,33.7166667
malitimba,,09,-12.7833333,33.6833333
maliwa,,09,-12.7833333,33.45
maliwa,,22,-13.75,34.2
maliyamu,,07,-13.6333333,33.6666667
malo,,09,-13.3666667,33.4166667
malombe court,,12,-14.65,35.3333333
malomo,,20,-13.15,33.8333333
malonda,,16,-14.8333333,34.8
malonga,,23,-15.3,35.2833333
malonje,,23,-15.3666667,35.35
malopa,,16,-14.65,34.9166667
maluku,,06,-14.3666667,34.0166667
malula,,26,-14.9666667,35.0
maluma,,18,-12.6333333,34.1833333
maluma,,28,-14.95,35.4333333
malumula,,13,-13.7,33.4333333
malupi,,28,-14.8833333,35.6166667
malusa,,20,-13.2,33.7166667
maluwa,,09,-12.6666667,33.3
mambi,,09,-12.8666667,33.6
mambo,,22,-13.7666667,34.4166667
manata,,11,-14.0833333,34.1166667
manchisi,,11,-14.1666667,33.7333333
mandalade,,02,-16.1666667,34.7166667
mandala,,07,-13.7,33.9666667
mandala,,20,-13.4333333,33.6833333
mandala,,24,-15.7833333,34.9833333
mandate,,20,-13.45,33.7
mandele,,19,-16.55,34.9166667
mandevu,,09,-12.7833333,33.4666667
mandevu,,13,-13.7333333,32.9666667
mando,,13,-13.8166667,33.1833333
mandwe,,20,-13.2833333,33.9833333
manfred tito,,18,-12.6666667,34.1666667
mangadz,,07,-13.6666667,33.5333333
mangaliso kwinika,,15,-11.7833333,33.4166667
mangamba,,28,-14.7833333,35.4333333
manganela,,09,-12.7333333,33.45
mangansi,,13,-13.7166667,33.3833333
mangaoma,,07,-13.55,33.8833333
mangatsa,,13,-13.6333333,33.3166667
mangila,,22,-13.7833333,34.4
mangira,,22,-13.8,34.4333333
mangoche,,12,-14.4666667,35.2666667
mangochi,40295,12,-14.4666667,35.2666667
mangombo,,12,-14.15,34.8166667
mangulu,,20,-13.3666667,33.8833333
manguwale,,22,-13.55,34.3833333
mangwazo,,09,-12.9666667,33.3833333
mangwe,,22,-13.75,34.3833333
maniwa,,28,-14.9833333,35.6
maniya,,28,-14.8833333,35.7166667
manjawila,,26,-15.0,34.8
manjirira,,13,-13.7166667,33.3166667
manjolo,,05,-15.9833333,35.0
manjolo,,19,-17.0333333,35.0666667
mankambila,,20,-13.4166667,33.9166667
mankhaka,,09,-12.8666667,33.55
mankhalala,,09,-12.9166667,33.6833333
mankhambira,,17,-11.7166667,34.3
mankhambira nhlema,,21,-11.1833333,33.8833333
mankhangala,,09,-12.7333333,33.4666667
mankhoma,,16,-14.85,34.8166667
mankudzu,,20,-13.1666667,33.9166667
mankukwa,,20,-13.3333333,34.2666667
mankwazi,,20,-13.3,34.3166667
manolo,,23,-15.4833333,35.3166667
manondo,,07,-13.7333333,33.7666667
manondo,,26,-15.3166667,34.8166667
manthalu,,13,-13.8333333,33.2166667
manyamba,,20,-13.4166667,34.25
manyon,,13,-13.9666667,33.2666667
manyuwa ziwa,,21,-11.4833333,33.65
manzi,,07,-13.6333333,33.8666667
maonda,,23,-15.3333333,35.4666667
maonga,,22,-13.6833333,34.3333333
mapata,,28,-14.7666667,35.6
maperera,,02,-16.1166667,34.8833333
mapila,,28,-15.1333333,35.5333333
mapira,,15,-12.4333333,33.7833333
mapujali,,12,-14.5166667,35.3666667
mapupu,,09,-12.7833333,33.4166667
marata phiri,,15,-11.8833333,33.35
marere,,06,-14.3666667,34.0666667
mariku,,04,-9.5333333,33.2833333
maripela,,09,-13.2666667,33.2666667
marka nyathando,,19,-17.1333333,35.2333333
maronga,,04,-9.6333333,33.45
martin,,13,-13.6,33.2333333
masache,,19,-16.5666667,34.95
masache,,20,-13.3833333,33.9666667
masaka,,28,-14.8833333,35.5333333
masakandevu,,09,-13.0666667,33.7166667
masamba,,02,-16.2166667,34.6833333
masamba,,25,-15.3333333,34.5833333
masanduko,,05,-16.45,34.9833333
masanjere,,05,-16.3333333,35.1
masankhawa,,11,-13.9833333,33.8166667
masanya,,20,-13.2,33.8
masasa,,06,-14.3833333,34.5166667
masasa,,13,-13.7333333,33.05
masasa,,17,-12.0166667,34.6166667
masaula,,23,-15.3166667,35.1166667
masekezi,,13,-14.0333333,33.3666667
masenjera,,11,-14.0666667,33.9666667
masenjere,,05,-16.3333333,35.1
masenjere,,11,-14.0666667,33.9666667
masese,,28,-15.05,35.5
masimbakwe,,12,-14.65,35.3833333
masinalo,,20,-13.5,33.8666667
masinja,,06,-14.0833333,34.35
masinji,,13,-13.7166667,33.45
masitala,,09,-12.9666667,33.4666667
masokosa,,25,-15.5833333,34.4666667
massasa,,06,-14.4333333,34.4333333
massaula,,23,-15.3166667,35.1166667
masseah,,02,-16.1,34.85
masuku,,12,-14.5,35.5833333
masula,,11,-13.9333333,33.4166667
masumba,,11,-14.1166667,33.4833333
masumba,,13,-13.5,32.9666667
masumbi,,09,-12.7833333,33.4
maswana,,07,-13.6833333,34.0333333
mataka,,28,-15.05,35.5166667
mataketa,,13,-13.6,33.4
matako,,09,-13.0666667,33.4666667
matalala,,20,-13.2666667,34.0
matande,,16,-14.6,34.7833333
matapela,,11,-14.0166667,33.9666667
matapi,,23,-15.3333333,35.4166667
mataya,,09,-12.8333333,33.3333333
matekenya msachi,,15,-11.7166667,33.6333333
matemanga moyo,,15,-12.2,33.45
matenje,,26,-14.75,34.95
materezi,,18,-12.5166667,34.0833333
mateyo zunga,,18,-12.6166667,34.15
mateyu chitayo,,21,-11.4833333,33.8
matiki,,18,-12.4833333,34.1833333
matimanji,,23,-15.3,35.45
matimba,,13,-13.7833333,33.2166667
matiti,,12,-14.6,35.5166667
matola,,09,-12.6166667,33.45
matola,,26,-14.9333333,34.9166667
matolino,,13,-13.7666667,33.0166667
matolokela,,09,-13.1666667,33.5666667
matomola,,09,-12.7333333,33.3666667
matomora chadewa,,15,-11.7166667,33.5333333
matomora chirwa,,21,-11.0666667,34.0
matosa,,12,-14.5666667,35.35
matoto,,25,-15.5,34.75
matsimbe,,11,-14.1833333,33.6833333
matumba,,22,-13.6666667,34.2666667
matumbwa,,06,-14.3666667,33.9166667
matundaludzi,,11,-14.05,33.45
matundu,,09,-12.5,33.6333333
matupa,,18,-12.4833333,34.1833333
matuta,,23,-15.3,35.4333333
matutu,,13,-13.6833333,33.0333333
matuwamba mwale,,13,-13.5166667,32.9
maulana,,23,-15.35,35.4833333
maunda,,28,-14.95,35.7666667
maundi,,09,-13.0166667,33.55
maupi,,06,-14.3833333,34.3333333
mauwamba bokola,,13,-13.6,32.7166667
mauya,,09,-12.5666667,33.4333333
mavwanje,,09,-12.8833333,33.4666667
mavwari,,20,-13.4833333,33.7666667
mawalu,,20,-13.45,33.8
mawango ii,,09,-13.1833333,33.5833333
mawango i,,09,-13.15,33.5333333
mawango,,09,-13.1,33.5
mawawa,,09,-13.1,33.3833333
mawayira,,20,-13.3,33.9666667
maweha,,28,-14.9333333,35.4666667
mawende,,07,-13.65,34.1166667
mawere,,20,-13.3166667,33.9833333
mayani,,07,-13.7166667,34.05
mayani,,09,-13.0833333,33.45
mayese,,12,-14.6833333,35.6166667
mayola,,07,-13.6833333,33.9666667
mayola,,20,-13.45,33.5666667
mazanduwa,,15,-12.2833333,33.8833333
mazengera,,11,-14.0666667,33.9666667
mazenjele,,22,-13.9166667,34.45
mazinga,,20,-13.4166667,33.8166667
mazongoza,,05,-16.35,34.95
mazon,,13,-13.8,33.2166667
mazuko,,09,-12.6333333,33.5166667
mazweni,,09,-12.55,33.5833333
mazyake,,07,-13.6166667,33.9666667
mbabzi,,11,-13.9166667,33.7
mbachundu,,09,-12.8,33.4833333
mbacunda,,09,-12.8,33.5
mbacundu,,07,-13.6833333,33.6833333
mbalamanja,,12,-14.15,34.9333333
mbalame,,07,-13.6833333,33.8333333
mbalame,,13,-13.9,33.3
mbalame,,18,-13.0166667,34.3333333
mbalame,,28,-15.15,35.5333333
mbali,,09,-12.75,33.65
mbalira,,07,-13.65,33.95
mbaluko,,18,-12.9333333,34.3
mbaluku laini,,12,-14.5,35.2666667
mbalume,,11,-14.2333333,33.9333333
mbalwe,,12,-14.6166667,35.5833333
mbambo,,09,-12.6666667,33.35
mbangala,,07,-13.65,33.4833333
mbanga,,19,-16.9333333,35.2333333
mbangombe,,11,-14.1666667,33.3833333
mbangombe,,19,-16.95,35.15
mbangu,,19,-16.9333333,35.2333333
mbarali,,13,-13.6333333,33.2333333
mbarami,,20,-13.4,33.95
mbaruku,,18,-12.9333333,34.3
mbatata,,09,-12.8666667,33.45
mbawa,,15,-12.1166667,33.4166667
mbawa,,28,-14.9833333,35.45
mbaya,,17,-11.7333333,34.95
mbayo,,20,-13.5166667,33.6
mbekwa shawa,,15,-12.15,33.5
mbela,,26,-14.9,35.05
mbelesheka,,20,-13.4333333,33.6333333
mbelewele,,09,-12.7166667,33.7
mbemba,,09,-12.7333333,33.6
mbembe,,20,-13.3166667,33.6166667
mbemdela,,24,-15.9333333,34.9666667
mbenje,,19,-16.5,35.05
mberekere,,20,-13.3333333,33.7166667
mbeta,,19,-16.9,35.2666667
mbetasamba,,13,-13.6333333,33.4
mbewa,,13,-13.6833333,33.3166667
mbewa,,20,-13.1833333,33.9333333
mbewe,,02,-16.1666667,34.9
mbewera,,11,-14.2,33.65
mbeza,,13,-13.8166667,33.35
mbia,,20,-13.25,33.8166667
mbidzi,,11,-14.2,33.9166667
mbilimtenglenji,,20,-13.4833333,34.3166667
mbingwa,,11,-14.0666667,33.75
mbingwa,,20,-13.5333333,33.5166667
mbinzi,,06,-14.2,34.1
mbinzi,,11,-14.0,33.7333333
mbira,,18,-12.85,33.8333333
mbirintengerenji,,16,-14.8666667,34.75
mbiriyawaka munthari,,21,-11.05,34.1166667
mbisa,,03,-15.5333333,35.2166667
mbisa,,19,-17.1166667,35.1666667
mbiwi,,15,-12.2666667,34.0166667
mbiya,,09,-13.0333333,33.5166667
mbobo,,15,-12.05,33.45
mbobo,,19,-16.5666667,35.0166667
mbobo,,20,-13.1333333,33.9666667
mbodi,,19,-16.7166667,34.9333333
mbogomoyo,,15,-11.6666667,33.4666667
mboko,,22,-13.8333333,34.5
mbokosa,,06,-14.1,34.35
mbomba,,20,-13.15,33.8333333
mbonda,,02,-16.0166667,34.5166667
mbondo,,12,-14.5166667,35.35
mbosa,,17,-12.0166667,34.05
mbowera,,05,-16.2666667,35.2
mbowera,,11,-14.2,33.65
mboza,,05,-16.3166667,34.95
mbozo,,09,-13.1166667,33.7166667
mbozo,,20,-13.1,33.7666667
mbua,,20,-13.3666667,33.7
mbuluma,,18,-12.6666667,34.1833333
mbuluma,,20,-13.3833333,33.6333333
mbunge,,15,-11.5666667,33.4166667
mbungu,,17,-12.0833333,34.7166667
mburuma,,20,-13.35,33.85
mbuta,,07,-13.7,33.6
mbuzi,,02,-16.2333333,34.6833333
mbuzi,,09,-12.6666667,33.5166667
mbuzi,,17,-12.0833333,34.7333333
mbuzi mzumara,,15,-11.4833333,33.3333333
mbwabwa,,12,-14.6,35.6333333
mbwana,,23,-15.3333333,35.4666667
mbwawa,,21,-11.2333333,33.2166667
mbwelele,,13,-13.9333333,33.2833333
mbwezo,,28,-14.8666667,35.4166667
mbwindi,,09,-13.3,33.4666667
mcekaceka,,09,-12.55,33.45
mcenza,,11,-13.9333333,33.9833333
mchacha,,19,-17.1,35.1833333
mchahulu,,11,-14.2,33.9166667
mchambo,,13,-13.8,33.0666667
mchambue,,18,-12.8833333,34.2666667
mchambwe,,18,-12.8833333,34.2666667
mchekeni,,13,-13.9333333,33.15
mchenga,,06,-14.4,34.0
mchenga,,11,-13.9333333,33.95
mchenga,,17,-11.7166667,34.0166667
mchenga,,23,-15.35,35.5666667
mchenga village,,23,-15.35,35.5666667
mchereka,,13,-13.5,32.8833333
mchere,,20,-13.3666667,33.9666667
mchetechete,,20,-13.4,33.7833333
mchikan,,13,-13.9333333,33.15
mchinga,,09,-13.25,33.5833333
mchinga sanga,,15,-11.4833333,33.5333333
mchinji,18328,13,-13.7166667,32.9
mchipira,,13,-14.0333333,33.3333333
mchochoma,,06,-14.4166667,34.45
mchoka,,07,-13.6666667,33.5333333
mchonkwe,,13,-13.6166667,33.0666667
mcirawagani,,11,-14.0166667,34.1
mcocha,,15,-12.25,33.3166667
mdala chikowa,,12,-14.2333333,35.0833333
mdambo,,20,-13.2,33.7166667
mdauka,,09,-12.7833333,33.45
mdembo,,20,-13.4,33.6666667
mdima,,11,-14.0666667,33.4833333
mdoala,,07,-13.7,34.0166667
mdoha,,12,-14.1666667,35.2
