names,population,state_code,lat,lon
abaladougou kenieba,,07,12.0444444,-8.6280556
abdalaye,,04,15.2833333,-5.3333333
abdoul sinia,,03,14.9333333,-11.75
abdourahmane,,04,14.7833333,-4.2333333
abdouramane,,04,14.7833333,-4.2333333
abdou salam,,02,16.85,-0.35
abeibara,,02,19.1166667,1.75
acil barhe,,00,15.0,-9.2333333
acil barke,,00,15.0,-9.2333333
adabai mahamoud,,08,16.0833333,-2.6833333
adamabougou,,05,13.3333333,-5.2
adia,,04,14.95,-3.1166667
adiata,,02,17.0,-1.4833333
adjiba,,08,16.8,-2.3666667
adjila,,07,10.55,-8.1833333
adjilamina,,07,10.6666667,-8.25
adjilaminina,,07,10.6666667,-8.25
adlaye sidi,,04,15.3,-5.3166667
adourakame,,04,14.2166667,-3.0333333
adyanabangou,,08,16.0666667,-3.8833333
adyar,,08,16.2333333,-3.5666667
adyengo,,08,16.1,-3.7166667
afia,,00,12.0333333,-10.6333333
agaminan taoussa,,08,16.4166667,-3.1833333
agata,,02,17.0,-1.4833333
agata,,08,16.1166667,-3.0333333
ag enzali,,08,16.9166667,-1.7833333
aguel-hoc,,02,19.4544444,0.8563889
aguelhok,,02,19.4544444,0.8563889
aguelock,,02,19.4544444,0.8563889
aguelok,,02,19.4544444,0.8563889
aguilamina,,07,10.6666667,-8.25
aguinaouiaoui,,02,16.4,-0.1
ahagala,,00,15.4833333,-9.25
ahaman koiro,,02,16.8,-0.3166667
ahel barke,,03,15.3666667,-11.55
ahel faloute,,03,15.3666667,-11.6666667
ahmdeg,,08,16.0666667,-2.6666667
aibongo,,08,16.2166667,-3.25
aina,,08,16.2333333,-3.2333333
ainamolo,,03,14.7833333,-11.2166667
ainessaba,,03,14.7833333,-11.2666667
aite,,03,15.0833333,-11.65
aka,,04,15.4,-4.2333333
akaban,,08,16.2166667,-3.5
akarankom,,02,16.7166667,-0.2666667
akka,,04,15.4,-4.2333333
akor,,00,14.8833333,-6.9666667
akor tegdawich,,00,15.4,-6.9166667
akouakiza,,08,16.05,-3.5
akoumbouro,,04,14.4666667,-2.15
alabi,,04,15.1666667,-1.5833333
alafo,,08,16.1166667,-3.4
alahina,,00,15.2333333,-8.75
alahine,,03,14.6833333,-10.2166667
alaina,,03,14.6666667,-11.1833333
alakanda,,04,14.2166667,-3.6166667
alakat,,08,16.7,-3.7166667
alamakolo,,00,12.15,-10.6833333
alamba,,08,16.85,-2.05
alamoutala,,00,14.0,-13.75
alana,,03,15.25,-9.7333333
alasio,,00,14.9166667,-8.0166667
alaso,,00,14.9166667,-8.0166667
alassanila,,03,14.35,-11.4833333
alasso,,00,14.9166667,-8.0166667
alatana,,00,14.8,-5.9333333
alatona,,00,14.8,-5.9333333
alaya,,00,12.1166667,-10.7166667
alekanda,,04,14.5,-3.0666667
alfao,,08,16.6333333,-3.7666667
alfo,,08,16.6333333,-3.7666667
alidiamani,,03,12.8166667,-10.9833333
alifabougou,,07,12.0908333,-8.0422222
ali hamadou lilae,,06,10.6,-6.2
alikui,,04,13.3333333,-4.6833333
alkamsara,,02,16.2,-0.0833333
alkanabangou,,08,16.7166667,-3.8833333
allafo,,08,16.1166667,-3.4
allah ina,,03,14.4833333,-11.5
alla-kanda,,04,14.5,-3.0666667
all,,04,13.7666667,-3.6833333
almami,,04,14.9333333,-5.0166667
almaniana,,04,14.8333333,-5.3166667
almoustarat,,02,17.3666667,0.0872222
aloulena,,03,13.0166667,-9.55
ama,,04,14.0833333,-3.75
amadilimane,,00,14.7833333,-5.8333333
amadi oumourou,,03,15.3333333,-9.65
amadou ali were,,04,13.85,-4.9166667
amadou bafinnka,,07,13.65,-5.7833333
amadoubougou,,07,12.6877778,-7.3436111
amadou doso ware,,07,14.2333333,-6.0833333
amadou mama,,00,15.2,-8.4166667
amakabougou,,07,13.95,-7.5333333
amakouladji,,02,16.6,-0.1
ama koyra,,08,16.0166667,-3.8666667
am,,04,14.1666667,-2.9333333
amankobe,,00,15.35,-5.5
amara,,00,15.0166667,-9.05
amaragoungou,,08,16.7833333,-2.35
amarekoulela,,07,13.3666667,-7.45
amarosseldabay,,08,16.2333333,-3.5
amata,,02,16.5,-0.0666667
amba,,04,14.7833333,-3.5333333
ambaka,,04,14.9166667,-3.1166667
ambidedi,,03,14.5833333,-11.7833333
amdalay,,07,12.0205556,-8.3266667
amdalaye,,00,12.05,-10.6166667
amdalaye-timmbou,,00,12.05,-10.6166667
amderamboukan,,02,15.4283333,3.0183333
amderamboukane,,02,15.4283333,3.0183333
amgoundji,,02,17.05,-1.1333333
amilale,,03,15.4166667,-11.6833333
ammdalai,,05,13.5333333,-6.05
amo,,04,14.0833333,-3.75
anakaga,,04,14.0,-3.3
anakanda,,04,13.8166667,-3.3333333
anamangatare,,00,15.15,-9.1833333
anamerho,,03,13.9,-11.4666667
anamouniela,,04,13.8833333,-3.5333333
andagoye,,08,15.5333333,-3.3333333
andakaga,,04,14.1333333,-3.0666667
andelaye,,04,13.5666667,-3.6333333
anderamboukan,,02,15.4283333,3.0183333
anderamboukane,,02,15.4283333,3.0183333
anderanboukane,,02,15.4283333,3.0183333
andiama,,04,14.05,-3.4
andjebi,,08,16.3333333,-3.1666667
anefis,,02,18.04,0.6011111
anefis in daran,,02,18.04,0.6011111
anefis i-n-darane,,02,18.04,0.6011111
anfoulgoulaye,,08,15.9333333,-3.45
anfwakui,,04,13.1333333,-4.75
anga,,04,14.7166667,-3.5666667
angabere,,08,16.5833333,-3.7333333
angambongo,,08,16.3666667,-3.3666667
angira,,08,15.8166667,-4.1
anguihoro,,07,12.7,-10.2166667
ankora,,08,15.9666667,-3.6833333
ankoum,,02,15.25,0.7166667
ankoum myo,,02,15.2666667,0.7333333
ansofiri,,03,14.0833333,-10.3166667
ansofry,,03,14.0833333,-10.3166667
ansongo,,02,15.6594444,0.5016667
antam,,02,15.2833333,0.7166667
antam myo,,02,15.2833333,0.7333333
ante,,04,14.65,-3.1666667
antona,,07,12.5,-5.7166667
aore,,08,15.5166667,-4.3166667
aoua,,02,16.9833333,-0.4666667
aouadi,,00,14.75,-6.5666667
aouaki,,08,16.05,-3.5
aoudiai yoro ali,,03,15.0833333,-9.5833333
'aoueina,,00,14.8666667,-8.3833333
aouga,,08,15.9333333,-3.5
aouoye,,04,15.3833333,-4.1166667
aoure,,08,15.5166667,-4.3166667
aourou,,03,14.95,-11.5833333
aouzourou,,02,16.95,-0.3666667
ara ara aramgoui,,08,16.4333333,-3.3166667
ara ara harikouna,,08,16.4,-3.3333333
arabangi,,04,15.1,-1.9333333
arabangui,,04,15.1,-1.9333333
arabebe,,08,16.0666667,-3.8
arabou,,02,16.1666667,-0.0166667
araham,,08,16.3833333,-3.3666667
arahan,,08,16.3833333,-3.3666667
aranga,,04,15.4666667,-4.1666667
araouan,,00,18.9,-3.55
araouane,4026,00,18.9,-3.55
araoune,,00,18.9,-3.55
arawan,,00,18.9,-3.55
arbichi,,08,16.8166667,-2.25
archani,,00,14.8666667,-8.6166667
argaga,,02,16.75,-0.25
argan,,02,17.0,-1.3333333
argueto,,07,12.9333333,-9.9
arh,,00,14.9833333,-8.4833333
arhor,,00,15.3666667,-6.55
aridiana,,04,13.8166667,-3.4833333
arifonda,,03,15.15,-9.75
arimeno,,02,16.9833333,-1.4666667
arkodia,,08,15.7666667,-3.6166667
arlal,,08,16.6166667,-2.6833333
arlatinndala,,00,15.0333333,-9.1
arnachi,,08,16.7166667,-2.8
arnasey,,08,16.7166667,-2.8
arnassey,,08,16.7166667,-2.8
arnassi,,08,16.7166667,-2.8
arsi-bella,,08,15.8833333,-3.3333333
arsi bellade,,08,15.8833333,-3.3333333
arsi foulbe,,08,15.8666667,-3.3333333
asandyi,,07,14.3333333,-8.3
assaguerye,,02,16.9666667,-0.3666667
assakongo,,08,16.3833333,-3.3
assamangatare,,00,15.15,-9.1833333
assamangatare,,03,14.8,-10.3
assamangatere,,00,15.15,-9.1833333
assamorola,,07,11.3666667,-8.2166667
assandyi,,07,14.3333333,-8.3
assanmangatere,,03,14.8,-10.3
assatiemala,,03,14.7166667,-10.1
assil barke,,00,15.0,-9.2333333
assobol,,08,16.2333333,-3.7333333
assonfri,,03,14.0833333,-10.3166667
ata,,08,16.1833333,-3.7
atamakolo,,00,12.15,-10.6833333
atil barke,,00,15.0,-9.2333333
atta,,08,16.1833333,-3.7
attai,,08,16.1833333,-3.7
attara,,08,15.6666667,-4.35
awadi,,00,14.75,-6.5666667
awala,,07,12.7463889,-8.3608333
aweyna,,00,14.8666667,-8.3833333
awoeni,,03,15.15,-9.55
awoye,,04,15.3833333,-4.1166667
aya,,08,15.7666667,-3.7166667
ayoun goupou,,00,15.4166667,-8.1333333
azanga,,04,13.9333333,-3.3666667
baakara,,07,11.95,-7.5833333
baba,,07,11.8166667,-6.6333333
baba dama,,04,15.15,-5.4
baba-doma,,04,15.15,-5.4
babadyan,,05,12.9333333,-6.95
babaga,,08,16.0333333,-3.4333333
babakabougou,,07,14.1333333,-8.2666667
babala,,03,14.7166667,-10.5333333
babala,,05,13.5333333,-6.1
babala,,07,12.4125,-7.6480556
babalabougou,,07,11.5666667,-6.3833333
babani,,07,13.3,-5.7333333
babara,,00,12.3333333,-10.9333333
babaroto,,03,13.8,-10.8333333
babi,,08,15.8166667,-4.05
babila,,00,12.0333333,-10.6
babilena,,07,11.4,-6.9666667
baboto,,03,13.1333333,-11.35
babougou,,00,15.9,-7.5833333
babougou,,03,14.1333333,-9.75
babougou,,07,11.4166667,-8.0666667
babouro,,04,13.8333333,-3.25
babove,,04,14.2666667,-3.95
baboye,,04,14.2666667,-3.95
bada,,03,14.4333333,-11.7166667
bada,,07,11.45,-6.5666667
badala,,03,12.9666667,-9.7333333
badala,,07,12.0833333,-9.9
badalabougon,,07,12.4866667,-8.7825
badalabougou,,01,12.6255556,-7.9838889
badalabougou,,07,12.4066667,-8.7333333
baddyano,,08,16.0833333,-3.6666667
badeka,,07,13.1333333,-10.4666667
badiana,,06,11.2333333,-6.3166667
badian,,03,13.3,-10.8
badianssita,,03,13.7,-11.6333333
badiazita,,03,13.7,-11.6333333
badi,,03,14.85,-10.5833333
badigue,,07,12.35,-6.9166667
badiguendo,,07,12.5366667,-7.1186111
badingko,,03,12.9666667,-9.2166667
badinko,,03,12.9666667,-9.2166667
badinndala,,07,12.7,-9.75
badinouetou,,07,12.5536111,-7.1311111
badinye,,07,12.35,-6.9166667
badio,,04,14.6666667,-4.0333333
badioke,,07,12.7833333,-9.95
badiomo,,04,14.6666667,-4.0333333
badiongo,,04,14.6666667,-4.0333333
badiougoula,,03,15.25,-10.5
badji gourma,,02,15.7333333,0.4
badji haoussa,,02,15.6833333,0.5
badjila,,07,12.1125,-7.3438889
badogo,,07,11.0333333,-8.2166667
badouga,,03,13.3833333,-9.7333333
badougou,,03,13.3833333,-9.7333333
badougou,,07,11.0333333,-8.2166667
badougou koro,,03,13.2833333,-9.6333333
badoumbe,,03,13.6333333,-10.2166667
badoumbera,,07,13.35,-7.45
badoumbo,,03,13.6333333,-10.2166667
badyangoubougou,,07,14.1666667,-7.8
bafaga,,07,11.3666667,-7.0833333
bafarara,,03,15.3833333,-11.4666667
bafaroto,,03,14.0,-10.9
bafe,,07,12.15,-10.4333333
bafimbougou,,07,12.6477778,-7.2152778
bafing makana,,07,12.55,-10.25
bafing-makhana,,07,12.55,-10.25
bafinkabougou,,07,12.905,-7.5072222
baflebougou,,07,12.815,-7.2608333
bafoulabe,26866,03,13.8,-10.8333333
bafulabe,,03,13.8,-10.8333333
baga,,07,12.1211111,-7.9844444
bagabagadala,,03,12.6833333,-9.1166667
bagadadi,,07,12.9,-5.9
bagadadie,,07,13.8333333,-7.1
bagadadji,,01,12.65,-8.0
bagado,,07,10.95,-8.1
bagaia,,00,12.1,-11.1666667
bagalanta,,07,12.6333333,-9.9166667
bagama,,03,14.45,-10.3833333
bagama,,07,11.7166667,-8.7333333
bagan,,03,12.8727778,-8.7961111
bagani,,07,11.4,-7.85
baganita,,07,12.6333333,-9.9166667
bagari,,03,14.1333333,-10.55
bagaya,,00,12.1,-11.1666667
bagayana,,06,11.9833333,-7.1333333
bagayobougou,,07,11.95,-7.75
bagayokokoungo makandiana,,07,12.3438889,-8.7794444
bage,,00,15.3833333,-8.7666667
bagiba,,07,12.7666667,-6.5166667
bagila,,07,14.0166667,-6.1666667
bagni,,07,13.4833333,-10.4
bagny,,07,13.4833333,-10.4
bagoeni,,00,15.1666667,-8.6333333
bagoueni,,00,15.1666667,-8.6333333
bagouko,,03,13.9833333,-11.2166667
bagounde,,02,16.2166667,-0.0166667
bagoundie,,02,16.2166667,-0.0166667
bagoure,,03,14.45,-11.0333333
bague,,00,15.3833333,-8.7666667
bague,,03,13.2333333,-9.5333333
baguebougou,,07,13.45,-8.0333333
bagueya,,00,12.2,-10.55
baguia,,07,12.25,-10.4666667
baguiba,,07,12.7666667,-6.5166667
baguibe,,06,12.1,-4.9166667
baguila,,07,14.0166667,-6.1666667
baguindan,,05,13.6166667,-6.2
baguineda,,07,12.6152778,-7.7766667
baguineda village,,07,12.6333333,-7.7872222
baguini,,07,12.7166667,-6.5
baguinta,,05,13.6166667,-6.2
baguiria,,03,13.8666667,-11.0666667
baguita,,07,12.6833333,-9.6333333
baguy,,07,13.4833333,-10.4
baha,,00,15.4333333,-9.2666667
bahabougou,,00,15.2166667,-8.0166667
bahada,,04,13.8333333,-3.5333333
bahe,,03,12.8333333,-11.0166667
bahe,,07,13.0833333,-9.9833333
bahoundo,,02,16.9833333,-1.45
bai,,04,13.6333333,-3.3666667
bakabaka,,00,15.15,-7.7333333
bakabougou,,00,14.5666667,-8.4
bakadadji,,03,13.0833333,-10.7166667
bakadadji,,07,13.8333333,-7.1
bakadaka,,07,12.3369444,-8.8166667
bakafe,,08,15.6833333,-3.7833333
bakaran,,07,12.1055556,-8.5641667
bakaria,,03,13.7833333,-10.7333333
bakaribougou,,07,12.4958333,-7.2430556
bakedaka,,04,14.15,-4.9833333
bakeita,,07,12.4047222,-8.7075
baki,,07,13.0166667,-7.25
bako,,03,12.6738889,-8.9275
bako,,07,12.0488889,-8.4641667
bakogbougou,,07,13.1166667,-6.8333333
bakolobi,,03,12.65,-11.3666667
bakondo,,02,16.9833333,-1.45
bakorobabougou,,07,13.2833333,-7.2166667
bakorobougou,,07,12.6108333,-7.8830556
bakorombougou,,07,13.1166667,-6.8333333
bakoronibougou,,06,11.3833333,-5.3
bakoronidougou,,06,11.3833333,-5.3
bakou,,08,16.0333333,-3.65
bakoudian,,03,13.3166667,-9.6833333
bakoule,,07,13.0833333,-7.1833333
bakouroubougou,,07,13.3833333,-8.0666667
bakouroufata,,03,13.4333333,-10.7
bakoutoumbougou,,07,12.9219444,-7.0744444
bakoye,,03,13.8166667,-10.8166667
bala,,00,12.2166667,-11.2833333
bala,,07,12.1280556,-8.1241667
balaban,,07,13.2,-7.1666667
balabougou,,00,14.5666667,-8.7666667
balabougou,,03,12.8761111,-8.8247222
balabougou,,05,13.4,-5.9666667
balabougou,,07,12.1838889,-8.2886111
baladougou,,03,14.0666667,-10.4166667
balafimbougou,,07,12.3425,-8.1941667
balaguira,,04,13.9833333,-4.0333333
balaka,,07,13.5833333,-5.6166667
balalaba,,03,14.05,-9.75
balala,,07,12.1280556,-8.1241667
balalani,,03,14.0666667,-9.75
balal,,00,15.35,-7.75
balamansaya,,07,12.1872222,-8.7591667
bala maounde,,08,16.15,-3.5666667
balambougou,,03,13.0666667,-9.2
balan,,03,14.2833333,-11.5
balanbougou,,03,13.0666667,-9.2
balandougou,,03,12.6166667,-10.9833333
balandougou,,07,11.65,-8.45
balanfina,,07,11.0666667,-7.8833333
balaniaoule,,03,12.7333333,-11.1
balani,,03,14.0666667,-9.75
balanko,,07,12.1638889,-8.8205556
balankomana,,07,12.135,-8.7261111
balankoumakana,,07,12.135,-8.7261111
balankoumana,,07,12.135,-8.7261111
balansan,,07,11.8333333,-8.55
balea,,00,12.1666667,-11.4166667
balea,,07,12.2166667,-9.9666667
bale,,04,13.9,-4.4666667
bale,,07,12.7,-10.4166667
balebougou,,07,13.7333333,-5.5333333
bale diassa,,06,11.0666667,-5.6166667
balel,,08,15.9666667,-3.4833333
balemba,,07,12.1802778,-8.0961111
balena,,07,11.1666667,-7.9
balessadjie,,02,16.5666667,-0.1833333
baleya,,07,12.2166667,-9.9666667
baleyani,,03,13.1166667,-9.45
bale zenon,,03,15.2166667,-9.85
baliako,,03,12.8666667,-11.1166667
bali,,07,12.2461111,-8.2538889
balibougou,,07,13.7333333,-5.5333333
balikongo,,07,13.4333333,-5.55
balinndala,,07,12.5666667,-9.4666667
balle,,00,15.3333333,-8.5833333
balou,,03,12.9666667,-11.1
baltene,,03,12.6166667,-9.1
bama,,00,15.1333333,-8.0166667
bama,,04,14.0833333,-3.3166667
bamabougou,,07,12.8344444,-8.2997222
bamadiguin,,07,11.9666667,-8.5666667
bamadingue,,07,14.4333333,-9.4
bamadou,,05,12.9666667,-7.0
bamafele,,07,13.1,-10.4
bamako,1297390,01,12.65,-8.0
bamako koura,,01,12.65,-8.0166667
bamakolon,,07,13.7166667,-8.35
bamakoni,,07,12.0294444,-7.7525
bamaku,,01,12.65,-8.0
bamana,,07,12.5333333,-5.8666667
bamanan,,07,12.8930556,-7.0869444
bamanatoum,,07,11.7666667,-6.5166667
bamanatoun,,07,11.7666667,-6.5166667
baman,,07,13.8333333,-7.8333333
bamangaye,,04,15.3833333,-4.1333333
bamanina,,07,12.3883333,-8.7166667
bamanko,,03,13.5166667,-8.9
bamaro,,03,14.0666667,-10.1
bamba,,02,17.0333333,-1.4
bamba,,04,14.65,-3.1
bamba,,06,10.3833333,-7.15
bambada,,03,14.4166667,-10.55
bamba digua,,00,14.55,-9.3833333
bambala,,07,11.1833333,-7.4
bambana,,07,12.5333333,-5.8666667
bambangoumba,,00,15.1,-7.0
bambara,,04,13.4166667,-4.1833333
bambara,,07,12.5333333,-5.8666667
bambara-maoude,,08,15.85,-2.7833333
bambara maounde,,08,15.85,-2.7833333
bambara-maude,,08,15.85,-2.7833333
bambara sintienkoura,,03,14.4666667,-11.65
bambela,,03,14.6333333,-11.5666667
bambella,,03,14.6333333,-11.5666667
bambila,,03,14.3,-10.3
bambila,,07,13.85,-7.3666667
bambougou,,05,13.6333333,-6.0833333
bambougou,,06,11.4833333,-5.3333333
bamdere,,06,12.0333333,-5.4166667
bamiandougou,,07,14.2833333,-7.45
bammaco,,01,12.65,-8.0
bammako,,01,12.65,-8.0
bamodibougou,,07,13.4166667,-7.3666667
bamou,,07,12.9833333,-6.4833333
bamougou,,06,11.4833333,-5.3333333
bamoussakabougouda,,07,12.8069444,-8.4613889
bana,,00,14.7833333,-9.25
bana,,02,17.0,-1.5333333
bana,,05,12.6166667,-4.75
bana,,07,12.7,-5.7833333
banabougou,,07,14.1333333,-6.0333333
banadje,,04,15.2166667,-4.3166667
banadjie,,04,15.2166667,-4.3166667
banakoro,,03,12.7119444,-8.9708333
banakourou,,03,13.35,-10.95
banamba,30603,07,13.55,-7.45
banambani,,07,12.7919444,-8.0325
bananba,,07,13.2166667,-6.4833333
banan,,07,13.8333333,-7.8333333
bananble,,07,13.5,-6.85
banandomo,,05,13.2166667,-6.3166667
banangoroni,,05,13.35,-6.3833333
banankabougou,,03,14.3833333,-11.55
banankabougou,,07,12.6836111,-7.1472222
banankele,,07,10.6166667,-7.5333333
bananko,,07,11.25,-6.5833333
banankoni,,06,11.3166667,-5.7833333
banankoro,,03,12.8258333,-8.8886111
banankoro,,05,13.4,-6.1166667
banankoro,,06,10.9333333,-5.6
banankoro,,07,11.5333333,-7.7166667
banankoroni,,05,13.35,-6.3833333
banankoumou,,07,11.7333333,-7.65
banankoura,,03,12.7666667,-9.1
bananmbani,,07,12.7919444,-8.0325
bananso,,06,10.8833333,-6.0333333
banantomona,,07,12.25,-6.5333333
banantou,,07,12.4036111,-7.4638889
bananzole,,07,12.2147222,-7.9083333
banaouolo,,07,12.9730556,-8.0675
banare,,03,13.5333333,-11.2333333
banavana,,06,11.9833333,-7.1333333
banaya,,03,13.7166667,-10.75
banay,,04,14.6166667,-1.8666667
banazo,,06,12.1,-5.1666667
banba,,06,10.3833333,-7.15
banbadi aoura,,00,12.1166667,-11.25
banbadinnka,,00,12.3833333,-11.2166667
banbafara,,03,12.8333333,-9.5333333
banba guede,,00,15.3166667,-9.2
banbako,,03,12.85,-10.9833333
banbala,,03,13.3666667,-9.3333333
banbala,,07,11.3833333,-8.3333333
ban,,05,13.7166667,-5.3833333
banbara,,04,13.4166667,-4.1833333
banbaran,,07,13.75,-9.1166667
banbara-sintienkoura,,03,14.4666667,-11.65
banbe,,00,12.3,-11.3
banbe,,07,12.45,-10.0833333
banbela,,03,14.6333333,-11.5666667
banbera,,03,14.9,-11.1
banbila,,07,13.85,-7.3666667
banbira,,03,14.3833333,-11.6833333
banbougou,,05,13.7333333,-5.3333333
banbougou,,06,11.4833333,-5.3333333
banbougou,,07,12.5,-5.85
banbouta,,00,12.95,10.35
banda,,00,12.1333333,-11.2666667
bande,,04,14.3,-3.0166667
bande,,08,15.8166667,-3.9333333
bandia,,07,12.6,-10.5
bandiagara,6856,04,14.35,-3.6166667
bandiala,,07,10.6833333,-8.2333333
bandiankabougou,,07,13.6833333,-8.25
bandiende,,02,16.5833333,-0.2333333
bandigoula,,03,12.9833333,-9.4666667
bandionia,,03,12.7,-11.1333333
bandiougoubougou,,03,14.0666667,-9.8166667
bandiougoubougou,,07,12.7694444,-7.0036111
bandiougoubouria,,07,12.7333333,-9.8666667
bandiougoufara,,07,11.2166667,-8.35
bandiougoula,,03,15.25,-10.5
bandiougoula,,07,13.7666667,-8.15
bandiougou lambe,,00,14.9833333,-9.05
bandoma,,03,13.1666667,-9.4166667
bandougou,,07,12.5175,-7.7663889
bandyougoubougou,,00,15.05,-8.8833333
banegebougou,,07,14.0166667,-7.4333333
baneguebougou,,07,14.0166667,-7.4333333
banekane,,08,16.95,-1.75
banenso,,06,12.1,-5.1666667
baney,,08,16.2666667,-3.1833333
banfankoto,,03,12.85,-11.3666667
banfara,,00,12.2333333,-10.5166667
banfara,,03,13.0833333,-9.6
banfoula,,08,15.5166667,-4.0
banga,,00,12.4833333,-4.4833333
banga,,07,13.7833333,-5.8333333
banga,,08,15.6166667,-4.1
bangadarya abadyouma,,08,16.0166667,-3.5666667
bangadarya wouloun,,08,16.0333333,-3.2833333
bangadia,,08,16.0333333,-3.2833333
bangadie,,04,14.5833333,-2.1
bangadina,,05,12.6666667,-4.6666667
bangadria,,08,16.0333333,-3.2833333
bangala,,03,14.7,-10.4333333
bangalebougou,,07,13.5,-7.5
banganoura,,03,14.0166667,-11.1166667
bangao,,08,16.7833333,-2.2666667
bangasse,,03,14.5,-11.5
bangassi,,03,13.0166667,-9.55
bangassi,,04,13.3666667,-4.3
bangassidougou,,03,14.55,-11.4833333
bangassi nangou,,03,14.5,-11.5
bangaya,,03,13.2333333,-10.7166667
bango,,04,15.1666667,-4.0166667
bango,,05,14.2,-5.4666667
bangoro,,07,12.7333333,-6.9
bangou,,05,13.7166667,-5.3833333
bangouma,,07,12.9,-6.9166667
bangouna,,05,13.3666667,-4.9666667
banguel toupe,,04,14.6666667,-3.65
bangui akadi,,02,15.5,0.5666667
banguirila,,03,14.2333333,-10.6833333
banguita,,04,15.2833333,-4.35
banharho,,03,13.4333333,-11.3
banhon,,07,12.8666667,-9.8333333
baniakafata,,07,12.8333333,-9.8
baniakoro,,07,12.3697222,-7.525
baniakoro ouolodiedo,,07,12.3919444,-7.5269444
baniamebougou,,07,13.5333333,-6.7166667
baniankafata,,07,12.8833333,-9.8
bani,,05,13.6666667,-6.2
bani,,08,16.5666667,-3.2
banikan,,08,16.05,-3.6
banikane,,08,16.05,-3.6
banikani,,04,15.1833333,-2.8
bani-koro,,00,14.7166667,-5.8666667
baninko,,03,12.9666667,-9.2166667
baninkoro,,07,12.6136111,-7.0608333
baninkouma,,07,12.4672222,-8.7325
baninzole,,07,12.2147222,-7.9083333
baniougou,,05,13.6333333,-6.0833333
banire,,00,12.0166667,-10.6166667
banire kore,,00,15.2,-9.15
bankame,,03,14.3333333,-11.2833333
bankani,,08,16.1666667,-3.7833333
bankas,,04,14.0666667,-3.5166667
bankass,,04,14.0666667,-3.5166667
bankasse,,04,14.0666667,-3.5166667
bankassi,,04,13.4333333,-3.75
bankassi,,07,12.0947222,-8.3347222
banko,,03,12.7666667,-9.15
banko,,06,11.95,-7.4833333
banko,,07,11.4166667,-6.8
bankokoro,,07,12.42,-8.0902778
banko koura,,07,12.42,-8.0902778
bankole,,07,11.9333333,-8.6833333
bankoma,,04,13.3833333,-3.8
bankoma,,08,16.8,-2.05
bankoni,,01,12.6772222,-7.95
bankoni,,03,12.8833333,-9.3333333
bankoni,,07,12.7333333,-6.65
bankonina,,03,13.0166667,-9.3333333
bankoro,,07,12.2352778,-7.4322222
bankoroni,,07,12.3413889,-8.4930556
banko-sokoum,,07,11.1,-7.4333333
banko sokoun,,07,11.1,-7.4333333
bankouma,,05,13.05,-5.2166667
bankouma,,07,12.9,-6.9166667
bankoumana,,07,11.3,-8.2666667
bankoumani,,07,12.4219444,-7.605
bankumana,,07,12.8333333,-5.7833333
banlassi,,02,15.4833333,0.7166667
ban markala,,07,13.1,-5.5333333
banmbangoumba,,00,15.1,-7.0
banna,,03,15.2833333,-9.6166667
bannbadinnka,,07,13.2833333,-10.3166667
bannkara,,08,16.9333333,-1.6833333
banntako,,03,13.2,-11.1166667
banome,,02,16.6,-0.2666667
banougou,,07,12.5175,-7.7663889
banounfe,,07,12.45,-9.7833333
bansa,,03,13.7,-11.0333333
bantahama,,03,14.1833333,-10.8333333
bantakoto,,07,12.7,-10.1166667
bantanho,,08,16.4833333,-3.1333333
bantanko,,03,12.6333333,-11.05
bantankoto,,03,13.35,-10.7166667
bantanta,,03,13.1666667,-9.6833333
bantianko,,03,13.4166667,-10.7333333
banti,,07,12.9697222,-8.2311111
bantiesso,,07,12.75,-5.5666667
bantina,,04,14.0333333,-4.15
bantinngoungou,,03,13.7,-10.8666667
bantoma,,03,13.0666667,-9.3833333
bantona,,07,12.25,-6.5333333
banyega,,08,16.1666667,-3.7333333
banzana,,03,14.4333333,-11.5
banzana,,07,10.5333333,-7.25
banzan,,07,12.0883333,-8.5144444
banzano,,07,13.1166667,-7.4666667
banzanso,,06,11.55,-5.2666667
banzasso,,06,11.55,-5.2666667
bao,,07,12.2166667,-6.5833333
bao bowal,,00,12.0666667,-11.1833333
bao flala,,07,12.2166667,-6.5833333
baon,,05,13.7166667,-5.3833333
baoua,,08,16.2333333,-3.2833333
baouema,,04,13.9,-3.7
baoule,,03,12.8880556,-8.6297222
baoundo,,02,16.9833333,-1.45
barabala,,07,13.3666667,-9.4166667
bara,,02,15.8,0.3333333
baraberi,,02,15.8166667,0.2666667
barafara,,03,13.85,-10.65
barafoto,,03,14.0,-10.9
baraine,,00,14.6666667,-9.0666667
barakaboagou,,07,14.2833333,-5.55
barakabougou,,07,12.8666667,-6.6333333
barakaia,,03,13.1333333,-8.8833333
barakole,,03,14.4166667,-11.2833333
barakolombougou,,07,13.9,-8.05
barakolonbougou,,07,13.9,-8.05
barakorodji,,07,13.5166667,-8.7333333
barakoto,,03,12.6666667,-11.05
barakotogore,,03,13.8833333,-10.3166667
barakourou,,07,12.3391667,-8.6938889
barama,,03,14.3333333,-9.9333333
baramabougou,,07,14.4333333,-9.4
baramana,,07,12.8,-5.6
baramandougou,,04,13.6,-4.6
baramba,,05,12.6333333,-5.45
baram,,07,12.7333333,-9.3833333
barana,,04,13.1166667,-4.5166667
baranian,,03,12.9666667,-9.5833333
barani,,07,11.4,-7.85
baranii,,03,13.5333333,-11.5666667
baraninnba,,03,13.1166667,-9.5166667
barao,,08,15.5833333,-3.85
barassafe,,07,13.8333333,-7.7
barassale,,03,14.8,-9.6166667
baratou,,04,13.9333333,-4.4
barayogoulekana,,04,14.0,-3.25
barbara,,00,12.3333333,-10.9333333
barbon,,02,15.5,0.5833333
bare,,04,14.0666667,-3.5666667
barebougou,,07,14.1333333,-6.0833333
bare seme,,04,15.3,-3.8833333
barfa,,00,12.2,-11.25
bargue,,04,14.8,-3.0666667
barhanba,,05,12.6333333,-5.45
barikoro,,00,14.7166667,-5.8666667
barila,,07,10.9333333,-8.15
barkadaga,,04,14.15,-4.9833333
barkafou,,03,14.9666667,-11.0666667
barkaia,,03,13.1333333,-8.8833333
barkaina,,02,16.95,-0.75
barkaya,,03,13.1333333,-8.8833333
barke amadou,,00,14.85,-7.95
barkedaga,,04,14.15,-4.9833333
barkerou,,00,15.2666667,-5.5833333
barkeyna,,02,16.95,-0.75
barkinelbi,,04,15.1666667,-3.8666667
barlakourou tinntila,,07,13.15,-10.4
barna,,05,12.6166667,-4.75
baro,,07,12.3302778,-8.4558333
barou,,08,15.5833333,-3.85
baroueli,,07,13.0666667,-6.8333333
baroumba,,03,13.4,-11.35
barsafe,,00,15.3,-8.5666667
barsafe,,03,14.2833333,-10.4833333
barsafe,,07,13.8333333,-7.7
barsandaga,,03,13.7666667,-9.65
bartaga,,02,16.3666667,-0.0833333
bartyakoba,,02,15.6666667,0.5
barweli,,07,13.0666667,-6.8333333
basaka,,00,15.2666667,-8.6166667
basaro were,,07,14.5,-6.1
bascidialambougou,,07,13.3,-6.8833333
basibougou,,07,14.3833333,-8.3
bassa,,07,11.4333333,-7.3
bassabougou,,07,13.0666667,-8.3
bassaka,,00,15.2666667,-8.6166667
bassalaba,,07,14.0,-7.8833333
bassala,,07,14.0,-7.8833333
bassara,,00,12.1166667,-11.1666667
bassarey,,02,17.0,-1.35
bassaro were,,07,14.5,-6.1
bassatou,,03,13.8333333,-10.9
basse,,03,13.95,-11.5
bassediguebi,,07,10.5666667,-7.9166667
basselaba,,07,14.0,-7.8833333
bassian,,07,12.3333333,-7.4666667
bassibougou,,03,13.2833333,-9.6
bassibougou,,07,12.7505556,-8.1713889
bassidialandougou,,07,13.3,-6.8833333
bassidibedji,,07,10.5666667,-7.9166667
bassidibedjin,,07,10.5666667,-7.9166667
bassirou,,03,15.4,-10.6666667
bassi-tomon,,00,14.6833333,-5.9333333
bassiya,,03,12.7833333,-11.1666667
basso,,05,12.5166667,-5.3333333
batakaredji,,03,15.2833333,-9.5333333
batal,,02,16.3833333,-0.0166667
batale,,03,12.7333333,-11.2
batama,,03,13.05,-11.1666667
batanga,,02,17.0,-0.7833333
batara,,07,13.4833333,-5.6833333
batchirikui,,04,13.15,-4.5
baterande,,03,14.2833333,-10.8333333
batibougou,,07,12.7919444,-8.2891667
batiembougou,,05,13.4333333,-6.05
batienso,,04,13.2,-4.3166667
batigama,,02,16.3833333,-0.0833333
batilaye,,00,12.3333333,-10.7
batimakana,,03,13.25,-9.3833333
batiokui,,04,13.1833333,-4.7
batirilo,,04,13.6333333,-4.4166667
bato,,03,12.9,-10.8666667
batou,,04,14.3166667,-2.5
batoudji,,07,12.75,-9.85
batouma,,04,15.0,-3.6166667
batouma,,08,15.8333333,-4.0166667
batroebougou,,00,14.7166667,-8.4833333
battal,,02,16.3833333,-0.0166667
bawa,,05,13.25,-4.8666667
bawa,,08,16.2333333,-3.2833333
bawema,,04,13.9,-3.7
bayabougou,,07,13.1833333,-8.4166667
bayala,,07,12.6166667,-9.2333333
bayan,,07,12.1966667,-8.6738889
bayasso,,04,13.1833333,-4.7
baye,,03,13.35,-10.95
bayeko,,03,12.8,-9.2666667
bayele,,07,12.0155556,-7.6094444
bayo,,05,13.4,-6.4166667
bayorobougou,,07,12.8730556,-7.2583333
bayouko,,03,13.9833333,-11.2166667
bazayokobougou,,07,11.9,-8.0333333
bazogou,,04,13.7833333,-3.55
beba,,08,15.5666667,-3.3666667
be,,07,13.15,-5.5
bebe,,07,13.1,-6.7833333
bedekoma,,03,14.0333333,-10.2666667
bedewel,,04,14.0166667,-3.1833333
bedeya,,07,12.4972222,-8.6866667
befarara,,03,15.3833333,-11.4666667
begela,,07,11.7666667,-8.05
begene,,07,12.7166667,-6.5
begnena,,07,12.4,-6.5666667
begoudjinde,,02,16.5166667,-0.0833333
beguene,,07,12.7166667,-6.5
behekui,,04,13.2,-4.3166667
beidat,,00,15.45,-8.8
bejela,,07,11.7666667,-8.05
bekola,,03,12.7833333,-11.1333333
bekui,,04,13.4333333,-4.7166667
bela,,07,11.1333333,-7.05
belabougou,,05,13.5166667,-6.4
belamougou,,07,14.3333333,-6.8833333
bele,,04,13.9,-4.4666667
belebougou,,05,13.5166667,-6.4
beleco,,07,12.65,-6.5666667
beleelinko,,07,13.55,-7.4166667
belekanbougou,,07,13.2,-8.0333333
beleko,,00,14.5833333,-7.6333333
beleko,,07,12.4833333,-6.4166667
beleko flala,,07,12.4666667,-6.4166667
beleko gwengena,,07,12.45,-6.4333333
beleko gwenguena,,07,12.45,-6.4333333
belekoro,,07,12.4833333,-6.4166667
beleko soba,,07,12.4833333,-6.4166667
belekosso,,07,12.4333333,-5.6166667
belekou,,07,12.4833333,-6.4166667
belel,,08,16.9333333,-1.7333333
beleneko,,07,13.5833333,-8.15
beleni,,07,12.3,-6.45
beleninko,,07,13.2,-7.3166667
beleninnko,,07,13.2,-7.3166667
belesso,,07,12.3166667,-5.6
beletela,,07,13.3833333,-5.7666667
belga,,02,15.45,0.7333333
belia,,04,15.4166667,-1.7166667
belidinkare,,03,14.4333333,-11.7
belindo,,07,12.1619444,-8.5291667
bella,,04,15.4166667,-1.7166667
bellassao diena,,08,16.7333333,-2.7333333
bellassao djinguina,,08,16.7333333,-2.7166667
bellassao guiguina,,08,16.7333333,-2.7166667
bellassao zeyna,,08,16.7333333,-2.7333333
belleko,,07,13.6166667,-7.3333333
bellel,,08,16.9333333,-1.7333333
bellenitieni,,05,13.3833333,-4.9166667
belou,,03,14.5833333,-11.6166667
bema,,00,15.05,-9.35
bema,,08,15.7333333,-4.2
bemanaou,,07,12.8902778,-8.1122222
bemasa,,07,12.8902778,-8.1122222
bemasso,,07,12.8902778,-8.1122222
bembokoto,,03,13.8666667,-11.7666667
bembougou,,07,11.7333333,-6.5333333
bemekabougou,,07,12.0213889,-7.8183333
bemmbokoto,,03,13.8666667,-11.7666667
bena,,03,12.75,-11.3666667
bena,,04,13.2166667,-4.6666667
benandiana,,07,12.75,-6.3166667
ben,,07,13.35,-7.8166667
benda,,00,12.4833333,-10.5333333
bendorobougou,,07,11.1833333,-6.5666667
bendougou,,03,13.0666667,-9.8666667
bendougou,,07,12.2666667,-10.3333333
benema,,04,13.1166667,-4.3666667
benena,,04,13.1166667,-4.3666667
benena,,07,12.8166667,-5.8666667
beneni-kegni,,05,13.3833333,-4.9166667
benenikenyi,,05,13.3833333,-4.9166667
bengo,,00,14.6,-6.9
beniambougou,,07,12.6411111,-8.1508333
benian,,07,12.1313889,-7.1705556
beniani,,07,13.5,-7.5666667
beni,,04,12.8833333,-4.6166667
benima,,08,15.7333333,-4.2
beninko,,07,12.6197222,-7.3211111
beniouma,,04,14.1666667,-3.3833333
benke salima,,00,15.6333333,-4.6166667
benkou,,07,12.4833333,-6.4166667
bennbara,,04,14.1,-3.1666667
benndieli,,04,14.4666667,-3.5833333
benngourla,,06,12.2166667,-4.9666667
bennke-salima,,00,15.6333333,-4.6166667
benoudakoto,,03,12.7666667,-11.1166667
bentia,,02,15.35,0.7666667
benyan,,07,12.1313889,-7.1705556
benyena,,07,12.4,-6.5666667
benyoko,,07,14.2333333,-8.55
benzana,,07,11.0333333,-7.6333333
benzasso,,06,11.55,-5.2666667
bera,,02,16.35,-0.0333333
berala,,06,11.7666667,-7.3166667
berdossou,,04,14.7333333,-3.05
berebogola,,07,11.4333333,-8.1833333
berebougou,,07,12.5430556,-7.4083333
berebougoula,,07,10.6166667,-8.2
beregoungo,,08,16.7333333,-2.5833333
beregoungou,,08,16.7333333,-2.5833333
berekantounbo,,07,12.2833333,-9.5333333
berekegni,,03,12.6166667,-9.2
bereko,,07,10.9833333,-8.05
berekoma,,03,14.35,-10.5166667
berekoussa dioma,,03,13.4166667,-11.1666667
berela,,07,12.3911111,-8.3847222
berele,,00,14.65,-8.9333333
berele,,07,10.7833333,-7.95
bereli,,04,14.2666667,-3.2166667
beremassou,,03,13.65,-10.6166667
beretekounda,,03,13.35,-10.6333333
beretela,,05,13.4666667,-5.95
bereya,,07,12.5463889,-8.7575
bergenare,,00,15.2,-7.35
berguenare,,00,15.2,-7.35
berian,,07,11.4166667,-7.9333333
berila,,07,11.45,-7.4166667
berinbe,,04,13.6,-3.6833333
berkegni,,03,12.8333333,-11.0666667
berola,,03,13.0333333,-11.0166667
berta,,05,13.7166667,-5.2
bertela,,05,13.4666667,-5.95
bertela,,07,12.7833333,-6.8666667
berzak,,00,15.1166667,-7.25
bessebougou,,03,14.35,-11.5
bessina,,07,10.9833333,-6.7666667
besso,,06,12.1,-4.9833333
beteandi,,03,12.95,-9.7666667
beyabougou,,07,13.1833333,-8.4166667
bia,,02,16.85,-0.3
bia,,05,13.5333333,-5.9833333
bia,,06,10.3666667,-6.1
bia,,08,15.65,-4.3333333
bi,,04,13.9166667,-2.9333333
bi,,07,13.15,-5.5
bicatongo,,08,16.7333333,-3.7333333
bida,,07,11.9166667,-8.65
bidandji,,03,15.2,-10.7
bidangala,,03,12.6,-10.9333333
bidi,,04,13.4666667,-3.9166667
bienso,,05,13.2666667,-4.9666667
biko,,07,11.9,-7.6333333
biladie,,07,11.0833333,-7.15
biladji kodlouroula,,03,14.9166667,-9.85
biladjmi,,03,14.7,-11.5166667
biladougou,,03,13.1333333,-9.4833333
bilafoundou,,03,12.7166667,-10.9666667
bilajmi,,03,15.0166667,-11.25
bilalbankore,,08,15.7166667,-3.7666667
bilalikoira,,02,16.1833333,-0.0333333
bilali koyra,,02,16.1833333,-0.0333333
bilali sirandou,,00,15.15,-5.5333333
bilantal,,04,15.2833333,-1.5666667
bile dembere,,04,14.9666667,-4.3833333
bilel,,08,16.0666667,-3.2333333
bilifara,,03,12.8666667,-9.2833333
biliko,,07,12.8833333,-9.8666667
bilikouate,,00,15.5333333,-11.6
bilissibougou,,03,14.1333333,-9.5333333
biljami,,03,15.0166667,-11.25
bima,,04,14.9166667,-3.7666667
bimbala,,07,13.4666667,-7.1333333
binadyana,,07,12.75,-6.3166667
binanko,,07,14.1833333,-8.3833333
bin,,07,13.35,-7.8166667
binbougou,,07,11.7333333,-6.5333333
binda,,00,12.4833333,-10.5333333
bindiga,,03,14.2666667,-10.55
bindorobougou,,07,11.1833333,-6.5666667
bindougouba,,03,13.05,-9.3833333
bindougou,,00,14.7666667,-9.4166667
bindougou,,03,13.0666667,-9.8666667
bindougou,,07,12.2666667,-10.3333333
bindougouni,,03,13.05,-9.3833333
bindougouni,,07,12.6,-9.25
binea,,03,12.6166667,-11.0333333
binedama,,04,14.4666667,-3.05
binela,,03,14.75,-10.8
bineou,,00,15.4666667,-8.9333333
bingassi,,07,13.25,-10.5
bingata,,08,16.2333333,-3.4666667
binian,,07,12.1313889,-7.1705556
binianko,,07,14.1833333,-8.3833333
bini,,07,12.4472222,-7.4341667
bininko,,07,12.6572222,-7.2713889
binionkolonbougou,,00,14.5333333,-9.3833333
binke,,00,15.6333333,-4.6166667
binke-salima,,00,15.6333333,-4.6166667
binko,,07,11.5166667,-8.2833333
binnbia,,07,12.3333333,-10.4333333
bintagoungou,,08,16.7333333,-3.7333333
binteguela,,03,14.3166667,-11.55
bintiante,,03,14.5666667,-9.65
bintie,,08,15.5666667,-4.4666667
birabafara,,03,13.9333333,-10.35
bira,,00,14.9666667,-7.7
birakala,,07,11.0,-6.8666667
birala,,06,11.7666667,-7.3166667
birga,,04,14.0333333,-3.2666667
biribari,,03,14.25,-10.4166667
birim,,03,14.3333333,-11.1333333
birmassou,,03,13.9,-11.8833333
birni bongo,,08,16.7,-2.8166667
biro,,08,15.7,-3.95
biron,,07,12.2983333,-7.7605556
birou,,03,13.8,-10.9166667
birou nyakate,,00,15.4666667,-8.0666667
bissan,,02,17.0166667,-0.85
bissane,,02,17.0166667,-0.85
bitagongo,,08,16.7333333,-3.7333333
blabie,,07,11.8833333,-7.8666667
bla,,07,11.7666667,-6.9
bladie,,07,10.9333333,-7.3166667
blajmil,,03,15.2166667,-10.65
blan,,07,12.4661111,-7.7086111
blanegoudia,,07,13.75,-7.4833333
blendio,,07,11.6166667,-6.35
blendioni,,07,11.8666667,-6.2166667
blenkoua,,07,12.7122222,-7.0913889
blenndo,,07,12.05,-5.5
blenoro,,07,13.85,-8.1166667
blinndio,,06,10.85,-6.4666667
blinndio,,07,11.6166667,-6.35
blinndion,,07,11.8666667,-6.2166667
blinngo,,03,13.3333333,-11.15
blondioni,,07,11.8666667,-6.2166667
bloumadougou,,07,13.5333333,-5.8
boaba,,07,13.1833333,-8.3833333
boa,,07,14.0833333,-6.1166667
boadie,,07,13.2166667,-6.8666667
boala,,05,13.5833333,-5.3333333
boala,,07,13.1833333,-8.3833333
boala ware,,07,14.0833333,-6.1
boani,,04,13.6333333,-4.4833333
boatoubougou,,07,13.0666667,-8.2833333
bobala,,07,12.2183333,-7.4319444
bo,,02,17.0,-0.8
bo,,07,14.0833333,-6.1166667
bobobougou,,03,12.9388889,-8.9969444
bobola,,05,13.5333333,-6.1
bobola zangasso,,05,12.5333333,-5.0
bobosso,,04,13.6666667,-3.6666667
bobougou,,00,14.65,-8.3333333
boboye,,04,14.2666667,-3.95
boda,,07,12.0777778,-8.6547222
bodala,,03,12.6666667,-11.05
bode,,03,15.25,-9.75
bodewel,,04,14.0166667,-3.1833333
bodiarinko,,07,13.3833333,-10.45
bodie,,07,12.1416667,-7.0041667
bodiebougou,,07,13.95,-8.3
bodio,,04,14.25,-3.6833333
bodogo,,07,12.8305556,-7.5319444
boeberi,,08,16.85,-2.0166667
boefa,,08,15.6,-3.9333333
boeganiola,,03,13.3,-9.9
boekoura,,03,15.1,-10.0166667
boere,,00,12.25,-10.6
bofe,,07,12.2069444,-8.5661111
bofonde,,00,15.15,-8.4833333
bofoto,,03,13.2333333,-9.8666667
bogere,,00,14.9833333,-7.6
bogobele,,03,13.05,-8.7833333
bogo,,04,14.8666667,-3.9333333
bogo,,06,12.0680556,-7.3980556
bogo,,07,11.1166667,-7.5166667
bogodougou,,07,11.0833333,-7.1
bogokote,,07,12.1455556,-8.7611111
bogola,,07,12.2825,-7.8641667
bogolo,,04,14.3166667,-3.7166667
bogomo,,03,13.0,-9.4833333
bogonibele,,07,12.0733333,-8.0388889
bogoni,,07,12.8,-5.5666667
bogonifara,,07,12.0775,-8.0869444
bogoro,,05,12.8,-4.7333333
bogosso,,05,13.25,-4.8666667
bogossoni,,05,13.25,-4.8666667
bogotafara,,07,11.0333333,-8.3
boguere,,00,14.9833333,-7.6
boguie,,07,13.2166667,-6.8666667
bohi,,07,11.3166667,-7.0666667
bohidinie,,07,13.6666667,-8.2
bohouara,,06,11.1333333,-6.0333333
boidigendou,,07,12.8333333,-6.7833333
boidigue,,07,12.8016667,-7.1430556
boidiguendou,,07,12.8333333,-6.7833333
boila,,07,13.7333333,-8.35
bokerela,,07,13.6,-7.4
boki ouere,,07,14.0166667,-5.6
boki were,,07,14.0166667,-5.6
boko,,03,13.3,-11.3833333
bokoko,,08,15.8833333,-3.4
bokoni,,07,12.8,-5.5666667
bokoro,,05,12.8,-4.7333333
bokoro,,07,11.8166667,-7.6333333
bokossoni,,05,13.25,-4.8666667
bokoto,,07,13.1666667,-10.1333333
bokoun,,07,12.2591667,-8.8727778
bokoutinnti,,03,13.7833333,-11.8833333
bokoy koyra,,08,16.4666667,-3.1833333
boky-were,,07,14.0166667,-5.6
bola,,05,13.5833333,-5.3333333
bolasso,,06,10.9,-5.6
bolekongo,,07,13.4333333,-5.55
bolenikoro,,07,11.15,-8.5166667
bolibabougou,,07,12.6866667,-7.4294444
bolibana,,01,12.65,-8.0166667
boli bana,,03,14.4666667,-12.2
bolibanabougou,,07,12.7766667,-8.5480556
bolimba,,04,14.25,-3.8833333
bolimmba,,04,14.25,-3.8833333
bolitomo,,07,13.0166667,-6.3666667
bolokoro,,07,11.1666667,-7.75
bolokouma,,04,13.85,-4.0333333
bolokourouni,,03,12.8677778,-8.8919444
boloma,,07,12.7333333,-6.1166667
bolomo,,04,14.55,-3.3
bolonka,,07,13.5833333,-6.75
bolontou,,07,12.0891667,-8.6072222
boloukoro,,07,11.1666667,-7.75
bomandiougou,,07,14.2833333,-7.45
bomandyougou,,07,14.2833333,-7.45
bombala,,07,11.1833333,-7.4
bomboro,,07,12.055,-8.5955556
bomborou,,07,12.0833333,-8.5833333
bombou,,04,14.4333333,-3.2333333
bomboya,,07,11.9166667,-7.9666667
bombu,,04,14.4333333,-3.2333333
bomiando,,07,12.0991667,-8.4836111
bomou,,07,11.4833333,-6.7833333
bonadiebougou,,07,13.35,-8.2166667
bona hamadi,,04,15.45,-5.3833333
bonala,,07,13.5,-7.5833333
bonambassi,,05,4.3177778,9.8372222
bona moussoule,,04,15.45,-5.3666667
bonbala,,07,11.1833333,-7.4
bon,,07,11.9833333,-6.45
bonboti,,07,13.6166667,-8.9166667
bonboya,,07,11.9166667,-7.9666667
bonda,,07,12.5666667,-10.05
bonderi,,03,13.7166667,-11.4166667
bondiekourou,,03,13.5333333,-11.0333333
bondio,,07,11.4333333,-7.2833333
bondo,,07,12.2338889,-7.5038889
bonege,,07,12.1833333,-6.1666667
bonegue,,07,12.1833333,-6.1666667
bonfan,,07,12.2363889,-8.4594444
bonga,,04,14.7333333,-4.55
bongka,,03,14.1166667,-10.3
bongo,,04,14.4666667,-3.2833333
bongourou,,03,14.4833333,-11.5166667
boni,,03,13.4,-9.9833333
boni,,04,13.6333333,-4.4833333
bonie,,00,15.3,-9.0333333
bonka,,03,14.1166667,-10.3
bonkoro,,04,13.0,-4.4333333
bonkouma,,05,13.3666667,-4.9666667
bonmborou,,07,12.055,-8.5955556
bonnegue,,07,12.1833333,-6.1666667
bono,,04,14.1333333,-3.0
bonoubougoula,,07,13.2333333,-6.3833333
bonoumba,,05,13.0333333,-5.05
bonsibougou,,07,12.3333333,-6.55
bordj pierre bordes,,02,19.9833333,2.9166667
bore,,04,15.1333333,-3.4833333
borela,,07,11.1166667,-8.4
borenta,,08,15.8166667,-1.3
borhoto,,07,13.1666667,-10.1333333
bori,,04,14.6,-4.8
bori,,08,16.7,-2.7666667
borko,,04,14.95,-3.35
borno,,02,16.0666667,0.05
boro,,03,12.8833333,-9.3833333
boro,,04,14.4333333,-3.4166667
boro,,07,12.0988889,-8.8336111
boroboro,,07,14.0833333,-9.4333333
borodyo,,00,14.6333333,-8.0166667
boroka,,03,14.05,-10.2333333
borokone,,03,13.8666667,-11.7
borola,,07,12.2825,-7.8641667
boromba,,07,13.9,-7.4333333
boronba,,07,13.9,-7.4333333
boron,,07,11.7166667,-6.0166667
borongo,,04,14.4666667,-4.6333333
boronke,,03,13.85,-10.15
borono,,07,12.3208333,-8.5586111
bororo,,03,14.6666667,-11.7333333
borotossou,,03,14.0833333,-11.1166667
bosahalia,,02,16.9833333,-0.7833333
bosogoungou,,08,16.4,-3.2
bosola,,01,12.6333333,-8.0
bossahalia,,02,16.9833333,-0.7833333
bosselio,,02,17.0,-0.7833333
bossi,,00,14.6833333,-5.9333333
bossi-tomo,,00,14.6833333,-5.9333333
bossi tomon,,00,14.6833333,-5.9333333
bosso,,04,13.2333333,-4.3166667
bossogoungou,,08,16.4,-3.2
bossolo,,03,14.4333333,-10.0666667
bossoni,,04,13.3166667,-4.65
botegakourou,,03,14.35,-11.45
boto,,03,13.5666667,-11.05
botouba,,06,12.1508333,-7.2047222
bouabelena,,07,12.9733333,-8.1583333
bouabougou,,07,12.6925,-8.235
bouadiana,,07,13.4666667,-7.6666667
bouadiebougou,,07,13.35,-8.2166667
bouadiougoubougou,,07,12.9877778,-8.1858333
bouadla,,05,13.4166667,-5.9833333
bouadougou,,07,12.7902778,-7.2616667
bouaia,,07,12.5763889,-8.2636111
bouaka,,07,13.3666667,-5.7666667
bouala,,07,13.2666667,-5.7333333
bouanekui,,04,13.3666667,-4.4
bouani,,04,13.6333333,-4.4833333
bouanidie,,07,12.6238889,-7.3005556
bouanindie,,07,13.45,-8.3
bouara,,06,11.1333333,-6.0333333
bouara,,07,11.7166667,-6.0166667
bouare,,00,15.45,-8.6833333
bouassaba,,05,13.2833333,-5.1166667
bouassa,,06,11.3833333,-6.35
bouazoulo,,04,13.7666667,-4.3666667
bouba,,07,12.85,-6.4166667
boubabougou,,07,13.2,-7.25
boubala,,07,12.0675,-8.5175
boubanki,,04,15.35,-1.8666667
boube,,00,12.3,-10.8
boubeko,,00,12.15,-10.65
boubere,,00,12.1,-10.6333333
boubere mangabailo,,00,12.1,-10.6
boubou,,03,13.5166667,-11.45
bouboukou,,07,13.2666667,-8.3833333
boubouya,,03,12.8833333,-9.5
boudandji,,03,14.1666667,-11.0333333
boudela,,03,13.5166667,-11.4666667
boudenzo,,07,14.4833333,-8.9166667
boudiania,,07,13.4666667,-7.6666667
boudibaga,,00,11.9,-10.6833333
boudissara,,02,15.6666667,0.45
boudjadla,,03,14.2333333,-9.85
boudjiguire,,00,14.8833333,-6.85
boudofoba,,03,13.0833333,-9.5166667
boudofo,,03,13.0833333,-9.5166667
boudofoni,,03,13.0833333,-9.5166667
boudou,,04,14.65,-3.8
boudougou,,07,13.5,-7.4
bouela,,07,13.7833333,-7.3333333
boueye,,07,13.7,-9.05
bouga,,05,13.5666667,-6.2
bougara,,03,13.2,-10.7166667
bougaria,,03,12.5333333,-11.0666667
bougaribaya,,07,12.8166667,-9.85
bougarla,,03,14.3,-11.5
boughessa,,02,20.0272222,2.2644444
bougono,,07,12.4,-5.5333333
bougoro,,06,11.9333333,-5.4166667
bougoro,,07,12.4,-5.5333333
bougouba,,07,12.8666667,-7.25
bougoubaga,,07,13.45,-8.8666667
bougouberi,,08,16.0833333,-3.4666667
bougouda,,03,13.5333333,-9.9166667
bougoudako,,07,12.8827778,-7.8461111
bougoudala,,00,14.7,-9.1
bougoudala,,05,13.2333333,-4.95
bougoudale,,07,11.25,-8.45
bougoudalo,,05,13.2333333,-4.95
bougoudiana,,05,13.4,-5.3833333
bougoudiana,,07,13.3166667,-7.8666667
bougoudirani,,05,12.6333333,-5.2166667
bougoudire massassi,,00,14.7166667,-9.3
bougoudire maure,,00,14.7166667,-9.2666667
bougougadar,,07,12.7333333,-9.4333333
bougoukorola,,07,13.65,-8.05
bougoukoura,,07,13.7833333,-8.2666667
bougoukourala,,07,12.3833333,-6.3666667
bougoukour,,07,13.1166667,-7.05
bougoukourdia,,07,12.3833333,-6.3666667
bougoulaba,,00,10.4833333,-7.75
bougoula,,04,13.7166667,-4.5
bougoula,,06,11.3166667,-5.6166667
bougoula,,07,10.7833333,-6.9166667
bougoulafara,,07,11.7,-7.5833333
bougouma,,06,12.1333333,-4.5666667
bougoum,,07,11.4166667,-7.4833333
bougoumeyra,,08,16.5166667,-3.7166667
bougoundia,,03,14.9833333,-10.5
bougouni,35567,07,11.4166667,-7.4833333
bougouni,,08,16.7333333,-2.5166667
bougounikoura,,07,13.15,-6.4166667
bougounimbougouda,,07,12.1102778,-7.6202778
bougounina,,07,13.5833333,-7.5
bougouninkono,,07,12.6966667,-8.1608333
bougounissaba,,07,13.1333333,-7.5
bougounso,,05,12.6666667,-5.2
bougountineti,,03,14.4833333,-11.2
bougountinti,,03,14.1166667,-10.6
bougoura,,04,14.7,-5.2333333
bougourinke sare,,04,15.45,-3.8
bougouro,,07,12.4,-5.5333333
bougourou,,05,13.15,-5.0166667
bougoutone,,03,14.1,-10.95
bougoutourou,,03,14.75,-11.1333333
bougouya,,03,13.6166667,-11.05
boui,,04,14.85,-3.7333333
bouiguel,,03,14.8166667,-9.5333333
bouila,,03,12.6333333,-9.1833333
bouiwa,,04,13.6666667,-4.3666667
boukabougouda,,07,12.4505556,-7.9369444
bouka,,05,13.5666667,-6.2
boukarefara,,03,13.3,-9.15
boukari,,04,14.5833333,-4.8
boukarila,,07,12.0,-6.1166667
boukari samba,,00,15.5166667,-5.25
boukouda,,03,13.9333333,-11.0833333
boukourala,,07,13.35,-5.8833333
boukoutinnti,,03,14.5166667,-9.8166667
boula,,00,15.0833333,-8.4333333
boula,,04,15.2166667,-2.6833333
boulal,,00,15.0833333,-8.4333333
boulandissou,,03,12.7833333,-11.3833333
boulango,,04,14.2833333,-5.25
boularou,,03,14.3666667,-10.1833333
boul,,08,16.8333333,-2.0333333
boule bani,,00,14.7,-9.2
boule,,04,13.5166667,-3.8166667
boule,,07,14.2833333,-9.45
bouledani,,00,14.7,-9.2
bouleko,,07,12.8833333,-9.8666667
boulel,,03,14.85,-11.35
boulel,,04,15.1,-5.2833333
boulerel,,04,13.5166667,-3.8166667
boulibanda,,03,12.95,-9.65
bouli bani,,00,14.7,-9.2
bouli,,00,15.3333333,-9.2833333
bouli,,08,16.1833333,-3.5333333
boulinga,,07,13.5833333,-6.75
boulkassonmbougou,,07,12.6852778,-7.9225
boullal,,00,15.0833333,-8.4333333
boulol,,00,15.1833333,-7.7333333
boulonkobougou,,07,14.0333333,-7.6666667
boulou abaidate,,00,15.2,-9.4666667
boulouba,,03,13.6333333,-11.3
boulou,,00,15.2,-9.4666667
boulou,,03,14.7666667,-9.55
boulougou,,07,13.2666667,-8.3833333
bouloukoro,,07,11.1666667,-7.75
boulouli,,00,15.5666667,-9.35
boulouli,,03,13.2833333,-9.65
boulouli ware,,03,14.6833333,-9.6833333
bouloumba,,03,13.4166667,-11.1333333
boulounga,,07,12.7333333,-6.1166667
boulou rangabel,,03,15.1833333,-9.5166667
boulouyel,,03,14.7666667,-9.55
boumala,,06,12.4666667,-5.0
boumban,,04,15.0833333,-2.6333333
boumbou,,04,14.4333333,-3.2333333
boumboum,,04,15.0166667,-1.7
boumodi maniale,,00,15.2333333,-5.5666667
boumoudo,,07,13.1833333,-8.35
boumouke,,03,14.8666667,-9.9833333
boumoundo,,07,13.7666667,-7.3833333
boumountoukoro,,07,12.8902778,-7.0566667
bouna,,04,15.1,-3.9333333
bouna,,06,11.6833333,-5.45
bounala,,03,14.4,-11.45
boundaga,,04,14.0666667,-4.1833333
bounderi,,03,13.7166667,-11.4166667
boundio,,07,11.4333333,-7.2833333
boundjigire,,00,14.8833333,-6.85
boundjiguire,,00,14.8833333,-6.85
boundoubadi,,00,15.65,-5.1833333
boundou boubou,,04,15.0833333,-5.4666667
boundou,,04,14.4666667,-3.3833333
boundou boundou,,08,16.2333333,-3.1666667
boundouerou,,04,14.85,-1.7166667
boundougourou,,03,13.2333333,-10.7166667
boundouka,,07,11.1833333,-8.0333333
boundounke,,03,15.1,-9.7166667
boundourolo,,03,14.05,-9.8
bounga,,07,13.3666667,-5.5666667
boungouma,,07,12.1869444,-8.5022222
bounguel,,04,14.1666667,-4.1
bounidie,,07,13.45,-8.3
bounou,,04,14.8,-3.7666667
bounou,,07,13.1833333,-6.4
bounouko,,07,11.1833333,-8.0333333
bounoumba,,05,13.0333333,-5.05
bounounbougoula,,07,13.2333333,-6.3833333
bounounko,,07,11.1833333,-8.0333333
bounti,,04,15.2,-2.5833333
bountoumba,,03,13.95,-10.3333333
bountoun,,03,13.55,-11.3
bouoro,,07,12.9947222,-8.3125
bouossohui,,04,13.6,-4.3666667
bouotou,,07,14.0333333,-8.1333333
bouraba,,07,12.0722222,-7.0344444
bourabanta,,07,12.4333333,-9.55
boura,,04,13.4333333,-4.5666667
boura,,06,12.4166667,-4.55
bouraimaka bodoro,,08,15.7833333,-3.3
bouraimaka,,08,15.8166667,-3.3166667
bouraimaka tiafori,,08,15.8166667,-3.3166667
bourakebougou,,07,13.0666667,-8.25
bourala,,06,12.1277778,-7.3552778
bouramabougou,,07,12.6977778,-7.3772222
bourama,,03,13.1666667,-11.2
bouras,,00,15.3333333,-7.4
bourasso,,04,13.6833333,-4.4
bouratoubougou,,07,12.4747222,-7.0080556
bourdala,,03,13.5166667,-11.4666667
bourdala,,04,13.6,-3.3
bourdyadye,,00,14.8666667,-6.9333333
bourea,,03,12.95,-10.6
boureko,,03,14.0,-10.4833333
bourela,,03,13.7333333,-10.5
bourem,,02,16.9,-0.35
bourem,,08,16.3666667,-3.3333333
bourem forassi,,02,16.95,-0.4
bourem guindou,,02,16.9,-0.35
bourem inali,,08,16.7,-2.85
bouressa,,02,20.0272222,2.2644444
bourgouko,,00,14.8666667,-6.1166667
bourgou siratigui,,04,15.3833333,-5.4833333
bouro,,04,13.3166667,-3.35
bourokui,,04,12.8666667,-4.25
bourou,,07,13.5833333,-8.1333333
bourouki,,03,14.0833333,-10.5833333
bouroukou,,03,13.15,-8.95
bouroumba,,07,11.1833333,-6.6833333
bourouna,,07,11.95,-6.6833333
bourou n'dyaie,,00,14.8833333,-6.85
bousauma,,04,15.1166667,-2.6
boussala,,07,11.25,-6.7666667
bousse,,05,13.5,-5.9333333
boussola,,07,11.25,-6.7666667
boussoudiara,,07,11.1333333,-7.8
boussouma,,04,15.1166667,-2.6
boussou miyou,,02,16.8166667,-0.3333333
boussoura,,00,12.2166667,-11.1166667
bouta,,00,15.5333333,-4.5333333
bouta,,04,13.6166667,-4.45
bouta,,07,12.2333333,-6.7166667
boutanga,,02,17.0,-0.8
boutika,,00,14.9166667,-8.0833333
boutissigare,,00,14.7,-9.0666667
boutounguissi,,03,15.15,-11.65
boutrassie,,00,15.05,-9.1
bouya bougou,,07,12.1333333,-6.8
bouya,,07,12.2333333,-6.7166667
bouyaga,,03,14.5,-9.65
bouyagui,,03,14.8,-11.7833333
bouyanga,,00,15.1833333,-9.2166667
bowara,,06,11.1333333,-6.0333333
boya,,08,15.7166667,-3.3666667
boya goundya,,02,15.85,0.2333333
boyague,,03,14.8,-11.7833333
boya houndou,,08,16.4833333,-3.4
boya oundou,,08,16.4833333,-3.4
boya sambaloumbe,,08,16.4666667,-3.4166667
boytini,,03,12.5661111,-8.9827778
bozibougou,,07,12.3333333,-6.55
bozola,,01,12.6333333,-8.0
bozola,,04,13.6333333,-4.85
bozolaniarela,,01,12.65,-8.0
brahimabougou,,00,15.3333333,-8.2833333
brahimabougou,,07,13.0666667,-7.1166667
bramassarola,,03,14.2833333,-11.4833333
bransantoumou,,03,12.9136111,-8.9302778
brelangui,,03,15.35,-9.95
brombila,,06,11.8333333,-7.3666667
bronbila,,06,11.8333333,-7.3666667
bugula,,06,11.3166667,-5.6166667
buguni,,07,11.4166667,-7.4833333
bura,,06,12.4166667,-4.55
burem,,02,16.95,-0.35
busse,,05,13.5,-5.9333333
bwanidye,,07,12.8016667,-7.1430556
cangonteri,,03,14.0666667,-10.9333333
celofana,,07,12.2252778,-8.8388889
celofara,,07,12.2252778,-8.8388889
chabaria,,02,16.9333333,-0.6166667
chakara,,08,15.7666667,-4.45
chebougoula,,07,12.0666667,-6.7666667
chela,,07,12.8008333,-7.8102778
chembe,,02,16.2666667,-0.1
chembou,,08,16.9833333,-1.6333333
cheoui,,02,16.95,-0.9833333
cherifiga,,08,16.1,-3.3333333
cheudeum,,00,15.2333333,-7.15
chiankoro,,07,12.2333333,-6.65
chicolomba,,06,12.2166667,-5.4333333
chie,,00,14.5333333,-8.4833333
chieme,,06,10.2833333,-5.9833333
chikoloma,,06,12.2166667,-5.4333333
chikolomba,,06,12.2166667,-5.4333333
chinchina,,07,12.35,-7.9666667
chirfiga,,08,16.1,-3.3333333
chkata,,00,15.4333333,-9.4833333
chkata koroute,,00,15.4333333,-9.4833333
choala,,07,13.4,-7.55
chouala,,06,12.05,-4.8
chouchiena,,07,11.5333333,-6.25
choula,,07,12.9166667,-7.8166667
chyo,,07,12.9516667,-7.5091667
chyodo,,07,12.5641667,-7.2966667
chyofie,,03,12.8383333,-8.8216667
chyokoro,,07,12.5991667,-7.1436111
cinzana,,07,13.25,-5.9666667
cissegue,,06,10.6666667,-5.9833333
coulombo,,03,14.5333333,-12.05
coussela,,03,14.6666667,-11.9666667
daalo,,05,13.2666667,-5.0
dababougou,,06,12.0166667,-7.4427778
dababougou,,07,13.3333333,-7.9
daba,,03,15.3333333,-11.3166667
daba,,07,12.3091667,-7.6569444
daba,,08,15.5666667,-3.4833333
dabai amate,,00,15.65,-9.3333333
dabai founabie,,00,15.2166667,-9.0166667
dabai kebou,,00,15.25,-9.15
dabai nai,,00,15.05,-9.0666667
dabai sidi,,00,15.2166667,-9.0
dabakabougou,,00,14.6166667,-8.3
dabako,,07,12.3780556,-7.7408333
dabala,,07,12.0566667,-8.5288889
daban,,07,13.2166667,-8.3166667
dabani,,07,12.9127778,-7.8994444
dabara,,00,14.5333333,-9.0166667
dabara,,07,10.7166667,-8.1
dabara,,08,15.7,-3.5666667
dabarassire,,08,16.4166667,-3.2333333
dabar,,03,14.0166667,-11.15
dabaya,,03,13.6,-12.0166667
dabay,,00,15.05,-8.9166667
dabay mahamoud,,08,16.2333333,-3.0666667
dabey gandi,,08,16.8,-3.7166667
dabia,,03,12.6666667,-11.1333333
dabi,,08,15.9166667,-4.15
dabirholon,,03,13.45,-11.3
dabola,,04,13.05,-4.4
dabora,,03,13.05,-11.3166667
daboudaga,,04,13.6,-4.2166667
dabousebougou,,00,15.2333333,-8.05
da,,05,13.15,-4.95
dadanbougou,,05,13.5,-6.05
dadia,,03,14.25,-11.05
dadiou,,04,13.6,-3.8
dadiougoubala,,07,10.6833333,-8.1833333
dadiougoukoulou,,07,13.5,-8.6666667
dadou,,07,13.7166667,-8.2166667
dadyebougou,,00,14.5333333,-8.15
daele,,03,13.6666667,-11.1666667
dafara,,03,14.05,-11.5
dafara,,07,12.1508333,-7.8697222
dafara i,,07,12.1508333,-7.8697222
dafara ii,,07,12.1608333,-7.8680556
dafebougou,,07,12.8133333,-8.3963889
dafela,,03,12.9666667,-9.4
dafi,,00,15.5666667,-4.7833333
dafimbougou,,07,13.9,-8.1666667
dafina,,05,13.7333333,-6.0833333
daforo,,07,12.8011111,-7.7863889
dagada,,04,14.9333333,-4.5666667
daga,,04,13.2666667,-4.5333333
daga,,08,16.0,-2.6666667
dagadou,,07,13.5333333,-8.2333333
dagadougou,,04,13.7166667,-4.3166667
dagaina,,07,12.1666667,-9.8166667
dagala,,04,14.9333333,-4.5666667
dagambe,,08,15.5,-4.0666667
dagani,,04,14.9,-3.4166667
dagarekourou,,03,14.4,-11.45
dagari,,03,12.7166667,-10.6333333
dag dag,,03,14.5833333,-11.4333333
daguia,,00,12.25,-10.5166667
daguia,,07,12.25,-10.4666667
dagui,,07,12.7008333,-7.2922222
daguima,,03,12.7666667,-11.1833333
dagumbe,,08,15.5,-4.0666667
dahoun,,05,13.2666667,-4.9666667
daidourou,,04,14.4166667,-2.7
daka amadou dyale,,08,15.8,-2.85
daka bara,,08,16.0166667,-2.7666667
daka bonyokou,,08,15.9,-2.85
dakabori,,04,14.4,-4.3833333
dakaboube,,00,12.0,-10.6833333
daka,,00,12.0333333,-11.3
daka deki,,00,11.95,-10.7333333
daka dyereve,,08,16.0166667,-2.7166667
daka fifo,,08,16.0333333,-2.6833333
dakakaia,,08,15.9166667,-3.2833333
dakakaya,,08,15.9166667,-3.2833333
dakakoro,,08,15.8666667,-3.0166667
daka koro,,08,15.9,-2.95
dakakoto,,00,12.0833333,-10.6666667
daka makana,,07,12.4666667,-10.0666667
dakambo,,08,15.5,-4.0666667
dakandape,,03,14.5333333,-11.6166667
daka pate,,08,15.9166667,-2.8666667
daka saidou,,00,11.95,-10.6666667
dakassenou,,03,14.3,-12.0166667
dakmana,,07,12.85,-5.85
dako bambara,,08,15.6,-4.05
dakolobougou,,07,14.0333333,-7.4666667
dako malinke,,08,15.6,-4.05
dakombo,,08,15.5,-4.0666667
dakounta,,00,12.3,-10.7
dakouya,,00,12.1,-10.6666667
dakoyra,,08,16.4333333,-3.2
dalaba,,03,13.8666667,-9.8833333
dalaba,,07,11.5333333,-8.2166667
dalabala,,07,11.65,-8.1833333
dalaban,,00,10.4833333,-7.95
dalabasso,,06,10.9166667,-5.7833333
dalabo,,03,13.8666667,-9.8833333
dalabougou,,07,14.4666667,-8.5
dalada,,07,11.0666667,-8.3
dala,,03,13.3666667,-10.7333333
dala,,04,15.1,-2.6333333
daladiaran,,07,12.7833333,-9.4333333
dalagoue,,07,10.7166667,-8.2333333
dalakana,,07,12.3458333,-8.2158333
dalakan,,00,10.4833333,-7.95
dalala,,03,12.7666667,-9.2833333
dalama,,07,12.8666667,-9.9833333
dalanana,,07,12.3458333,-8.2158333
dalane,,03,14.5333333,-11.1666667
dalanguebougou,,07,13.8333333,-6.45
dalebougo,,07,14.3166667,-7.2666667
dalebougou,,07,14.3166667,-7.2666667
dalekanda,,04,14.7666667,-3.1
dalibera,,03,14.5166667,-9.7166667
dali,,00,15.1166667,-8.0
dali,,03,14.3666667,-9.9833333
dalissilame,,03,14.1166667,-10.7666667
dallah,,04,15.1,-2.6333333
daloma,,03,13.55,-10.75
dalouba debe,,08,16.6166667,-4.3
damadie,,07,13.8666667,-7.4333333
damadon,,07,12.4191667,-7.6572222
damadou,,05,13.55,-6.2833333
damakafata,,07,12.6333333,-9.6833333
damakebougou,,03,14.3333333,-11.4833333
damanbougou,,07,14.4333333,-8.5166667
daman,,07,12.2425,-7.8036111
damandi,,03,14.4166667,-10.1666667
damankara,,00,14.6333333,-9.2
damanko,,07,12.6072222,-7.0383333
damatanbe,,03,13.7666667,-9.6
damba,,00,14.9166667,-7.7166667
damba djoube,,03,13.7833333,-10.7333333
dambala makandiana,,07,12.4502778,-8.8602778
dambaniouma,,03,14.35,-11.2833333
damba tcharkitara,,00,14.9166667,-7.7333333
dambela,,06,12.0111111,-7.1758333
dambele,,03,13.3166667,-10.6166667
dambouga,,03,14.5666667,-10.3333333
dambougou,,07,12.3936111,-7.0866667
damena,,03,14.2833333,-9.7
damfa,,07,14.15,-7.5
dami,,04,13.1833333,-4.6166667
damidie,,05,13.8,-5.1833333
damne,,02,16.5,-0.0833333
damou,,05,12.6666667,-4.7666667
dampha,,07,14.15,-7.5
dana,,02,16.7666667,-0.2333333
dana,,04,14.1666667,-3.05
danaou,,07,13.4833333,-10.2166667
danba fari,,00,12.3166667,-11.1833333
danbaka,,04,14.7666667,-5.1
danbako,,07,12.7666667,-9.65
danbala,,00,12.2,-11.4
danbala,,03,13.0333333,-11.1333333
danbana,,03,12.9833333,-9.5333333
dandangoura,,08,16.1166667,-3.5833333
danderesso,,06,11.4833333,-5.4833333
dandoko,,03,12.6833333,-11.1
dandougou,,07,12.5666667,-6.5
danekui,,04,13.2833333,-4.35
danfa,,07,12.6833333,-6.0833333
danfaka,,00,12.1166667,-10.5833333
danfibougou,,07,13.9,-8.1666667
danfina,,05,13.7333333,-6.0833333
danfina,,07,11.0333333,-7.15
danfola,,07,11.0166667,-7.4833333
dangaberi,,02,15.8166667,0.2666667
danga,,08,16.4666667,-3.1333333
dangakoro,,07,12.6786111,-7.3791667
dangal,,08,15.7166667,-3.7166667
dangalene,,07,12.1488889,-8.8794444
dangani,,04,14.9,-3.4166667
dangatene,,04,14.2333333,-2.9666667
dangay,,08,16.4833333,-3.4666667
dangedou,,07,14.35,-7.4
dangeli,,00,15.15,-8.0666667
dango,,07,12.65,-8.2
dangolola,,07,13.2833333,-5.7166667
dangorola,,07,13.6166667,-8.0833333
dangougouni,,04,13.8666667,-4.2666667
dangoukoura,,07,11.1833333,-7.2833333
dangouma,,08,16.8333333,-2.15
danguedou,,07,14.35,-7.4
dangueli,,00,15.15,-8.0666667
danguena,,07,12.7333333,-5.9166667
dangueniedo,,07,13.9,-8.0166667
danian,,07,12.2425,-7.8036111
dani,,06,10.45,-6.75
dani,,07,11.7166667,-7.7333333
danigounda,,02,16.7166667,-0.2666667
dani sare,,04,14.8333333,-3.8
dankan,,07,11.6833333,-8.6833333
dankasa,,07,12.1516667,-8.2125
dankassa,,07,12.1516667,-8.2125
dankassene,,07,12.1811111,-8.4597222
dankolo,,07,13.6,-7.4166667
dankoumana,,07,12.8333333,-5.7833333
dankourou,,03,14.1666667,-11.5333333
dankoussa,,04,14.0666667,-4.3333333
danmba,,00,14.9166667,-7.7166667
danmba tcharkitara,,00,14.9166667,-7.7333333
dan nha,,02,16.7833333,-0.3
danpankoura,,07,14.1666667,-8.4166667
danperakui,,04,13.15,-4.6
dansa,,04,15.0833333,-2.7333333
dansana,,07,12.5833333,-5.65
dantare ouologo,,00,12.2,-10.8333333
dantare-wologo,,00,12.2,-10.8333333
dantari,,00,12.0666667,-11.2833333
dantiande,,04,14.6833333,-3.8666667
dantiola,,07,12.6833333,-5.8166667
danza,,04,15.0833333,-2.7333333
danzene,,07,12.8666667,-6.8833333
daola,,07,12.0833333,-6.2333333
daona,,07,14.25,-6.4166667
dao sorkey,,02,15.8833333,0.25
daoudabougou,,01,12.6011111,-7.9872222
daoudabougou,,07,12.6419444,-7.0616667
daoula,,07,12.0833333,-6.2333333
daoulasso,,06,10.9166667,-5.7166667
daoulenia,,07,12.7166667,-9.75
daouna bere,,07,10.55,-8.0166667
daouna,,07,14.25,-6.4166667
darabo,,03,13.6333333,-11.3666667
darabo,,07,13.4833333,-10.2166667
darabougou,,06,11.4166667,-6.4333333
darabougou,,07,12.4627778,-7.6766667
dara,,00,15.0666667,-7.65
dara,,04,15.1666667,-1.7
dara,,07,12.0147222,-8.0886111
dara,,08,15.65,-3.8333333
darakele,,07,12.0333333,-6.6333333
darakondo,,07,12.1425,-8.4691667
daramane,,03,14.6166667,-11.9
darambougoula,,03,14.4166667,-10.9333333
daramboungala,,03,14.4166667,-10.9333333
daram,,02,16.5833333,-0.1
darani,,07,12.4047222,-7.7583333
daraolila,,07,10.7666667,-8.25
daraou,,07,13.4833333,-10.2166667
darat,,07,12.8294444,-8.0930556
daravela,,01,12.65,-8.0166667
darele,,03,14.9,-11.3833333
dar el salam,,00,15.6833333,-4.6166667
dar es salam,,00,15.6833333,-4.6166667
daressalam,,07,12.75,-9.8333333
dar-es-salam,,08,15.9166667,-3.6
daribera,,03,14.5166667,-9.7166667
dari,,04,13.7666667,-4.3
dari,,08,15.9166667,-3.6
darifoufou,,07,12.7336111,-7.4077778
daro,,03,15.2833333,-11.0666667
darouma,,03,14.0,-9.6666667
daroussalam,,00,12.4166667,-10.9166667
darrabougou,,07,12.0333333,-8.0666667
darsalam,,00,12.05,-10.7
dar salam,,00,12.1166667,-11.3
darsalam,,00,14.95,-7.3833333
dar salam,,01,12.65,-8.0166667
dar salam,,03,12.9666667,-11.2
darsalami,,00,14.6166667,-9.3
darsalami,,03,14.8166667,-9.6666667
dar salam oulouma,,03,14.1666667,-11.5833333
dassara,,03,14.5,-9.75
dassi,,04,14.6333333,-3.5166667
dasso,,05,13.0666667,-4.9833333
dassoumbougou,,07,12.1416667,-7.0738889
datala,,03,12.7666667,-9.2833333
datan,,07,13.2166667,-8.3166667
datiaga,,03,13.4,-11.2166667
datien,,05,12.5666667,-5.3
davo,,03,15.2833333,-11.0666667
day,,00,15.35,-7.2666667
daye,,00,15.35,-7.2666667
ddabaran,,07,10.7166667,-8.1
debanso,,05,13.0,-5.1833333
debe foumba,,08,15.9,-2.9666667
debela,,07,10.5166667,-7.1833333
debele,,04,13.0333333,-4.6833333
debele,,07,11.55,-6.9833333
debena,,07,10.7,-6.5333333
debenoro,,03,14.2833333,-9.5
debenso,,05,13.0,-5.1833333
debeouel galaga,,08,16.0,-3.65
debere,,04,15.1,-3.0
debi kouroumba,,03,15.3666667,-9.7833333
debo bambara,,00,14.5833333,-9.3666667
debo banbara,,00,14.5833333,-9.3666667
debo massassi,,00,14.5833333,-9.3666667
debougou,,07,14.3666667,-5.9833333
debous,,00,15.2333333,-8.05
de,,04,14.7666667,-3.25
de,,06,11.6333333,-5.8
dedekui,,04,13.5,-4.6
deero,,04,13.8833333,-2.9666667
degala,,07,12.0255556,-8.3936111
degnekoro,,07,12.35,-6.6666667
degou,,04,14.0666667,-4.0833333
deguebo,,07,10.9666667,-7.15
degue,,04,15.2666667,-4.5666667
degue degue,,04,15.3833333,-3.9833333
deguena,,04,14.7333333,-3.9833333
deguere,,03,13.6333333,-10.8166667
degueta,,07,13.2833333,-7.85
deguetan,,07,13.2833333,-7.85
deguimbere,,04,14.3333333,-3.7666667
dehelo,,04,13.35,-4.45
dekabori,,04,14.4,-4.3833333
deko,,03,12.75,-11.0
dekorobougou,,06,11.25,-6.4166667
dekourabougou,,07,12.7713889,-7.4486111
delebougou,,07,13.3,-8.2166667
delegoai,,08,15.8666667,-3.2333333
delegoui,,08,15.8666667,-3.2333333
delegouye,,08,15.8666667,-3.2333333
dellegouye,,08,15.8666667,-3.2333333
demabougou,,07,13.9666667,-7.2
demanka,,03,15.2,-9.5
demba,,00,14.9166667,-7.7166667
demba demba,,03,15.15,-9.8666667
dembala,,03,15.3333333,-10.4833333
demba sala,,00,14.9833333,-7.5166667
dembasso,,07,10.55,-6.8333333
dembatoumania,,03,14.0666667,-10.8333333
dembela,,07,11.7333333,-6.3666667
dembere,,04,15.0,-3.1166667
dembere ti-n- alabi,,04,15.1833333,-1.5666667
demeke,,03,14.3333333,-10.3833333
demeni,,07,12.0755556,-7.5694444
demmbala,,03,15.3333333,-10.4833333
demoro,,07,13.9666667,-8.1833333
dempaba,,08,15.5,-3.4833333
dempa,,00,14.6166667,-9.1833333
dempiela,,07,11.15,-6.9166667
dena,,04,13.85,-3.45
dena,,07,13.0166667,-7.3666667
denakui,,04,13.4666667,-4.6666667
denanbougou,,05,13.2166667,-6.2333333
dendebre,,02,16.9833333,-0.5333333
dendeguer,,08,16.5666667,-3.7666667
dendeguere,,08,16.5666667,-3.7666667
dendia,,08,15.5,-3.4833333
denfa,,07,12.6833333,-6.0833333
denfara,,07,11.9833333,-7.8166667
denfina,,07,11.0333333,-7.15
dengan,,07,12.1102778,-8.6241667
dengilabougou,,07,12.1758333,-8.2936111
denha,,08,16.4666667,-3.1333333
deni,,07,13.0,-6.8
denie,,07,11.2333333,-7.4833333
deniekoro,,07,12.35,-6.6666667
denikouroula,,07,11.8166667,-5.6666667
denso,,00,10.4666667,-8.0833333
denyekoro,,07,12.35,-6.6666667
dera,,04,15.2333333,-3.9333333
derbasso,,06,10.9166667,-5.7833333
dereguile,,03,14.35,-10.7833333
deri,,04,14.25,-3.3
derien,,02,16.9666667,-0.8833333
desebela,,06,11.1666667,-6.1666667
dessogou,,04,14.0,-3.4666667
detegoungou,,08,16.4666667,-3.2166667
deylouba debe,,08,16.6166667,-4.3
dezebela,,06,11.1666667,-6.1666667
diaakoro,,05,13.75,-6.2666667
diaba-allaye,,04,14.0,-4.2
diababougou,,07,13.75,-8.2833333
diaba,,04,14.0,-4.2
diaba,,05,13.7333333,-6.35
diaba,,07,13.4,-6.7166667
diabadji,,03,14.6333333,-11.0166667
diabaguela,,00,15.05,-9.0166667
diabaguela,,03,15.15,-10.6
diabakebougou,,07,13.9,-7.9166667
diabakou,,03,12.6333333,-11.1
diabala,,03,12.6888889,-8.9969444
diabala,,07,10.8,-8.15
diabal,,00,14.6833333,-6.0166667
diabali,,00,14.6833333,-6.0166667
diabani,,06,11.9166667,-7.4666667
diabasso,,07,12.15,-6.1333333
diabata,,00,15.6,-5.1333333
diaba were,,07,13.4,-6.7166667
diabaya,,03,12.8666667,-11.0833333
diabe,,03,14.6833333,-10.2
diabeia,,00,12.3333333,-11.4166667
diabesamou,,03,13.9666667,-10.7333333
diabessamou,,03,13.9666667,-10.7333333
diabeya,,00,12.3333333,-11.4166667
diabgue,,00,15.15,-9.3166667
diabi,,00,12.4833333,-11.1
diabi,,04,14.35,-4.5833333
diabidiala,,03,14.75,-9.5
diabigue,,00,15.15,-9.3166667
diabira,,07,14.35,-9.4
diablo,,04,13.85,-4.5333333
diabole,,00,15.6,-5.1333333
diabolo,,04,13.85,-4.5333333
diaboso,,04,14.3,-4.95
diabougou,,03,12.9333333,-11.2
diabougou,,05,13.1666667,-5.0833333
diabougou segala,,03,14.3166667,-11.4666667
dia-bozo,,04,14.3,-4.95
diabressadi,,07,12.3666667,-10.5
diabugu,,05,13.1666667,-5.0833333
diacandape,,03,14.5333333,-11.6166667
dia,,04,13.6333333,-3.8333333
dia,,07,12.9833333,-5.85
diadia,,00,14.8166667,-6.1333333
diadia,,03,13.7333333,-10.3833333
diadian,,00,14.8166667,-6.1333333
diadiani,,07,13.0666667,-8.1
diadiela,,03,14.8333333,-9.8666667
diadioma,,08,15.8,-3.0
diadiouma,,08,15.8,-3.0
diadioumbera,,03,14.7833333,-11.05
diadji,,03,15.1,-10.5666667
diado,,04,13.7333333,-5.0833333
diado,,07,13.5,-6.5166667
diafarabe,,04,14.15,-5.0166667
diafarana,,06,12.0136111,-7.4741667
diafibougou,,07,13.9166667,-8.0
diagala,,03,13.1333333,-9.9
diagana,,03,14.65,-9.5
diago,,05,13.05,-7.0
diago,,07,12.7780556,-8.1547222
diago koro,,07,12.8163889,-8.1522222
diagou,,05,13.05,-7.0
diagounte,,03,14.3,-10.0333333
diaguila,,03,12.65,-9.1
diaguina,,03,13.3833333,-11.3333333
diahouatou,,08,16.3333333,-3.4166667
diai koura,,03,15.1833333,-9.9833333
diai tougoune,,03,15.15,-9.95
diakaba,,03,13.3333333,-10.7833333
diaka,,07,11.1833333,-7.1166667
diakali,,03,14.3166667,-9.8833333
diakamedi,,00,15.1666667,-9.4333333
diakamodi,,00,15.1666667,-9.4333333
diakandape,,03,14.5333333,-11.6166667
diakankore,,04,15.1333333,-4.25
diakara,,03,14.8833333,-9.7833333
diaka were,,07,14.4333333,-6.0
diakele,,07,11.7166667,-6.4666667
diakha,,03,14.4,-11.4333333
diako,,03,14.4666667,-10.25
diako,,06,12.185,-7.2386111
diako,,07,12.0333333,-7.6833333
diakola,,07,10.7,-6.7666667
diakone,,03,14.6333333,-10.7333333
diakoni,,07,12.5030556,-7.5619444
diakoro,,05,13.3666667,-6.0333333
diakoro,,06,12.0425,-7.3883333
diakoumbaramagnia,,03,14.0166667,-10.5
diakoumbaramania,,03,14.0166667,-10.5
diakounkofela,,03,13.2333333,-9.4166667
diakoura,,07,13.1,-7.0666667
diakouri,,04,14.35,-5.0833333
diakourouna,,05,12.8666667,-5.1333333
diakoutame,,03,14.45,-10.6
dialabougou,,03,12.9058333,-8.905
dialabougou,,05,13.4,-6.1666667
diala,,03,13.7333333,-10.8666667
diala,,06,12.1722222,-7.22
diala,,07,11.6333333,-6.65
dialadian,,03,13.1166667,-11.05
dialadidian,,03,13.6833333,-12.0
dialadou,,07,13.4,-7.35
dialafara,,03,13.1333333,-9.4
dialafara rhama,,03,13.4333333,-11.4333333
dialafoundou,,07,11.65,-8.75
dialafoundoudi,,03,12.9,-11.2
dialaga,,03,14.3166667,-10.6333333
dialagunou,,03,13.2666667,-11.1166667
dialaka,,03,14.6333333,-10.8166667
dialakemoro,,03,13.8666667,-11.75
dialakenyi,,07,12.0686111,-8.2522222
dialako,,03,12.7666667,-10.9166667
dialako-male,,07,12.1,-6.1166667
dialakon,,03,13.7833333,-10.35
dialakoni,,03,12.9666667,-9.2833333
dialakora,,03,14.8833333,-9.9833333
dialakora,,07,12.0552778,-7.8233333
dialakoroba,,07,12.2677778,-7.9247222
dialakoro bangassi,,03,14.95,-9.75
dialakorobougou,,07,12.5894444,-7.8305556
dialakoro,,03,14.5666667,-9.8666667
dialakoro,,05,13.1,-5.4833333
dialakoro,,07,10.8166667,-6.9333333
dialakoro djitoumou,,07,12.0552778,-7.8233333
dialakoroji,,07,12.7055556,-7.9655556
dialakoroko,,07,11.7166667,-8.1666667
dialakoroni,,07,11.8,-7.8666667
dialakoto,,00,12.25,-10.8333333
dialakoto,,03,12.7333333,-11.0333333
dialakoto,,07,13.1833333,-10.4166667
dialalara,,03,13.45,-11.3833333
dialamadi,,07,12.2975,-8.8475
dialamadji,,03,14.0833333,-9.7333333
dialamakoli,,07,12.7666667,-10.1333333
dialanbi,,03,14.5166667,-12.2166667
dialanda,,07,11.2,-8.4833333
dialanikoro,,07,12.0891667,-7.5961111
dialara,,03,14.7333333,-10.1666667
dialassagou,,04,13.75,-3.6166667
dialaya,,03,13.0166667,-9.4166667
dialaye,,04,13.65,-3.5166667
dialeani,,03,13.1333333,-9.4666667
dialikebafata,,03,13.1666667,-9.6
dialla,,07,13.4166667,-8.0833333
diallai,,04,13.65,-3.5166667
diallassagou,,04,13.75,-3.6166667
diallassagu,,04,13.75,-3.6166667
diallaye,,04,13.65,-3.5166667
dialloube,,04,15.0166667,-4.2333333
dialloube,,08,16.35,-3.55
dialo,,03,14.4666667,-11.5
dialokoro,,05,13.75,-6.2666667
dialola,,03,13.7333333,-10.8666667
dialoubatoma,,00,14.6666667,-9.4166667
dialsago,,04,13.75,-3.6166667
diamabougou,,06,11.1,-6.2166667
diama,,04,13.9,-3.6166667
diamadi,,07,13.4,-7.9
diamakan,,04,13.6333333,-4.15
diamakole,,07,11.6666667,-6.7166667
diamala,,04,14.3333333,-4.4
diamala,,07,11.6666667,-7.4166667
diamana,,04,13.75,-4.05
diamandi,,07,13.4,-7.9
diamantene,,06,10.5333333,-5.9166667
diamba katadaka,,03,14.1,-10.15
diamba kourou,,04,14.8166667,-3.9833333
diambe,,00,14.6166667,-5.9
diamberebougou,,07,12.8686111,-7.6183333
diambogo,,07,10.6,-6.8833333
diambougou,,07,11.4,-6.5166667
diam,,04,13.8166667,-3.7666667
diameli,,02,15.15,0.6833333
diameli,,03,15.25,-9.55
diamera,,03,15.1833333,-9.9166667
diamia,,04,14.65,-4.1833333
diami foulaguine,,00,12.15,-11.25
diamina,,04,14.65,-4.1833333
diamissabougou,,07,12.7502778,-7.9577778
diam koko,,08,15.55,-4.2166667
diamou,,03,14.0833333,-11.2666667
diamou,,06,12.0833333,-7.2333333
diamoussirala,,07,10.5666667,-8.2
diana,,07,13.1833333,-7.8666667
dianbabougou,,07,13.3166667,-7.3
dianba,,03,13.9,-11.8666667
dianbala,,07,13.1833333,-8.5166667
dianbe,,00,14.6166667,-5.9
dianbogo,,07,10.6,-6.8833333
dianbougou,,07,11.4,-6.5166667
diandama,,07,10.8666667,-6.9333333
dian,,04,13.8,-3.3666667
diandiana,,03,14.1833333,-10.5166667
diandiana,,07,10.8666667,-6.9333333
diandian,,07,12.4894444,-7.7191667
diandioume,,00,15.4,-9.3833333
diandoume,,00,14.7,-9.4666667
diandye,,07,12.7166667,-6.7833333
dianega,,03,14.5166667,-10.95
dianeguebougou diago,,07,12.8666667,-8.1555556
dianeguebougou safo,,07,12.8861111,-8.0586111
dianela,,07,12.2927778,-8.3416667
dianfabougou,,07,12.4827778,-7.4458333
dianfa,,03,14.1166667,-10.7666667
dianfe,,07,12.1244444,-7.8588889
dianfina,,07,11.0333333,-7.15
diangadara,,03,12.65,-11.0666667
dianga,,04,13.7666667,-3.6333333
diangamare,,04,15.4833333,-3.6
dianganda,,04,14.7,-3.1666667
diango,,07,13.15,-7.1833333
diangoula,,07,12.8333333,-9.4666667
diangounte camara,,03,14.55,-9.5166667
diangounte,,03,13.6833333,-11.85
diangounte kamara,,03,14.55,-9.5166667
diangoute,,03,13.6833333,-11.85
diangoute kamara,,03,14.55,-9.5166667
dianguinane,,04,15.4833333,-3.6
dianguinare,,04,15.4833333,-3.6
dianguinebougou,,07,12.9777778,-7.395
dianguirde,,07,14.4833333,-9.0166667
dianikasse,,03,14.5166667,-11.8333333
dianikoro,,07,12.3136111,-7.4005556
diankabo,,04,14.5833333,-3.0833333
diankabou,,04,14.5833333,-3.0833333
diankarela,,07,11.9166667,-6.4166667
dianke,,00,15.7333333,-4.65
dianko,,06,11.8166667,-7.0833333
dianoueli,,04,13.9166667,-4.15
dianouna,,08,15.8,-3.0
dianveli,,04,14.9,-2.9
dianveli kesel,,04,14.9,-2.9
dianveli kessel,,04,14.9,-2.9
dianveli maounde,,04,14.8666667,-2.9166667
dianweli,,00,15.2333333,-5.6
diaouambe,,04,15.35,-5.4833333
diaouambe fournangue,,04,15.35,-5.4833333
diaouanibe,,04,15.35,-5.4833333
diaouanveli,,00,15.2333333,-5.6
diarabougou,,06,11.4166667,-6.4333333
diarabougou,,07,12.955,-7.4588889
diara,,00,12.3,-11.3166667
diarafoufou,,07,12.5055556,-7.2891667
diarakongo,,05,12.8,-4.65
diarakongo,,06,12.3666667,-4.8333333
diarakoro,,07,13.3333333,-8.1
diarakoun,,07,11.2,-6.6333333
diarala,,07,10.85,-7.05
diaramana,,05,12.85,-5.4
diaranguedou,,00,15.0666667,-9.3166667
diarani,,04,13.3,-4.4833333
diarani,,07,11.2833333,-8.3
diaratobougou,,07,12.2166667,-6.25
diaratoura,,04,14.8833333,-5.2166667
diariga,,03,14.6166667,-9.8666667
diarindi,,00,12.2666667,-10.8
diarrakongo,,05,12.8,-4.65
diartou,,00,15.8,-4.5833333
diassa,,06,10.3666667,-6.9333333
diassani,,07,13.5833333,-7.4666667
diassiguibougou,,03,14.6333333,-9.7333333
diassola,,07,11.1,-7.7666667
diassongoufa,,03,14.9833333,-9.7166667
diatalabe,,03,13.0666667,-9.4666667
diatamoussa,,03,13.9333333,-11.8166667
diatawali,,03,13.7166667,-10.95
diati,,05,12.5666667,-5.3
diatissann,,03,13.1833333,-11.25
diatle,,07,13.2833333,-7.15
diatoroubougou,,07,13.6166667,-7.4166667
diatoula,,07,12.5130556,-7.8580556
diatte,,07,13.2833333,-7.15
diawarantourou,,03,13.9666667,-10.8333333
diaweli,,04,13.9166667,-4.15
diaya,,07,11.1833333,-7.1166667
diaye maounde,,08,15.7833333,-3.35
diba,,03,13.7833333,-10.6333333
diba,,07,12.3419444,-7.8333333
dibakolo,,07,13.4,-7.3
diban,,06,11.9666667,-7.2833333
dibara,,08,15.9166667,-3.85
dibempo,,07,12.9,-8.2288889
dibia,,03,13.2333333,-10.8166667
dibila,,07,14.4,-7.8666667
dibokori,,03,14.6666667,-11.9833333
diboli,,03,14.45,-12.2
dibougou,,07,14.0833333,-8.0166667
dibougoukoura,,07,14.2666667,-8.3166667
didia,,04,14.1833333,-2.7333333
didiana,,07,13.05,-8.4666667
didian,,03,13.2,-9.45
didie,,07,11.95,-7.0
didieni,,07,13.8833333,-8.1
didinne,,07,10.8666667,-6.9333333
didna,,07,13.1666667,-8.45
didyana,,07,12.2166667,-6.15
didye,,07,12.9302778,-7.3047222
dieba,,07,11.5166667,-7.9166667
diebali,,00,15.3166667,-9.4666667
diebe,,05,12.6166667,-4.9666667
diebe,,07,12.2,-6.35
diebougou,,05,13.7166667,-6.3666667
diebougou,,07,13.3666667,-7.2166667
dieboukara,,03,14.5666667,-10.3
diedia,,03,14.0166667,-10.25
die,,07,11.4666667,-7.2666667
diedie,,07,11.1166667,-6.5166667
diedougou,,07,13.55,-7.1333333
diefala,,07,14.3666667,-7.9833333
diefana,,07,13.35,-7.4
diegabougoula,,07,13.2333333,-6.05
diego,,07,13.7333333,-7.1333333
diegue,,07,13.2333333,-6.4
dieguenina,,07,11.2,-7.9833333
dieguila,,03,13.1,-8.9333333
diekan,,07,13.5833333,-5.7833333
dieke,,07,13.2333333,-6.4
diekouma,,07,13.2333333,-7.95
diekouna,,03,12.9333333,-11.0333333
diekoungo,,07,12.9747222,-7.2125
diela,,07,12.5166667,-5.7166667
diele,,07,11.75,-6.5666667
dieliba,,07,12.3447222,-8.1327778
dielibani,,07,12.2094444,-8.8033333
dielibougou,,05,13.15,-5.1666667
dielibougou,,07,12.8397222,-8.0438889
dielibougouni,,07,13.3166667,-7.0166667
dieli,,05,13.0666667,-5.1166667
dielikebafata,,03,13.1666667,-9.6
dielimaka,,00,15.6833333,-4.7333333
dielinkoto,,07,12.405,-8.9988889
dielizangasso,,05,13.0,-4.9833333
dieloy,,00,14.8833333,-7.6166667
diemaba,,07,12.2880556,-7.5019444
diemabougou,,07,12.3794444,-7.4719444
diema,,00,14.5333333,-9.2
diembanouma,,03,14.35,-11.2833333
diembene,,03,14.2333333,-9.5666667
diemenekoura,,07,14.15,-8.1666667
diemeno,,07,11.85,-7.9333333
diemessogou,,04,14.0,-3.9333333
diena,,00,14.5333333,-9.2
diena,,06,12.1166667,-4.8166667
diena,,07,12.2166667,-7.65
diena,,08,15.6666667,-4.4333333
dienboya,,00,12.15,-11.2666667
dien,,04,13.3833333,-3.3166667
dien,,07,12.7333333,-6.9666667
diendjila,,07,12.895,-7.5972222
diene,,03,14.3833333,-10.0166667
dieneguebougou,,07,12.5672222,-8.1572222
dieneni,,06,11.45,-6.2166667
dienfina,,07,11.0333333,-7.15
diengo bambara,,04,14.1,-4.1666667
diengo,,04,14.1,-4.15
dienibantan,,03,13.3333333,-11.3
dieni,,05,13.0,-7.0166667
dieni,,07,12.8002778,-8.1766667
dienigarala,,07,11.8166667,-5.6666667
dienigorola,,07,11.8166667,-5.6666667
dienina,,05,13.2833333,-6.2666667
diennde,,04,14.0833333,-3.95
dienndio,,07,10.7333333,-6.6166667
dienndo,,07,10.7333333,-6.6166667
diensobala,,06,12.0369444,-7.3411111
dieou,,04,13.75,-4.7
dieoura,,03,14.3,-9.85
diera,,06,12.2169444,-7.2563889
diera,,07,11.6333333,-7.4333333
dierakoumbe,,03,14.25,-9.6833333
dieramana,,05,12.85,-5.4
dieredieredala,,07,12.8,-9.9166667
dieribana,,04,14.9166667,-2.9666667
dierila,,07,11.55,-7.4
dierima,,07,12.1933333,-8.8180556
diero,,07,11.95,-7.05
diesere,,04,14.4666667,-2.45
diessebougou,,07,13.35,-8.2666667
diessere,,04,14.4666667,-2.45
diesso,,04,13.5333333,-4.3833333
diessou,,06,11.2166667,-6.4833333
diessourouna,,07,13.8833333,-6.6666667
dieta,,07,12.5166667,-5.7166667
dietema,,07,14.3166667,-9.2
dietenga,,04,14.15,-4.7166667
dietou,,07,13.5666667,-7.2833333
difemou,,07,12.9,-8.2288889
difia,,07,13.55,-7.3833333
digabougou,,07,12.1666667,-6.9
digali,,03,12.85,-11.0833333
digama,,04,13.75,-4.95
digamba,,07,12.2447222,-7.5472222
digan,,07,10.85,-6.8
digania,,07,12.3,-10.4333333
digani,,05,13.5,-6.3166667
digato,,07,12.3247222,-7.9941667
digidala,,07,12.2383333,-8.3738889
digina,,07,14.05,-7.8666667
diginya,,00,15.2666667,-8.5166667
digitala,,00,14.6666667,-8.7833333
digna,,00,14.7333333,-8.2833333
digokori,,03,14.6666667,-12.0
diguelou,,03,14.7666667,-11.5
diguena,,05,13.4333333,-5.1333333
digueni,,05,13.5,-6.3166667
diguia,,00,12.1166667,-11.2
diguidian,,03,14.4833333,-11.4833333
digui,,07,12.7427778,-7.2605556
diguila,,03,13.7333333,-10.6666667
diguina,,07,14.05,-7.8666667
diguine,,03,13.9333333,-10.4166667
diguinya,,00,15.2666667,-8.5166667
diguioire,,04,14.6666667,-5.0666667
diguira,,05,13.1833333,-4.9166667
diguiron,,03,13.4166667,-11.3166667
diguisire,,04,14.6666667,-5.0666667
diguissire,,04,14.6666667,-5.0666667
diguitala,,00,14.6666667,-8.7833333
diguiyara,,05,13.1833333,-4.9166667
dikaroni,,07,12.6333333,-9.25
dikoba,,03,13.9166667,-11.75
diko,,03,14.2,-10.2833333
diko,,07,12.5525,-7.6638889
dilafa,,07,14.2,-7.9666667
dilenkona,,07,14.3,-8.0333333
dilia,,03,13.5666667,-10.75
dili,,00,15.0166667,-7.6666667
dilinko,,07,13.25,-7.0
dilly,,00,15.0166667,-7.6666667
dimal,,04,14.0166667,-3.6166667
dimamou,,04,15.4333333,-1.8
dimana,,04,13.55,-4.45
dimandara,,03,14.1666667,-9.9666667
dimango,,04,15.4333333,-3.6333333
dimbala,,03,14.9833333,-10.3
dimbala,,07,11.1666667,-8.3333333
dimbal,,04,14.0166667,-3.6166667
dimbanboye,,03,13.9833333,-11.7
dimina,,00,15.4833333,-9.2666667
dimmbal,,04,14.0166667,-3.6166667
dimmbanboye,,03,13.9833333,-11.7
dim na,,04,14.0166667,-2.9666667
dinadabay,,08,16.5666667,-3.2833333
dinadebe,,08,16.5666667,-3.2833333
dina,,00,15.0333333,-7.4
dinagorou,,04,14.45,-2.25
dinakoura,,00,14.9,-7.85
dinan bamana,,07,13.05,-7.3333333
dinan,,07,13.05,-7.35
dinangourou,,04,14.45,-2.25
dinanguru,,04,14.45,-2.25
dinankaoukabougou,,07,12.9711111,-7.3569444
dinba diaba,,03,15.3833333,-9.55
dinba dinba,,03,15.2,-9.8166667
dinbala,,07,11.1666667,-8.3333333
dinba moussaya,,03,14.2833333,-11.35
dinbela,,07,11.7333333,-6.3666667
dindali,,03,13.2666667,-9.6166667
dindanko,,03,14.1333333,-9.5
dinde,,02,15.6333333,-0.4833333
dindera,,03,12.8333333,-11.1166667
dindia,,08,15.5,-3.4833333
dindie,,07,12.7166667,-6.7833333
dindifo,,03,14.0666667,-10.4666667
dindinae,,03,15.0,-11.4666667
dinemanbougou,,03,14.7833333,-10.1333333
dinfara,,07,11.9833333,-7.8166667
dinga,,07,12.1333333,-7.7666667
dingo,,07,10.85,-6.8
dingouala,,07,11.3666667,-6.6166667
dingueta,,00,12.0166667,-10.7166667
dinguira almamia,,03,14.1833333,-11.25
dinguira,,03,14.1833333,-11.2666667
dinguira-logo,,03,14.1833333,-11.2666667
dinian,,06,12.35,-5.0666667
dinimani,,03,13.5166667,-9.8166667
dinindiebougou,,07,13.5,-8.2833333
dinkasso,,07,11.6666667,-6.1333333
dinke,,04,13.35,-4.45
dinkou,,07,12.5569444,-8.7919444
dinkoulou,,00,15.0166667,-7.6
dinnbasso,,07,10.55,-6.8333333
dinndinae,,03,14.95,-9.7333333
dinndinankare,,00,14.6333333,-9.2
dinnguilou,,03,13.9833333,-11.75
dinso,,00,10.4666667,-8.0833333
dinto,,04,13.7166667,-3.65
dinyan,,00,14.7333333,-8.2833333
dinyi,,04,13.8833333,-3.75
dioba,,00,14.9166667,-9.4666667
dioboro,,04,13.8166667,-3.8666667
diodiandie,,07,12.3230556,-7.535
dio,,07,12.8138889,-8.2508333
dioforongo,,07,13.1166667,-6.5
dio-gare,,07,12.8138889,-8.2508333
diogi-ouro,,08,15.6666667,-4.1166667
diogo,,07,11.9666667,-6.55
diogofi,,07,12.65,-9.8
diogosere,,04,14.4,-4.4166667
diogui ouro,,08,15.6666667,-4.1166667
diohou,,04,14.1166667,-4.9333333
dioila,,07,12.4833333,-6.8
dioka,,03,14.8666667,-10.1
diokalabougou,,07,12.3505556,-7.5447222
diokalani,,07,12.3713889,-7.5830556
diokeba,,03,13.6666667,-11.4666667
dioke,,07,13.4666667,-8.9166667
diokelebougou,,07,11.85,-6.8333333
diokhe,,07,13.4666667,-8.9166667
dioko,,07,12.8325,-7.7877778
diolel,,04,14.5,-4.5333333
diolli,,04,15.4333333,-4.4
diolobougou,,05,13.4166667,-6.4833333
diomadie,,07,13.95,-7.4333333
diomamadji,,03,13.7,-10.3666667
diomana,,06,11.3333333,-6.45
diomanbougou,,07,13.25,-7.4666667
diombele,,04,13.9166667,-4.15
diombile,,07,13.6666667,-7.1333333
diombo,,04,14.4166667,-3.65
diombololeye,,04,14.3,-3.6
diom,,00,14.6166667,-9.1333333
diomina,,06,12.0,-5.2166667
diomka,,03,15.2666667,-10.8166667
diona,,04,15.3333333,-3.2333333
dionbile,,07,13.6666667,-7.1333333
dionbougou,,07,10.65,-6.5833333
diondala,,06,10.4666667,-7.2333333
diondeni,,04,14.6166667,-4.7666667
dion,,04,13.85,-3.4666667
dion,,07,12.4333333,-6.85
diondiori,,04,14.6166667,-4.7666667
diondo,,08,15.5,-4.45
diondougou,,07,12.4333333,-6.8
dione,,07,13.1166667,-6.8666667
dionfa,,07,14.2333333,-9.3
dionfa kourou,,03,13.2,-9.9166667
dionfala,,07,12.7,-10.3833333
diongaga,,03,15.0666667,-10.8833333
diongane,,03,14.5,-10.35
diongani,,04,14.3166667,-2.7333333
diongoga,,03,15.0666667,-10.8833333
diongoi,,00,15.0333333,-8.1833333
diongoi,,03,14.9166667,-9.5833333
diongo mani,,00,14.8166667,-9.3166667
diongonibougou,,07,13.4833333,-5.55
diongoni,,07,13.4833333,-5.6
diongoro,,04,15.4166667,-4.15
diongosse,,05,13.4166667,-5.2166667
diongouela,,07,11.9166667,-6.4166667
diongoya,,07,12.0702778,-8.4527778
diongui diongui,,03,15.05,-9.7833333
dioni,,03,13.0166667,-11.0333333
dioni,,07,12.9802778,-7.1725
dionina,,06,12.0,-5.2166667
dionkala,,07,11.45,-7.85
dionkalar,,07,11.45,-7.85
dionkebougou,,07,13.8333333,-6.45
dionkone,,06,10.5,-6.9833333
dionkoulane,,03,14.7166667,-10.9166667
dionkoulou,,03,14.3166667,-10.9833333
dionmadie,,07,13.95,-7.4333333
dionna,,06,12.0,-5.2166667
dionninnbougou,,07,13.65,-7.2166667
diono,,07,12.445,-7.5327778
dionogo,,07,12.1833333,-6.3
diononko,,07,12.1833333,-6.3
dionoua,,04,14.55,-1.95
dionouga,,04,14.55,-1.95
dionroumbo,,03,14.4666667,-10.8333333
dionvola,,07,13.6,-6.6833333
dioria,,07,12.1075,-8.0919444
dioriba,,07,12.1075,-8.0919444
dioribougou,,07,13.2666667,-8.0833333
diorobougou,,04,13.9833333,-4.3833333
dioro,,07,12.8333333,-6.5
diorone,,00,15.0666667,-8.7333333
diorone,,07,13.7333333,-7.6333333
dioronkoura,,07,13.9166667,-5.6666667
diossebougou,,07,11.5,-6.9
diossewala,,03,14.25,-10.6
diossian,,07,10.6333333,-7.4166667
diosso,,05,13.8833333,-5.3666667
diouama,,07,12.9483333,-7.985
dioubeba,,03,13.6333333,-10.5
dioubedala,,03,13.7333333,-10.85
dioubeto,,03,13.65,-10.2666667
diou,,06,10.5833333,-5.9666667
diou,,08,15.7833333,-4.15
dioudiou,,03,13.4166667,-10.7166667
dioudiou,,05,12.85,-5.0666667
diouenka,,07,12.1833333,-6.3
dioufoya ba,,03,13.9,-10.3833333
dioufoya farako,,03,13.9166667,-10.3833333
dioufoya tinntokan,,03,13.9166667,-10.3666667
diougani,,04,14.3166667,-2.7333333
diougoufi,,07,12.65,-9.8
diougoufinn,,07,12.65,-9.8
diougoul kare,,04,15.2333333,-5.3
diougouma,,07,11.95,-6.5666667
diougoumana,,03,12.9833333,-9.8333333
diougouminata,,03,13.2666667,-9.8666667
diougouna,,07,11.95,-6.5666667
diougoun,,03,14.2666667,-9.6166667
diougounte,,03,14.0,-10.0833333
diouka,,07,11.5,-7.0833333
dioukaina,,08,15.8666667,-3.7666667
dioukeyna,,08,15.8666667,-3.7666667
diouki,,00,12.2333333,-11.4666667
diouko,,07,13.0166667,-7.8333333
dioukombo,,04,14.35,-3.65
dioukoulou,,03,14.3166667,-10.9833333
dioulafandou,,03,12.7166667,-11.4
dioulafondo,,07,12.0727778,-8.6702778
dioulafondou,,03,12.9,-11.2
dioulafoudoundi,,03,12.9,-11.2
dioulafoundouba,,03,12.9166667,-11.0666667
dioulafoundoudi,,03,12.9,-11.2
dioulafoundou,,03,13.2666667,-11.1166667
dioula foundou,,07,11.65,-8.75
dioulafoundou,,07,12.4072222,-8.3791667
dioulaguenou,,03,13.2666667,-11.1166667
diouleba,,03,13.6333333,-10.5
dioulouna,,04,14.55,-1.95
dioumamana,,07,12.2333333,-8.4247222
dioumana,,06,11.3333333,-6.45
dioumanani,,07,11.6833333,-6.1666667
dioumani,,07,12.3833333,-7.6166667
dioumanina,,07,12.3622222,-7.6038889
dioumansana,,01,12.6958333,-7.9480556
dioumansana,,07,12.5972222,-7.3061111
dioumantene,,06,10.5333333,-5.9166667
dioumanzana,,07,12.5972222,-7.3061111
dioumara,,00,14.5333333,-8.5666667
dioumas,,01,12.6958333,-7.9480556
dioumatene,,06,11.4166667,-5.65
dioumatenen,,06,11.4166667,-5.65
dioumdiourere,,04,14.8833333,-1.9833333
dioumekon,,03,14.3,-11.25
dioumou,,03,14.4166667,-11.1333333
diouna,,07,13.4333333,-5.8166667
dioundiou,,05,12.85,-5.0666667
dioundourou,,04,14.2333333,-3.4833333
diounfara,,03,13.0333333,-11.05
dioungani,,04,14.3166667,-2.7333333
dioungou,,03,14.25,-10.9333333
diounkoro,,07,13.7166667,-8.0833333
dioupi,,03,14.3166667,-10.55
dioura,,03,14.3,-9.85
dioura,,04,14.8333333,-5.25
diouria,,00,12.1166667,-10.7833333
diourkasso,,06,10.8666667,-5.8166667
diourou,,07,13.6833333,-5.8333333
diouroula,,03,14.6666667,-10.0333333
dio-village,,07,12.8255556,-8.2622222
diowara,,05,12.85,-4.6666667
dipari,,03,13.8333333,-11.0166667
diradiola,,07,10.9666667,-8.6666667
dira,,03,14.2166667,-9.9833333
dira,,07,11.75,-8.5166667
dirakekabougou,,07,14.3833333,-8.4166667
diran,,06,11.7166667,-7.35
dirbangou,,02,17.0333333,-1.35
dire dakounta,,00,12.3,-10.6666667
diredara,,00,12.1666667,-10.7666667
dire,10947,00,12.2833333,-10.9666667
dire,,08,16.2666667,-3.4
direlabe,,00,12.1,-10.7166667
direwologo,,00,12.2,-10.75
diri,,04,13.9166667,-5.2
dirimbe,,04,15.0166667,-2.9
dirmadie,,00,15.5,-4.65
dirmadio,,00,15.5,-4.65
diro,,07,12.5875,-7.3497222
dirokourani,,07,12.6011111,-7.3488889
disila,,07,14.3166667,-8.35
dissa,,04,13.4666667,-3.3
dissan,,07,11.6,-7.5166667
dissila,,07,14.3166667,-8.35
dite,,00,12.0833333,-10.65
ditira,,04,12.9833333,-4.5333333
dittara,,04,12.9833333,-4.5333333
diukombo,,04,14.35,-3.65
diungani,,04,14.3166667,-2.7333333
diwamantene,,06,10.5333333,-5.9166667
djafara,,03,15.3333333,-11.3666667
djako,,05,13.4833333,-6.45
djanbourou,,00,12.0833333,-10.7
djebitaka,,04,14.4333333,-4.2
djebitana,,04,14.4333333,-4.2
djebok,,02,16.3333333,0.2833333
djeboute,,07,12.2666667,-10.2833333
djedafo,,08,16.5833333,-3.1166667
djekoumako,,00,12.1,-10.6
djeli mael,,03,15.4166667,-10.5833333
djelimagara,,03,13.6333333,-11.5666667
djeli mahe,,03,15.4166667,-10.5833333
djel mael,,03,15.4166667,-10.5833333
djenebougou,,07,13.9166667,-6.1666667
djenefina,,07,13.7833333,-7.7
djengoule,,07,12.4,-10.1833333
djenina,,07,12.9,-6.7166667
djenindie,,07,13.3833333,-7.3833333
djenne,22391,04,13.9,-4.55
djeou,,06,10.7333333,-6.0333333
djerebabougou,,07,13.25,-7.9333333
djetinga,,04,14.15,-4.7166667
djiadiani,,07,13.0666667,-8.1
djiba,,07,13.3166667,-8.4
djibala,,06,11.4333333,-6.5
djibala,,07,11.7,-6.6166667
djibar,,08,15.9333333,-3.7833333
djibassi,,07,13.25,-10.1
djibia,,07,12.1088889,-7.6925
djibitaga,,04,14.4333333,-4.2
djiblebougou,,07,12.9333333,-8.45
djibougou,,05,13.7166667,-6.3666667
djibougou,,06,11.6,-5.8333333
djibougou,,07,13.65,-7.6333333
djibougouni,,07,14.2666667,-8.3
djibouroula,,07,13.1166667,-8.3833333
djibrouia,,03,13.2166667,-11.2333333
djidabougou,,07,13.2666667,-6.9666667
djida,,00,14.8166667,-6.9333333
djidiana,,07,13.05,-8.4666667
djidianda,,07,12.6405556,-8.1936111
djidian,,03,13.2,-9.45
djidian kenieba,,03,13.1,-11.4
djidibi,,03,14.3666667,-10.3
djidiebougou,,07,12.7469444,-7.1019444
djidie,,07,12.9302778,-7.3047222
djidiena,,07,12.9302778,-7.3047222
djidieni,,07,12.5733333,-7.3758333
djifale,,07,13.0166667,-8.2
djigali,,03,13.5333333,-10.5666667
djigan,,04,13.4666667,-3.7666667
djigani,,07,13.1,-6.6666667
djige,,07,14.4166667,-7.95
djigela,,07,12.3166667,-6.2666667
djigibougou,,00,15.25,-8.7333333
djigo,,05,13.45,-6.15
djigouma,,03,13.5333333,-8.9833333
djigue,,07,14.4166667,-7.95
djiguela,,03,14.4833333,-9.9333333
djiguela,,07,12.3166667,-6.2666667
djiguenesso,,06,11.45,-6.0833333
djiguia,,07,12.7833333,-9.95
djiguibambo,,04,14.1833333,-3.5833333
djiguibougou,,00,15.25,-8.7333333
djiguibougou,,07,12.7475,-8.2769444
djiguidala,,07,12.2383333,-8.3738889
djiguiera,,05,13.1833333,-4.9166667
djiguila,,03,13.1,-8.9333333
djiguilamor,,00,15.0666667,-9.3666667
djija,,03,14.55,-11.8
djikabougou,,07,12.8,-6.7166667
djikone,,07,14.2833333,-6.9333333
djikongoni,,07,12.9336111,-7.0636111
djikoroni,,01,12.605,-8.0211111
djikouma,,07,14.2166667,-8.5
djikouna,,06,11.1166667,-6.2333333
djikouna,,07,11.5333333,-6.0333333
djikoungoni,,07,12.685,-7.4158333
djikoye,,03,14.1,-10.8666667
djila,,07,14.25,-7.9
djila finyana,,07,12.5166667,-6.9333333
djile,,04,13.9166667,-3.75
djilibane,,07,12.2094444,-8.8033333
djimabougou,,07,13.7666667,-7.5833333
djimatogo,,04,13.9833333,-4.6666667
djime,,06,12.1788889,-7.3586111
djime,,07,12.4969444,-7.3686111
djimekourani,,07,12.4672222,-7.3647222
djimekourou,,03,13.5,-11.0166667
djimekrou,,03,13.5,-11.0166667
djinaban,,04,13.65,-3.8333333
djina,,07,13.15,-5.9
djinague,,03,12.9833333,-9.8833333
djinakolomba,,07,11.6333333,-6.6833333
djinakolonba,,07,11.6333333,-6.6833333
djindiang teguenda,,03,14.1666667,-10.2333333
djindigo,,08,16.7166667,-2.5833333
djindje,,06,12.1730556,-7.2577778
djindjikounda,,08,16.5833333,-3.3666667
djine,,07,11.1333333,-7.3833333
djinetoumaninala,,07,10.95,-7.75
djinfin,,07,12.1166667,-7.8666667
djingje,,03,14.3166667,-11.9166667
djinidiebougou,,07,12.5875,-8.2677778
djinidie,,07,12.7205556,-8.2661111
djinidiela,,07,12.9416667,-8.1269444
djinikorola,,07,11.8166667,-5.6666667
djinina,,07,12.8502778,-8.3308333
djinindyebougou,,07,12.5875,-8.2677778
djiningela,,07,12.8166667,-8.5166667
djininye,,07,12.7205556,-8.2661111
djinje,,00,15.2166667,-9.4
djinkom,,07,12.7286111,-7.7480556
djinkoulou,,03,14.3166667,-10.9833333
djinkourou,,07,10.7666667,-7.8
djinndjinnbounda,,03,13.9333333,-10.1166667
djinnfiti,,03,13.3,-10.55
djinntoi,,07,13.25,-8.2833333
djionkoulou,,03,14.3166667,-10.9833333
djiribabougou,,06,12.0277778,-7.3936111
djirikoro,,03,12.6833333,-9.2666667
djirila,,03,13.15,-8.75
djirimassigui,,07,12.7913889,-7.1836111
djirola,,03,13.8333333,-11.55
djissikina,,08,15.6333333,-4.25
djissombougou,,07,12.2833333,-6.5333333
djissoumabole,,03,12.8675,-8.9138889
djissoumabougou,,07,12.4230556,-8.2186111
djitamana,,07,12.25,-5.6333333
djodaloma,,03,13.5666667,-11.5166667
djoliba,,07,12.3447222,-8.1327778
djonna,,04,15.3333333,-3.2333333
djono,,07,12.445,-7.5327778
djoubouloumbe,,08,15.9833333,-2.8
djyeway,,00,15.0833333,-8.9333333
dlaba,,05,13.7333333,-6.35
dladie,,07,12.9638889,-7.5963889
dlana,,07,13.2333333,-7.4166667
dlanga,,04,14.6833333,-3.1
doadla,,05,13.4166667,-5.9833333
doasso,,06,10.8333333,-5.5666667
dobalea,,00,12.1833333,-11.15
dobilali,,00,14.6166667,-8.1666667
dobo,,04,13.15,-4.4
dodjibolo,,07,12.21,-7.0041667
dodougou,,07,13.65,-7.1666667
doerebougou,,07,13.2833333,-7.1666667
dofakoto,,03,13.1333333,-9.8
dofinena,,05,13.75,-6.3166667
dofounou,,07,13.2333333,-5.7166667
doga,,07,12.9527778,-8.2655556
doga doga,,04,12.95,-4.6333333
dogafara,,07,12.9,-10.0333333
dogani,,04,14.9,-3.4166667
dogbeledougou,,06,10.5166667,-5.7333333
dogoba,,07,12.5988889,-8.1861111
dogobala,,04,14.1833333,-3.8
dogobala,,07,12.7061111,-7.8594444
dogo,,04,15.1666667,-4.4333333
dogo,,06,11.8833333,-7.3333333
dogoe,,07,14.25,-7.7666667
dogofiliba,,03,13.3333333,-9.15
dogofili,,03,13.3333333,-9.15
dogofilini,,03,13.3166667,-9.15
dogofri,,00,14.8,-6.0166667
dogona,,05,13.0333333,-7.0833333
dogona,,07,13.4166667,-7.1166667
dogoni,,07,12.15,-6.0
dogonie,,07,12.6333333,-5.85
dogoro,,07,12.4238889,-8.4277778
dogosso,,05,13.2833333,-5.2666667
dogotou,,07,13.4166667,-7.3333333
dogoussa,,04,15.0,-1.8333333
dohoma,,07,12.2666667,-6.2
dohorokui,,04,13.2833333,-4.4166667
doichi,,00,14.6666667,-8.45
doi,,04,15.1833333,-3.8666667
dokabougou,,07,14.1666667,-6.1333333
dokala,,07,12.5258333,-7.2930556
dokeba,,03,13.6666667,-11.4666667
doke-koire,,08,16.4333333,-3.2
dokenbougou,,07,14.1,-8.2166667
dokobougou,,07,12.85,-6.6
doko,,04,15.3666667,-3.8666667
dokolola,,07,13.1,-5.8
dokorosso,,04,13.2833333,-4.4166667
dokotou,,07,12.1952778,-7.6797222
dole,,07,13.5,-6.9666667
dolimala,,07,13.8166667,-8.2666667
dolirhoto,,07,13.1833333,-10.2
doma,,07,12.2666667,-6.2
domassela,,07,13.8,-8.2
domba,,06,12.1125,-7.2244444
domba,,07,11.7333333,-6.9
dombana,,07,10.8,-6.6
dombara,,04,15.0833333,-3.25
dombatiamba,,06,12.1966667,-7.2
dombia,,03,12.7666667,-11.05
dombila,,07,12.7633333,-8.2747222
domblossogou,,04,14.35,-3.0833333
dom,,04,13.8166667,-3.6833333
dome,,04,13.9666667,-3.8166667
domena,,06,11.1666667,-5.6333333
domi,,07,12.45,-6.7833333
domila ruines,,07,12.7633333,-8.2747222
domosela,,07,13.8,-8.2
domossela,,07,13.8,-8.2
dompa,,04,15.4166667,-3.2333333
donadji banko,,07,12.7891667,-8.4363889
dona,,06,10.9166667,-5.6666667
donba,,07,11.7333333,-6.9
donbana,,07,10.8,-6.6
donbia,,03,12.7666667,-11.05
donbira,,08,15.6833333,-4.0166667
donbla,,07,13.0166667,-8.45
donbone,,00,15.35,-9.1666667
donboro,,04,13.55,-4.4
dondawel,,00,14.7,-5.9166667
don,,07,12.1333333,-6.5833333
donegebougou,,07,12.8058333,-7.9833333
doneguebougou,,07,12.8058333,-7.9833333
doney,,02,16.9333333,-0.6666667
dongai,,08,16.55,-3.45
dongana,,07,13.2666667,-7.2333333
dongka,,03,14.0833333,-10.6833333
dongo,,07,13.6333333,-8.45
dongo,,08,16.1666667,-3.5
dongoi-bano,,02,16.9166667,-0.6833333
dongoi,,02,16.9166667,-0.6833333
dongoi,,08,16.55,-3.45
dongola,,07,13.6333333,-8.45
dongole,,07,14.1166667,-6.1
dongomey,,02,15.9666667,0.1166667
dongon,,03,13.4166667,-11.2166667
dongoni,,07,13.4,-6.5666667
dongonion,,07,13.2333333,-7.05
dongori,,07,13.1,-7.3333333
dongoro,,04,14.5833333,-3.9833333
dongosso,,05,13.4,-5.0833333
dongossori,,04,14.6333333,-3.5833333
dongoy,,02,16.9166667,-0.6833333
dongoy,,08,16.55,-3.45
dongoye,,08,16.55,-3.45
dongoy samou,,08,16.2666667,-3.7166667
donguene,,07,14.1166667,-6.85
donguiba,,07,13.8166667,-6.1333333
donhale,,04,13.9333333,-3.25
doniambougou,,07,12.7636111,-8.1383333
donibala,,07,13.8166667,-8.2666667
doni,,07,13.4,-6.5166667
doniena,,06,11.1666667,-5.6333333
donimabougou,,07,14.25,-8.25
donimania,,07,12.8644444,-7.9038889
doniobougou,,07,12.7527778,-7.4155556
donioumana,,07,12.8644444,-7.9038889
donkeledougou,,06,10.5166667,-5.7333333
donkelena,,07,10.9833333,-7.2
donkene,,07,14.1166667,-6.85
donkerila,,06,10.9833333,-6.35
donkoro,,07,12.2444444,-7.6194444
donkorona,,07,12.1294444,-7.8888889
donndea,,00,12.1833333,-11.45
donobougou,,07,12.35,-6.7166667
donsela,,07,11.8333333,-7.8166667
dontambougou,,06,12.1408333,-7.3186111
dontereke,,07,10.5333333,-6.75
dontierebougou,,07,13.2333333,-7.5333333
donyimebougou,,07,12.8016667,-8.2763889
donyoumana,,07,12.8644444,-7.9038889
donzobougou,,05,13.2666667,-6.1166667
donzoni,,06,11.0833333,-6.0333333
dopi,,00,15.15,-9.3666667
dora,,07,13.9333333,-6.2
dorako,,07,13.0666667,-8.05
dorea,,03,14.3333333,-10.5
dorebougou,,07,14.25,-8.4333333
dorebougouni,,07,13.2833333,-7.1666667
dorey,,02,15.8163889,-0.4094444
doriba,,07,13.4,-8.1166667
doribougou,,07,14.2666667,-8.0333333
dori,,04,14.7833333,-5.05
dorobala,,07,14.25,-8.0666667
doro,,04,13.8666667,-3.8666667
dorofere,,03,15.0166667,-10.95
dorogoundia,,02,16.9,-0.6666667
doroiti,,03,14.7,-9.6
dorongole,,04,15.3166667,-5.3666667
dorosso,,05,12.6666667,-4.7
doroy,,00,14.95,-7.7166667
dosorola,,07,14.2,-7.4833333
dosou,,04,15.1333333,-1.7
dossamabougou,,07,13.9,-8.1
dossekabougou,,07,13.65,-8.0833333
dossela,,07,11.5333333,-8.0833333
dosseribougou,,07,13.5,-8.0833333
dossiguela,,07,13.85,-5.9
dosso,,04,15.1333333,-1.7
dossola,,07,11.5333333,-8.0833333
dossorola,,07,14.2,-7.4833333
dossorosso,,07,12.8166667,-5.5666667
dossou,,04,15.1333333,-1.7
dossouma,,07,12.5161111,-7.1733333
dotan,,07,13.8666667,-8.1666667
dotebougou,,07,13.2166667,-6.8
dotelembougou,,07,13.3666667,-7.6333333
dotelemmbougou,,07,13.3666667,-7.6333333
dotianbougou,,07,13.5333333,-7.8166667
dotyena,,07,12.8977778,-8.0305556
douabougou,,07,13.85,-6.15
doua,,08,15.75,-4.2833333
douale,,03,14.45,-10.3166667
douale,,07,11.5833333,-7.4166667
douaragoune,,03,14.25,-9.9333333
douaragoune,,07,14.3,-9.4333333
douari,,04,14.5333333,-2.3
doubabougou,,07,12.2819444,-7.68
douba,,07,12.3419444,-7.8333333
doubala,,00,14.7666667,-8.3833333
doubala,,07,11.9333333,-6.7833333
doubalakoro,,07,11.9333333,-6.7833333
doubasso,,06,10.8833333,-6.4833333
doubel,,00,12.0833333,-10.5833333
doubel,,03,14.8333333,-10.95
doubena,,04,14.2666667,-4.2
doubere,,00,11.9333333,-10.7
doudouka,,07,13.4333333,-5.5
doue,,08,15.75,-4.2833333
douegoussou,,08,16.4666667,-3.2833333
douekire,,08,16.5833333,-3.3666667
douentza,8057,04,15.0,-2.95
douenza,,04,15.0,-2.95
douerebougou,,07,13.3166667,-7.6333333
douetire,,08,16.5833333,-3.3666667
doufoko,,03,12.8,-11.2166667
douga,,05,13.3,-6.2
dougakongo,,07,13.3333333,-5.6666667
dougakorola,,03,14.3833333,-11.4666667
dougala,,03,12.9666667,-11.15
dougala,,07,12.9333333,-5.5666667
dougan,,07,12.9527778,-8.2655556
dougara,,04,13.95,-3.4666667
dougasso,,06,10.8666667,-5.8166667
dougasso,,07,13.1333333,-6.2666667
dougnan,,03,12.9333333,-9.5166667
dougofie,,07,13.3166667,-6.6333333
dougoi,,02,16.9166667,-0.6833333
dougouba,,03,14.4,-11.45
dougoubala,,05,13.4833333,-5.2
dougoufe,,07,13.3166667,-6.6333333
dougoufing,,07,10.7666667,-7.9166667
dougouibarakaia,,03,13.2666667,-8.85
dougouibarakaya,,03,13.2666667,-8.85
dougoukalabougou,,06,11.45,-6.5
dougoukalobougou,,06,11.45,-6.5
dougoukolobougou,,06,11.45,-6.5
dougoukolombougou,,06,11.45,-6.5
dougoumetara,,03,14.2833333,-9.8166667
dougoumoussa,,06,11.65,-5.7166667
dougoumousso,,06,11.65,-5.7166667
dougouniana,,05,12.6166667,-5.0333333
dougouni,,00,15.1166667,-7.4833333
dougouni,,04,13.4833333,-4.95
dougouni,,07,12.15,-6.0
dougounikoro,,07,12.1,-6.7666667
dougouninkara,,07,12.1,-6.7666667
dougouninnkoro,,05,13.95,-5.4166667
dougounoukoro,,05,13.6166667,-5.9
dougounoukou,,07,12.35,-9.7333333
dougouolo,,07,12.9333333,-5.5666667
dougouperebougou,,07,11.5666667,-6.1166667
dougouradji,,08,16.1833333,-3.4
dougourakoro,,07,12.4752778,-7.455
dougourakoroni,,03,13.2833333,-9.4166667
dougourenndji,,03,13.0666667,-8.8333333
dougourouma,,07,12.1294444,-7.8888889
dougousa,,04,15.0,-1.8333333
dougoussa,,04,15.0,-1.8333333
dougoussigue,,05,12.7666667,-5.1666667
dougoutakoraba,,03,13.3166667,-9.4166667
dougoutakoto,,03,13.9166667,-10.4
dougoutigui,,05,13.5666667,-5.4333333
dougouye,,07,12.6961111,-7.4091667
dougueba,,07,13.8166667,-6.1333333
douita,,06,11.6666667,-5.8
doukilabougou,,07,12.7761111,-8.2969444
doukoloma,,07,13.2333333,-5.7666667
doukombo,,04,14.35,-3.65
doukonan,,06,12.2166667,-5.25
doukone,,08,15.7,-4.1833333
doukore,,08,15.7,-4.1833333
doukorona,,07,12.1294444,-7.8888889
doukou,,08,15.7,-4.1833333
doukouradji,,08,16.1833333,-3.4
doukoure,,08,16.1166667,-3.25
doula,,07,13.9333333,-6.2
douma,,04,14.9166667,-2.85
douma,,07,12.1397222,-7.0875
doumadourou,,00,14.65,-9.1833333
doumakono,,03,14.7,-10.5666667
doumanaba,,07,11.6666667,-5.9333333
doumana,,07,11.6666667,-5.9333333
doumangolo,,03,12.9005556,-8.8497222
doumankui,,04,13.7833333,-4.15
doumba,,07,12.0261111,-8.12
doumbal,,04,13.9166667,-3.9166667
doumbana,,07,13.8833333,-7.5333333
doumbaria,,02,16.5,-0.1166667
doumbia,,03,12.7666667,-11.05
doumbi,,04,15.4,-1.8333333
doumbo,,04,13.9166667,-3.9166667
doumbou,,08,15.7833333,-3.8166667
doumeba,,03,14.1666667,-10.5833333
doumogou,,04,14.6833333,-3.2666667
doumoufara,,03,13.0833333,-11.0833333
doumpa,,04,15.4166667,-3.2333333
doumpara,,04,15.0833333,-3.25
douna,,03,13.8,-10.7833333
douna,,04,14.1833333,-3.1833333
douna,,06,10.9166667,-5.6666667
douna,,07,12.1397222,-7.0875
dounba,,03,12.9666667,-9.5
dounbaga,,07,12.5666667,-9.75
dounbandjila,,03,13.1833333,-9.3833333
dounde alkaya,,08,15.6833333,-3.2833333
dounde bamba,,08,16.0333333,-3.1
doundedaga,,04,13.8,-4.2166667
dounde,,04,13.95,-3.7166667
dounde,,07,14.0833333,-6.9833333
doundeguesse,,08,15.85,-3.45
doundere,,04,14.0166667,-4.6166667
doundioulou,,04,14.3,-3.7
doundiourou,,04,14.2333333,-3.4833333
doundou,,04,14.5333333,-4.05
doun,,07,12.1333333,-6.5833333
dounfannia,,07,12.6333333,-9.6833333
