names,population,state_code,lat,lon
abakly,,11,45.7833333,34.1166667
abaklytama,,11,45.7833333,34.1166667
abamelikovo,,17,47.9869444,29.2661111
abashkin,,07,49.8711111,38.0408333
abaykuchuk,,11,45.7166667,33.25
abaysmail,,11,45.7,33.4833333
abazovka,,07,49.25,35.3333333
abazovka,,18,49.6,34.35
abdulgazy,,11,45.4,33.1
ablagadshi,,11,45.4833333,32.6833333
ablagadzhi,,11,45.4833333,32.6833333
ablesh,,11,45.2333333,34.7
ableshnemetskiy,,11,45.2333333,34.7
abramovka,,13,50.75,30.1
abramovka,,18,49.3333333,34.9666667
abranka,,25,48.7333333,23.0833333
abrikosovka,,11,45.1166667,35.1
abrodul purice,,17,45.5333333,29.1666667
abroshnoye,,17,47.6363889,29.8452778
abulgazy,,11,45.4,33.1
abuslar,,11,45.4833333,32.6333333
abuzlar,,11,45.4833333,32.6333333
achtyrka,,21,50.3086111,34.8941667
acmanghit,,17,45.9,29.7
adaman chalgan,,05,47.8,37.9166667
adaman chalpan,,05,47.8,37.9166667
adamany,,08,46.1166667,33.4833333
adamchuki,,15,51.4166667,23.7166667
adamesht,,17,46.0166667,30.2333333
adamesti,,17,46.0166667,30.2333333
adamivka,,01,49.15,32.6833333
adamivka,,23,48.8666667,29.5166667
adamkovske,,19,50.7333333,26.0833333
adamov,,09,50.0833333,27.4166667
adamovka,,01,49.15,32.6833333
adamovka,,02,51.0166667,31.3333333
adamovka,,04,48.3166667,34.2166667
adamovka,,05,47.5166667,37.0166667
adamovka,,09,49.1166667,27.0666667
adamovka,,16,46.85,31.3833333
adamovka,,17,46.0166667,30.2333333
adamovka,,22,49.4333333,24.95
adamovka,,23,49.4333333,29.3166667
adamovka,,27,50.4333333,28.1833333
adamovka novaya,,17,46.0166667,30.2333333
adamovo,,16,46.85,31.3833333
adampol,,09,49.6666667,27.65
adamuvka,,19,50.8333333,26.95
adamuvka,,22,49.4333333,24.95
adamy,,15,50.0333333,24.7
adancata,,03,48.0863889,25.9211111
adargin,,11,45.4666667,34.55
adargin nemetskiy,,11,45.4666667,34.55
adjigiol,,16,46.65,31.8
adrianopol,,14,48.3622222,38.7219444
adshijask,,16,46.6166667,31.35
adyk,,11,45.2,35.8
adymchokrak,,20,44.5833333,33.8333333
adynkata,,03,48.0863889,25.9211111
adzhamka,,10,48.5430556,32.5361111
adzhaykat,,11,45.7333333,34.3
adzhelikipchak,,11,45.25,34.2333333
adzhi akhmat,,08,45.65,34.6166667
adzhiakhmat,,11,45.6166667,34.6166667
adzhiaska,,16,46.6166667,31.35
adzhi atman,,11,45.5,33.8
adzhibay,,11,44.9166667,35.0166667
adzhibulat,,11,44.8166667,33.6166667
adzhieli,,11,45.3602778,36.0991667
adzhigiol,,16,46.65,31.8
adzhigol,,11,45.1,35.3666667
adzhiibram,,11,44.9666667,33.95
adzhikech,,11,45.2,34.15
adzhilar,,11,45.1666667,34.6333333
adzhimambet,,11,45.3666667,34.1833333
adzhimende,,11,45.2233333,36.0086111
adzhimushkay,,11,45.3872222,36.5236111
adzhiran,,11,45.4333333,33.15
adzhiron,,11,45.4333333,33.15
adzhitarkhan,,11,45.2833333,33.3166667
adzhiyask,,16,46.6166667,31.35
adzhsiatman,,11,45.5,33.8
adzhymushkay,,11,45.3872222,36.5236111
aeroflotskiy,,11,45.0166667,34.0333333
afanasino,,11,45.45,35.85
afanasyevka,,07,48.95,35.5333333
afanasyevka,,16,47.0333333,32.8166667
afanasyevka,,21,50.6166667,33.8166667
afanasyevk,,16,47.6833333,32.7666667
afrikanovka,,07,48.8833333,36.7833333
agacheli,,11,44.9333333,33.8166667
agafyevka,,16,46.75,31.45
agafyevka,,17,47.7833333,30.3666667
agaki,,03,48.5833333,26.9333333
agatovka,,27,49.9833333,28.6
agay,,11,45.55,33.4166667
agayman,,08,46.6680556,34.2475
ageyevka,,16,47.9166667,30.3
agibel,,11,45.2333333,35.7166667
agrarnoye,,11,45.0666667,34.1166667
agrokombinat ilichevka,,17,46.5833333,30.8166667
agronomicheskiy,,05,47.8616667,38.1969444
agronomichne,,05,47.8616667,38.1969444
agronomichnoye,,05,47.8616667,38.1969444
agronomskiy,,05,47.8616667,38.1969444
agyar dzheren,,11,45.3666667,34.0333333
ahronomichne,,05,47.8616667,38.1969444
aip,,11,45.7833333,33.55
aircha,,11,45.2166667,33.15
akbash,,11,45.55,32.9833333
akchokrak,,11,44.7666667,33.8666667
akchora,,08,45.8,34.6166667
akchora,,11,45.0666667,34.9333333
akeksandrovka,,04,48.2333333,36.65
akembet,,17,46.05,30.3666667
akershory,,06,48.35,24.8333333
akhiar,,20,44.6,33.5333333
akhremtsey,,07,50.2538889,35.6
akhtirka,,21,50.3086111,34.8941667
akhtovaya,,16,47.7,31.45
akhtovo,,16,47.7,31.45
akhtyar,,20,44.6,33.5333333
akhtyrka,,11,45.55,34.9333333
akhtyrka,,21,50.3086111,34.8941667
akikat,,11,44.9166667,35.0666667
akimovka,,04,48.1833333,34.4333333
akimovka,,07,48.9166667,36.4833333
akimovka,,08,46.6,33.35
akimovka,,11,45.5166667,34.8333333
akimovka,,16,47.5,31.95
akimovka,,26,46.6897222,35.1536111
akimowka,,26,46.6897222,35.1536111
akkaya,,11,45.1,34.6166667
akkerman,,17,46.2,30.35
akkermanskiy,,17,46.2333333,30.2166667
akkermen,,26,47.0,35.55
akkobekh,,11,45.25,35.0166667
akkodzha,,11,45.5,33.0833333
akkuyubitak,,11,45.3333333,33.75
aklenz,,20,44.8166667,33.5666667
akmalinka,,17,47.5333333,29.3
akmalinovka,,17,47.5333333,29.3
akmanay,,11,45.2833333,35.5333333
akmaneshti,,17,45.9,29.7
akmangit,,17,45.9,29.7
akmechetnayman,,11,45.7333333,34.0166667
akmelez,,11,45.05,35.2166667
ak monai,,11,45.2833333,35.5333333
akmonay,,11,45.2833333,35.5333333
aknaszlatina,,25,47.9666667,23.8666667
aksakovka,,02,51.05,31.3833333
ak sheikh,,11,45.5833333,34.6666667
aksheikh,,11,45.7683333,33.4880556
aksheykh,,11,45.5833333,34.6666667
aksyurukonrat,,11,45.6333333,34.4833333
aksyutovka,,07,49.8069444,36.2013889
aktachi,,11,44.7666667,33.7333333
aktash,,11,45.4166667,35.8
akulinovka,,17,47.8511111,29.5363889
akulynivka,,17,47.8511111,29.5363889
alabash konrat,,11,45.2666667,34.1333333
alach,,11,45.1666667,34.85
alach nizhniy,,08,45.6666667,34.65
alach verkhniy,,08,45.65,34.6666667
alatay,,11,45.2833333,34.55
albat,,11,44.65,33.8666667
albinivka,,27,50.2333333,28.5833333
albinovka,,06,48.5333333,25.4
albinovka,,27,50.2333333,28.5833333
albinuvka,,06,48.5333333,25.4
alcalia,,17,46.15,30.0333333
alchevsk,,14,48.4727778,38.7997222
alchevskoe,,14,48.4727778,38.7997222
alchin,,11,45.3,33.35
aldar,,11,45.5,33.8833333
alefirovka,,04,48.4166667,36.1
aleksandersdorf,,03,48.2333333,25.2333333
aleksandertal,,26,47.0166667,36.05
aleksandervol,,26,47.15,35.8333333
aleksandren,,17,46.4405556,29.4566667
aleksandreni,,03,48.2333333,25.2333333
aleksandreni,,17,45.8916667,28.9494444
aleksandrfeld,,04,47.9666667,36.6
aleksandrfeld,,26,46.7333333,34.9666667
aleksandria,,10,48.6697222,33.1205556
aleksandria,,19,50.7333333,26.35
aleksandria,,24,51.5,24.8333333
aleksandrija,,24,51.5,24.8333333
aleksandrinka,,05,47.7833333,37.6833333
aleksandrivka,,01,49.3,29.9833333
aleksandrivka,,23,49.4833333,28.1666667
aleksandriya,,10,48.6697222,33.1205556
aleksandriya,,13,49.8166667,30.1
aleksandriya,,19,50.7333333,26.35
aleksandriya,,21,51.0591667,35.29
aleksandriya,,24,51.5,24.8333333
aleksandrja,,19,50.7333333,26.35
aleksandrobelovka,,04,48.0833333,34.1
aleksandrodar,,04,47.8,33.2333333
aleksandrodar,,16,46.7,31.5333333
aleksandrogeym,,26,47.1,35.1666667
aleksandrogilf,,17,46.3333333,30.4833333
aleksandrograd,,04,47.9666667,36.6
aleksandrogrigoryevka,,05,48.05,37.75
aleksandroheim,,26,47.1,35.1666667
aleksandrokalinovo,,05,48.4166667,37.6666667
aleksandromikhaylovka,,20,44.7666667,33.55
aleksandropol,,04,47.8666667,34.2
aleksandropol,,05,48.35,37.6
aleksandropol,,07,48.6,36.55
aleksandropol,,14,49.6894444,38.8572222
aleksandropol,,26,48.15,35.3166667
aleksandropolye,,14,48.6688889,38.3675
aleksandroroshchakhovka,,16,47.8833333,31.8833333
aleksandroshulgino,,05,48.4833333,37.8333333
aleksandroshulkina,,05,48.4833333,37.8333333
aleksandroshulkino,,05,48.4833333,37.8333333
aleksandrovdar,,04,47.8,33.2333333
aleksandrovka,,01,49.3,29.9833333
aleksandrovka,,02,51.65,32.1333333
aleksandrovka,,04,47.6194444,34.1394444
aleksandrovka,,05,47.25,37.3333333
aleksandrovka,,07,48.7166667,36.9166667
aleksandrovka,,08,46.1166667,33.4797222
aleksandrovka,,09,49.2833333,26.3166667
aleksandrovka,,10,48.45,33.2
aleksandrovka,,11,45.0166667,34.5333333
aleksandrovka,,13,49.7,30.7833333
aleksandrovka,,14,48.0775,39.745
aleksandrovka,,15,50.8,24.7333333
aleksandrovka,,16,47.35,32.8
aleksandrovka,,17,45.8916667,28.9494444
aleksandrovka,,18,49.1666667,34.0833333
aleksandrovka,,21,50.6344444,34.2608333
aleksandrovka,,23,48.5166667,29.0833333
aleksandrovka,,25,48.1333333,23.5
aleksandrovka,,26,46.5313889,35.4875
aleksandrovka,,27,50.6333333,27.6
aleksandrovka nomer pervyy,,04,47.75,34.1833333
aleksandrovka number 1,,04,47.75,34.1833333
aleksandrovka number 2,,04,47.6666667,34.05
aleksandrovka pervaya,,16,47.6833333,32.7
aleksandrovka pervaya,,17,47.3833333,29.9666667
aleksandrovka vtoraya,,02,51.95,30.95
aleksandrovka vtoraya,,04,48.9166667,34.9666667
aleksandrovka vtoraya,,07,49.0766667,36.2133333
aleksandrovka vtoraya,,08,46.1166667,33.4797222
aleksandrovka vtoraya,,16,47.7,32.7333333
aleksandrovka vtoraya,,17,47.4,29.9833333
aleksandrovo,,03,48.2333333,25.2333333
aleksandrovsk,,14,48.5861111,39.1875
aleksandrovsk,,26,47.8166667,35.1833333
aleksandrovskiy,,04,47.8666667,34.6333333
aleksandrovskiy,,05,47.7997222,38.0502778
aleksandrovskiy,,07,50.15,35.0833333
aleksandrovskiy,,21,52.0452778,33.7894444
aleksandrovskoye,,05,48.2861111,38.3622222
aleksandrovskoye,,07,49.0166667,35.8833333
aleksandrowka,,05,48.05,37.75
aleksandrowka,,14,49.8338889,38.7333333
aleksandruvka,,15,50.8,24.7333333
aleksandruvka,,19,50.7333333,26.2166667
aleksandruvka,,24,51.0166667,24.7833333
aleksandrya,,19,50.7333333,26.35
aleksapol,,14,49.8494444,38.7486111
aleksayeva,,21,50.5205556,34.9388889
aleksayevka,,10,48.6,31.7333333
aleksenkov,,21,51.1725,34.4427778
alekseyevka,,02,51.75,32.2333333
alekseyevka,,04,47.6194444,34.1394444
alekseyevka,,05,47.3833333,37.6
alekseyevka,,07,48.9,35.9333333
alekseyevka,,08,46.0666667,33.45
alekseyevka,,09,49.6,27.45
alekseyevka,,10,48.0666667,32.2833333
alekseyevka,,11,45.3136111,36.1491667
alekseyevka,,13,51.35,29.4
alekseyevka,,14,48.4858333,38.9125
alekseyevka,,16,47.8666667,31.15
alekseyevka,,17,46.1166667,30.0666667
alekseyevka,,18,49.55,34.8833333
alekseyevka,,19,51.2333333,26.8833333
alekseyevka,,21,51.1338889,34.8691667
alekseyevka,,23,48.9333333,29.3833333
alekseyevka,,26,47.2227778,36.5422222
alekseyevka nomer odin,,04,48.4666667,35.8666667
alekseyevka nomer pervyy,,04,48.4666667,35.8666667
alekseyevodruzhkovka,,05,48.5766667,37.6038889
alekseyevoorlovka,,05,48.0666667,38.4166667
alekseyevskaya,,07,48.9,35.9333333
alekseyevskiy,,04,47.8333333,33.85
alekseyevskiy,,05,47.1166667,37.7666667
alekseyevskiy,,21,50.8433333,34.4875
alekseyevskiy,,26,47.6833333,35.1
alekseyevskoye,,07,49.3958333,36.2861111
alekseyskoye,,05,47.8211111,38.7461111
aleksiejevka,,17,47.9883333,28.9252778
aleksiejewka,,17,47.9883333,28.9252778
aleksinets,,22,49.8333333,25.55
aleksinetspodlesny,,09,49.2333333,26.7
aleksinets podlesnyy,,09,49.2333333,26.7
aleksinetspolny,,09,49.2,26.7333333
aleksinets polnyy,,09,49.2,26.7333333
aleksino,,21,50.5205556,34.9388889
aleksndrovka,,07,50.3655556,35.8263889
aleksyeevskoye,,07,49.3958333,36.2861111
alenina,,21,50.3763889,34.525
alenino,,21,50.3763889,34.525
alenovka,,02,51.25,32.3
alenovka,,04,47.6166667,33.3833333
aleshinskiy,,02,51.9333333,31.6
aleshki,,07,49.2308333,36.375
aleshki,,08,46.6163889,32.7113889
aleshkovskiye khutora,,08,46.45,32.8166667
aleshnya,,02,51.95,31.1666667
alexandreni,,17,45.8916667,28.9494444
alexandria nova,,17,45.5833333,28.7833333
alexandrija pervaya,,10,48.6697222,33.1205556
alexandrovca noua,,17,45.8166667,29.7666667
alexandrovka,,17,47.15,29.85
alexandrowka,,07,48.7166667,36.9166667
alexandrowka newkus,,26,46.5313889,35.4875
aleyevka,,10,48.7311111,32.9886111
aleyevo,,21,51.3966667,34.1463889
alferovka,,04,48.7,34.3666667
alferovo,,04,48.3833333,33.9666667
algazykipchak,,11,45.9166667,34.2166667
alibay,,11,45.2666667,35.6166667
alikech,,11,45.4833333,34.8666667
alisovka,,05,48.75,37.4333333
alisovka,,07,50.2688889,36.2994444
alisovka,,17,46.15,30.0333333
alkalayevka,,16,47.2333333,32.9666667
alkaly,,08,45.85,34.4
almatamak,,11,44.85,33.6
almatarkhan,,11,44.85,33.6833333
almatomak,,11,44.85,33.6
almaznaya,,14,48.0627778,39.3216667
almaznoye,,14,48.5163889,38.5886111
almazovka,,14,48.0627778,39.3216667
aloushta,,11,44.6666667,34.4166667
alshany,,02,50.7333333,32.45
alshta,,11,44.6666667,34.4166667
alsoszlatina,,25,48.55,22.45
alsu,,20,44.5166667,33.7166667
altanalchin,,11,45.0694444,36.0816667
altbroshkouts,,03,48.2233333,25.7538889
altenau,,26,46.9833333,35.6
altestovo,,17,46.6333333,30.55
altkhyute,,03,48.0333333,25.5333333
altmamayeshti,,03,48.35,25.8
altmuntal,,26,47.2666667,35.6333333
altnassau,,26,47.2,35.5666667
altynov,,21,51.45,33.1833333
altynovka,,21,51.45,33.1833333
altzuchka,,03,48.3166667,25.9666667
alupka,,11,44.4166667,34.05
aluschta,,11,44.6666667,34.4166667
alushta,,11,44.6666667,34.4166667
amansha,,11,45.6833333,33.45
amara,,17,46.2,29.4666667
ambarnoye,,07,50.1086111,37.6361111
ambary,,21,51.0197222,34.4727778
ambrosiyevo,,17,46.8166667,30.0833333
ambukow,,15,50.7666667,24.0
ambukuv,,15,50.7666667,24.0
amelusha,,27,51.0,28.1
amurnizhne dneprovsk,,04,48.5,35.0666667
amurosievka,,05,47.8822222,38.4830556
amurskoye,,11,45.3,34.1
amvrosiyevka,,05,47.7922222,38.4788889
amvrosiyevo,,17,46.8166667,30.0833333
amvrosiyivka,,05,47.7922222,38.4788889
anadol,,05,47.45,37.5833333
anadol,,17,45.4666667,28.3333333
anaeli,,11,45.05,34.1333333
ananjew,,17,47.7194444,29.9630556
ananyer,,17,47.7297222,29.9355556
ananyev,,17,47.7194444,29.9630556
ananyevka,,17,47.3666667,30.5833333
ananyevskiy,,14,48.0622222,39.72
ananyiv,,17,47.7194444,29.9630556
anastasiyevka,,04,47.7333333,34.7166667
anastasiyevka,,08,47.3166667,33.9666667
anastasovka,,27,50.7833333,27.3333333
anastasyevka,,04,47.7333333,34.7166667
anastasyevka,,07,50.1,35.1
anastasyevka,,08,47.3166667,33.9666667
anastasyevka,,16,47.7166667,32.6833333
anastasyevka,,17,47.0255556,29.9005556
anastasyevka vtoraya,,17,47.5666667,30.3666667
anatolevka,,08,47.0833333,34.4833333
anatolyevka,,08,47.0833333,34.4833333
anatolyevka,,16,46.8166667,31.2333333
anatolyevka,,17,47.2333333,30.5333333
anchekrak,,16,46.8166667,31.6666667
anchipolovka,,17,47.2052778,29.9236111
anchokrak,,17,46.1858333,29.1505556
andargazi,,11,45.25,33.5833333
andreburg,,26,47.3666667,35.4666667
andreeni,,17,46.2166667,30.0833333
andreevka,,04,48.7666667,35.4666667
andreevka,,05,48.0166667,37.05
andreevka,,16,46.75,31.4916667
andrekivske,,03,47.8030556,25.1097222
andrekovskoye,,03,47.8030556,25.1097222
andre marti,,16,47.7666667,32.3333333
andrevevskiy bayrak,,21,50.6683333,34.33
andreyashevka,,27,49.8,28.3666667
andreyen,,17,46.2166667,30.0833333
andreyenik,,17,46.4666667,29.0666667
andreyenkov,,18,49.1166667,34.05
andreyeva,,18,50.5166667,33.5166667
andreyev,,27,50.5,28.6833333
andreyevichi,,27,50.7333333,27.8833333
andreyevka,,02,51.4,31.0166667
andreyevka,,04,47.6,33.2166667
andreyevka,,05,47.4666667,37.65
andreyevka,,07,48.65,36.35
andreyevka,,08,45.6833333,34.75
andreyevka,,09,48.9666667,26.3
andreyevka,,10,48.4166667,30.9666667
andreyevka,,11,45.2,34.1
andreyevka,,13,50.55,29.85
andreyevka,,14,48.3541667,39.4944444
andreyevka,,15,49.8833333,24.6333333
andreyevka,,16,46.8,31.5666667
andreyevka,,17,46.2166667,30.0833333
andreyevka,,18,49.1,34.3666667
andreyevka,,20,44.8166667,33.5666667
andreyevka,,21,51.05,34.7166667
andreyevka,,26,46.8333333,35.7833333
andreyevka,,27,50.3166667,28.65
andreyevka pervaya,,07,49.5333333,36.65
andreyevka vtoraya,,07,49.5333333,36.6666667
andreyevoivanovka,,17,47.5,30.4666667
andreyevozorino,,16,46.8,31.5666667
andreyevskiy,,05,47.55,38.25
andreyevskiy,,21,50.7177778,34.2316667
andreyevskiy,,26,47.35,36.0833333
andreyevskiybayrak,,21,50.6683333,34.33
andreyevskiye,,08,47.1166667,33.2166667
andreyev yar,,26,47.2833333,36.7666667
andreyki,,18,49.1166667,34.05
andreykovtsy,,09,49.3166667,26.8166667
andreyvkaerdelva,,16,47.3333333,31.7
andrianiv,,15,49.6,23.7166667
andrianoy,,15,49.6,23.7166667
andrianuv,,15,49.6,23.7166667
andriivka,,23,48.85,28.05
andriivka,,27,50.3166667,28.65
andrivka,,26,46.9002778,36.6222222
andriyashevka,,17,47.92,29.6966667
andriyashevka,,23,48.4166667,28.7166667
andriyashivka,,17,47.92,29.6966667
andriyivka,,02,52.0219444,31.5744444
andriyivka,,15,49.8833333,24.6333333
andriyivka,,16,46.75,31.4916667
andriyivka,,17,47.7072222,29.6280556
andriykivtsi,,09,49.3166667,26.8166667
androniki,,02,51.8,32.1
andronovka,,04,48.3666667,36.8
androvka,,26,46.9002778,36.6222222
andrukha,,19,51.5,26.1
andruschowka,,27,50.0166667,29.0166667
andrushenkova,,18,49.6,34.8166667
"andrushe""vka",,23,49.35,29.2
andrushevka,,27,50.0166667,29.0166667
andrushi,,13,50.0166667,31.4
andrushivka,,27,50.0166667,29.0166667
andrushki,,27,49.8833333,29.35
andrushovka,,22,50.2333333,26.1666667
andrushovka,,23,49.35,29.2
andrushovka,,27,50.0166667,29.0166667
andrushuvka,,22,50.2333333,26.1666667
andrusiyuv,,19,50.65,26.7833333
andrusova,,17,47.3005556,29.87
andrusovka,,04,47.8833333,33.65
andrusovka,,10,49.0666667,32.95
andruszowka,,22,50.2333333,26.1666667
andrzjowka,,15,50.3666667,24.4333333
andzheyuvka,,15,50.3666667,24.4333333
anelevka,,22,48.85,25.6666667
anelovka,,22,48.85,25.6666667
anesht,,17,46.4080556,29.3422222
aneshti,,17,46.3911111,29.4605556
anesti,,17,46.3911111,29.4605556
anetovka,,16,47.7,31.1333333
angara,,11,44.8333333,34.3333333
angelinovka,,17,46.8936111,29.9480556
angelknovka,,17,46.8936111,29.9480556
angeluvka,,15,49.9833333,24.7666667
angoli,,08,46.4666667,33.65
angolivskiye,,08,46.4666667,33.65
anhelinivka,,17,46.8936111,29.9480556
anikeyevka,,10,48.5,31.75
aninoasa,,17,46.3891667,29.5222222
aninosa,,17,46.3891667,29.5222222
anisimovka,,14,48.385,38.9133333
aniskin,,07,50.2080556,37.5252778
anisov,,02,51.4333333,31.3666667
anisovo,,02,51.4333333,31.3666667
annenfeld,,26,47.45,35.5
annenskiy,,07,50.0316667,37.1191667
annenskoye,,14,48.4813889,38.5413889
annina,,21,51.0244444,34.0844444
anninka,,07,48.9666667,35.6666667
anninskaya,,05,48.4833333,37.1166667
anninskaya,,07,48.9666667,35.6666667
anninskaya,,14,48.4347222,39.5269444
anninskiy,,14,48.6480556,38.5458333
anninskoye,,10,48.4166667,32.1
anninskoyebozhedanovka,,10,48.4166667,32.1
annivka,,04,47.95,33.1833333
annoapanly,,26,46.89,35.8972222
annoopanlinka,,26,46.89,35.8972222
annopokrovka,,17,47.15,30.4833333
annopol,,09,50.45,26.9
annopol,,23,48.6333333,28.95
annopol,,27,50.5833333,28.8666667
annopolye,,07,50.1408333,37.1855556
annoternovskaya,,21,51.0244444,34.0844444
annotrebinovka,,10,47.8666667,32.4166667
annovkaagte,,10,47.9666667,32.45
annovka,,02,51.5166667,32.45
annovka,,04,47.6666667,33.0833333
annovka,,05,47.9,37.2666667
annovka,,07,49.1108333,36.3869444
annovka,,08,47.2166667,33.85
annovka,,09,48.9333333,26.8333333
annovka,,10,48.0166667,32.3666667
annovka,,11,45.2666667,34.3
annovka,,14,48.4813889,38.5413889
annovka,,16,46.9333333,31.3333333
annovka,,17,46.3891667,29.5222222
annovka,,21,50.9466667,34.7330556
annovka,,26,46.7333333,34.9333333
annovka pervaya,,16,47.55,32.3666667
annovkaternovskaya,,21,51.0244444,34.0844444
annovka trebinova,,10,47.8666667,32.4166667
annovkavirovskaya,,21,51.0275,34.2883333
annovka vtoraya,,16,47.55,32.3333333
annovskiy,,21,51.0425,34.0530556
annovskoye,,21,51.0425,34.0530556
anokhino,,14,49.8391667,38.1922222
anoremarti,,16,47.8,32.3333333
anoshkino,,14,49.8391667,38.1922222
antalivtsi,,25,48.6333333,22.5166667
antalovce,,25,48.6333333,22.5166667
antalovtse,,25,48.6333333,22.5166667
antalovtsi,,25,48.6333333,22.5166667
antalovtsy,,25,48.6333333,22.5166667
antonina,,01,49.05,29.8
antoninovka,,08,45.7,34.7666667
antoniny,,09,49.8,26.8666667
antonivka,,04,48.25,35.0166667
antonivka,,17,47.2361111,29.965
antonivka,,23,48.5333333,28.4333333
antonivka,,25,48.6333333,22.5166667
antonivtsi,,09,49.2833333,26.9333333
anton kovach,,17,46.9419444,29.7619444
antonokodintsevo,,17,46.8166667,30.9333333
antonokodintsovo,,17,46.8166667,30.9333333
antono kovach,,17,46.9419444,29.7619444
antonopol,,16,47.95,31.7666667
antonopol,,23,49.6166667,28.35
antonova,,23,48.4333333,28.7333333
antonov,,13,49.6333333,29.7833333
antonov,,22,48.8833333,25.6833333
antonovichi,,02,51.5833333,30.9166667
antonovichi,,27,51.3666667,28.3
antonovka,,01,49.3833333,30.2666667
antonovka,,04,48.25,35.0166667
antonovka,,05,47.5,37.0166667
antonovka,,06,48.95,25.05
antonovka,,07,49.0480556,36.0133333
antonovka,,08,45.7,34.7666667
antonovka,,09,48.8333333,27.1333333
antonovka,,10,48.4833333,30.9
antonovka,,11,45.5,34.3
antonovka,,13,49.85,30.3833333
antonovka,,14,49.2877778,39.2186111
antonovka,,15,49.85,23.4833333
antonovka,,16,47.5166667,32.1
antonovka,,17,46.9419444,29.7619444
antonovka,,18,50.3833333,32.5333333
antonovka,,19,50.8,26.5
antonovka,,21,52.0047222,33.5855556
antonovka,,23,48.45,28.4166667
antonovka,,25,48.6333333,22.5166667
antonovka,,26,47.9666667,35.6833333
antonovka nomer shestnadtsatyy,,05,47.5,37.0166667
antonovka pervaya,,04,48.25,35.0166667
antonovtse,,22,50.2166667,25.9333333
antonovtsy,,09,49.2833333,26.9333333
antonovtsy,,22,50.2166667,25.9333333
antonowce,,22,50.2166667,25.9333333
antonowka,,19,50.8,26.5
antonowka kocior,,15,50.8833333,24.4
antonoye,,13,49.6333333,29.7833333
antonuv,,22,48.8833333,25.6833333
antonuvka,,06,48.95,25.05
antonuvka,,15,49.85,23.4833333
antonuvka,,19,50.3,25.0833333
antonuvka,,24,50.7333333,25.1666667
antonuvka kotser,,15,50.8833333,24.4
antonyuki,,17,47.4333333,30.7166667
antopol,,19,50.6,26.4333333
antopol,,23,48.4666667,28.6833333
antopol,,27,50.0666667,28.8666667
antopolboyarka,,27,50.0666667,28.8666667
antratsit,,14,48.1191667,39.09
antsiferovka,,14,49.3283333,38.3980556
antsifirovka,,14,49.3283333,38.3980556
antsypolovka,,23,48.8,29.1
antyki,,21,51.4333333,33.8666667
anufriyevka,,16,47.3,32.2166667
anusin,,15,50.9,24.3166667
anusino,,09,50.1166667,27.4166667
anyutino,,21,51.25,33.6166667
anyutino,,23,48.1666667,29.3833333
apan,,11,45.35,33.3666667
apanasovka,,21,50.6166667,33.8166667
apollonovka,,07,49.0333333,36.0166667
apollonovka,,21,50.7733333,34.2772222
apollonski,,21,50.8313889,34.6575
apolonovka,,07,49.0333333,36.0166667
apolonskiy,,02,51.1,32.7166667
aponasovka,,21,50.6166667,33.8166667
apostolove,,04,47.6666667,33.7333333
apostolovka,,26,46.9183333,36.0125
apostolovo,,04,47.6666667,33.7333333
apostolowo,,04,47.6666667,33.7333333
appak,,11,45.2166667,35.3
appolonovka,,04,48.2166667,34.7833333
aprelevka,,10,47.85,32.0166667
apshitsa,,25,48.0666667,23.95
arabat,,11,45.3,35.4833333
arabka,,26,46.9666667,35.7333333
arabovka,,14,49.7327778,38.0372222
aragodshi,,08,45.7833333,34.3833333
aragodzh,,08,45.7833333,34.3833333
aranchi,,20,44.7333333,33.6333333
aranda,,11,45.2833333,34.7666667
arapovichi,,02,51.95,33.3166667
arapovka,,07,50.1102778,37.1947222
arapovka,,14,49.7327778,38.0372222
arapovka,,27,49.9666667,29.1
arapovkaploskoye,,07,50.2177778,36.6305556
aray,,11,45.2333333,33.7166667
arbeytal,,26,46.75,35.1
arbeytergeyn,,14,49.0688889,39.0108333
arbeytgeym,,26,47.7833333,36.5666667
arbusinka,,16,47.9166667,31.3166667
arbuzinka,,16,47.9166667,31.3166667
arbuzinskiy,,16,47.7166667,31.3333333
arbuzov,,07,50.1275,37.1455556
arbuzov,,22,49.8,25.2
arbuzovka,,04,47.8,34.85
arbuzovo,,11,45.75,33.8666667
arbuzynka,,16,47.9166667,31.3166667
archadinskiy,,05,47.9205556,38.1522222
archipitovka,,17,47.9,30.15
archiz,,17,45.9833333,29.4166667
archizul nou,,17,46.0794444,29.4988889
arcis,,17,45.9833333,29.4166667
arciz,,17,45.9833333,29.4166667
ardanove,,25,48.3333333,22.95
ardanovo,,25,48.3333333,22.95
ardeliva,,10,48.0,32.5833333
arentovo,,14,48.7938889,38.6494444
arepovka,,10,48.4166667,31.6833333
arestuv,,19,50.5333333,26.1833333
argin,,11,45.0,34.4666667
arginchik,,11,45.2333333,34.65
argyn,,11,45.5166667,33.95
argynchik,,11,45.2333333,34.65
aripovka,,10,48.4166667,31.6833333
aristarkhovka,,16,47.65,31.8333333
arkadevka,,07,49.7711111,37.2583333
arkadiyevka,,07,49.7711111,37.2583333
arkadiyevka,,16,47.95,31.4
arkadiyevtsy,,09,49.5166667,27.1666667
arkadskiy,,21,50.9727778,34.4738889
arkadyev,,16,47.95,31.4
arkadyevka,,07,49.7711111,37.2583333
arkhaderes,,11,44.85,35.05
arkhangelogavrilovka,,04,48.7,34.8333333
arkhangelovka,,07,48.9333333,36.95
arkhangelsk,,07,48.9333333,36.95
arkhangelske,,08,47.4333333,33.4
arkhangelskoye,,05,48.2666667,37.65
arkhangelskoye,,08,46.6333333,33.7
arkhipovka,,02,52.2355556,32.8216667
arkushino,,07,49.9566667,37.1491667
armaeli,,11,45.2,35.6166667
armashevka,,17,47.25,30.2
armashovka,,17,47.25,30.2
armiani,,09,48.7833333,26.55
armjansk,,11,46.1075,33.6969444
armutluk,,11,44.9833333,35.1666667
armyansk,,11,46.1075,33.6969444
arnautka,,08,46.6358333,32.5083333
arnautovka,,16,47.4833333,31.4666667
aromatnoye,,11,45.05,34.4166667
arpat,,11,44.8666667,34.7166667
arsabulgara,,17,46.3472222,29.2277778
arsa bulgare,,17,46.3472222,29.2277778
arsagermana,,17,46.3608333,29.2163889
arsa germanana,,17,46.3608333,29.2163889
arsenovka,,18,50.0,34.2833333
arsenyeva,,10,48.9333333,32.8666667
arsenyevka,,00,49.1666667,18.85
arsenyevka,,10,48.7166667,31.3333333
arsenyevka,,18,50.0,34.2833333
arsenyevka,,23,49.2,28.8166667
arshichin,,19,50.4833333,25.6666667
arshintsevo,,11,45.2997222,36.4316667
arshychin,,19,50.4833333,25.6666667
arshychyn,,19,50.4833333,25.6666667
arshyntseve,,11,45.2997222,36.4316667
arsis,,17,45.9833333,29.4166667
arsiz,,17,45.9833333,29.4166667
arsonoviche,,24,51.1166667,25.35
arszyczyn,,19,50.4833333,25.6666667
artamonov,,07,49.9811111,36.45
artasuv,,15,50.0166667,24.1333333
artek,,11,44.5666667,34.3
artel,,07,49.7305556,36.7147222
artel emes,,17,47.4166667,29.75
artel novayazhizn,,26,47.9333333,35.0166667
artelnoye aleksandrovka,,07,49.0175,36.1638889
artelnoye,,07,49.0655556,36.1691667
artel voykova,,05,47.6783333,38.1341667
artelyarshchina,,18,50.0547222,34.3355556
artema,,04,47.9333333,33.3666667
artema,,05,48.3711111,37.8822222
artema,,14,48.2772222,38.7833333
artema,,17,46.9761111,29.8758333
artemarastivka,,21,50.4908333,34.7136111
artemivka,,05,47.8727778,38.6341667
artemivsk,,05,48.5913889,38.0080556
artemo ryastovaya,,21,50.4908333,34.7136111
artemovka,,05,47.8727778,38.6341667
artemovka,,07,49.8405556,36.0416667
artemovka,,08,46.6,33.7833333
artemovka,,11,45.4666667,32.8333333
artemovka,,14,49.4238889,37.9041667
artemovka,,16,47.5166667,31.9333333
artemovka,,18,49.7666667,35.0666667
artemovka,,21,50.4908333,34.7136111
artemovo,,05,48.3711111,37.8822222
artemovsk,,05,48.5913889,38.0080556
artemovsk,,07,49.8405556,36.0416667
artemovsk,,14,48.4402778,38.7422222
artemovskiy,,04,48.2166667,36.1666667
artemovskiy,,05,48.5913889,38.0080556
artemovskiy rayon,,14,48.5666667,39.3333333
artemovskiy rudnik,,05,48.3833333,37.9166667
artemovskiy ruo,,05,48.3711111,37.8822222
artemowsk,,05,48.5913889,38.0080556
artemyevskoye,,07,49.9261111,37.0797222
artezian,,11,45.3938889,36.1686111
artilershchina,,18,50.0547222,34.3355556
artillershchina,,18,50.0547222,34.3355556
artirovka,,17,47.4736111,29.3644444
artishchevka,,07,49.715,36.7866667
artsis,,17,45.9833333,29.4166667
artsiz,,17,45.9833333,29.4166667
artsyz,,17,45.9833333,29.4166667
artsyzovka,,27,50.5833333,28.1833333
artynsk,,27,51.2333333,27.7833333
artyrivka,,17,47.4736111,29.3644444
artyrovka,,17,47.4736111,29.3644444
artyshchev,,15,49.7666667,23.6833333
artyshchuv,,15,49.7666667,23.6833333
artyukhov,,21,51.5833333,33.3833333
artyukhovka,,07,49.7122222,36.2705556
artyukhovka,,18,49.5,34.9
aseyevka,,07,49.3647222,36.6969444
ashagadzhamin,,11,45.15,33.75
ashkadan,,11,46.0,34.0333333
askainyanovaaskaniyanova,,08,46.45,33.8666667
askalonovka,,14,48.8538889,38.6616667
askanijanowo,,08,46.4480556,33.8633333
askaniya nova,,08,46.4480556,33.8633333
askomov,,04,47.8666667,34.4333333
asport,,11,44.7166667,34.25
ass,,11,45.9833333,33.8333333
assnayman,,11,45.9666667,34.0833333
astaban,,11,45.3333333,35.75
astachowo,,14,47.8666667,39.6166667
astakhove,,14,47.8588889,39.6202778
astakhovka,,14,47.8588889,39.6202778
astakhovo,,14,47.8588889,39.6202778
astanino,,11,45.3333333,35.9166667
astapkovtsy,,23,48.8833333,28.8333333
astapovka,,16,47.9666667,31.0833333
astrachanka,,26,46.9333333,35.65
astrakhanka,,26,46.9494444,35.6522222
atakhi,,03,48.5833333,26.9333333
ataki,,03,48.5333333,26.4833333
ataman,,08,46.0166667,34.5
atamanka,,17,46.85,31.15
atamanovka,,26,46.45,35.1166667
atanalchin,,11,45.0694444,36.0816667
atay nemetskiy,,11,45.7666667,33.6166667
atay tatarskiy,,11,45.7833333,33.6166667
atcheut,,11,44.8833333,33.9166667
atestovo,,17,46.6333333,30.55
atjuscha,,02,51.4166667,32.9833333
atman,,11,45.0,33.9666667
atmanay,,26,46.45,35.1166667
atrokhi,,02,51.1,30.8166667
atynsk,,21,51.2238889,34.2116667
atyusha,,02,51.4166667,32.9833333
atyushi,,02,51.4166667,32.9833333
auditorovka,,10,48.8833333,32.9666667
audzhikoy,,11,44.6666667,34.0166667
augustendorf,,03,48.1,25.5
augustuv,,03,48.4666667,25.5833333
augustuv,,25,49.0166667,23.4833333
auly,,04,48.5333333,34.5
autka,,11,44.5,34.1333333
auzkirk,,08,45.8833333,34.55
auzkurk,,08,45.8833333,34.55
avangard,,07,49.4686111,36.6227778
avangard,,08,46.55,34.95
avangard,,26,46.9166667,34.7666667
avdeyevka,,02,51.4833333,31.6833333
avdeyevka,,05,48.1383333,37.7369444
avdeyevka pervaya,,05,48.1333333,37.7666667
avdeyevka vtoraya,,05,48.1166667,37.7833333
avdiyivka,,05,48.1383333,37.7369444
avdotino,,05,47.9166667,37.85
avdotivka,,04,48.8333333,34.8666667
avdotyevka,,04,47.6833333,33.0333333
avel,,11,45.2,33.8
avgustinovka,,26,48.0333333,35.0333333
avgustov,,03,48.1,25.5
avgustov,,25,49.0166667,23.4833333
avgustovka,,17,46.6333333,30.65
avgustovka,,22,49.5833333,25.1
avgustuvka,,22,49.5833333,25.1
avhustivka,,22,49.5833333,25.1
avilovskiy,,05,48.1988889,38.1725
avramenkov,,21,50.6080556,34.0205556
avratin,,22,49.6666667,26.3
avratin,,27,49.8833333,27.8166667
avremivka,,05,48.65,37.35
avrora,,04,47.5833333,34.4166667
avrora,,11,45.75,33.2666667
avrorovka,,11,45.7166667,33.7333333
avtozavodskiy rayon,,18,49.0666667,33.4166667
avtunichi,,02,52.0252778,31.6516667
avtunychi,,02,52.0252778,31.6516667
awdejewka,,05,48.1383333,37.7369444
ayan,,11,44.8333333,34.3
aybar,,11,45.5,33.8833333
aybary,,11,45.5,33.8833333
aydanil,,11,44.5166667,34.25
aydar,,14,49.6833333,39.5
aydarnikolayevka,,14,48.9633333,38.9744444
aydreyenik,,17,46.4666667,29.0666667
ayedotyevka,,04,47.9666667,33.7
ayfugan tatarskiy,,11,45.2166667,34.4
aygashen,,11,45.6833333,34.1
aykaul,,11,45.5833333,33.7166667
aykaul vakuf,,11,45.6,33.7166667
aylyanma,,11,44.95,34.7166667
aymamshak,,11,45.5166667,33.8333333
aymankuyu,,11,45.25,36.2333333
aynzingen,,15,50.2166667,23.4833333
ayserez,,11,44.8833333,34.85
aytodor,,20,44.5666667,33.8
aytugan,,11,45.25,34.4
aytugan nemetskiy,,11,45.25,34.4
aytugan tatarskiy,,11,45.2166667,34.4
ayvasil,,11,44.5166667,34.1666667
ayvazovskaya,,11,44.5833333,34.35
ayvazovskoye,,11,45.1166667,35.0833333
azamat,,11,45.1333333,34.7333333
azarovka,,14,48.3386111,39.0663889
azberdyvakuf,,11,45.1666667,34.7333333
azdzharakchi,,11,45.65,34.2833333
azek,,11,44.8666667,33.85
azov,,05,47.15,37.3833333
azov,,11,45.3166667,34.35
azov,,26,46.6333333,35.4833333
azovskoye,,11,45.5833333,34.5666667
baba,,02,51.5166667,32.3333333
baba,,07,49.7069444,37.1711111
babachikha,,13,50.0666667,31.4166667
babachiy,,07,50.0972222,37.2088889
babai,,07,49.8847222,36.2027778
babakh tarama,,05,46.8919444,37.0833333
babaki,,07,50.1208333,35.7711111
babakov,,21,50.9483333,34.0108333
babakovka,,21,51.1816667,34.1386111
babanka,,01,48.7036111,30.4511111
babanovka,,14,49.3,38.3
babanovka,,26,46.7,35.85
babany,,01,48.85,30.35
babari,,08,46.2166667,32.4
babarykov,,07,49.4527778,37.1369444
babay,,07,49.8847222,36.2027778
babaykovka,,04,49.0166667,34.5333333
babaykovskiye,,04,48.9666667,34.6166667
babche,,06,48.6744444,24.4627778
babchintsy,,23,48.3833333,28.15
babei,,17,46.25,30.0166667
babel,,17,45.4,28.6666667
babele,,17,45.4,28.6666667
babenkovo,,07,49.2519444,37.3352778
babenkovo,,11,45.1,35.1333333
babey,,17,46.25,30.0166667
babiche,,15,50.2166667,24.5333333
babicheva,,03,48.1666667,25.3833333
babichevka,,18,49.2833333,33.25
babichevka,,27,50.3833333,28.3
babichevo,,14,49.9472222,38.225
babichi,,00,55.6833333,40.75
babichi,,06,48.6744444,24.4627778
babichi,,15,50.2166667,24.5333333
babichi,,18,49.6666667,34.1666667
babichi,,25,48.4333333,22.9
babichova,,03,48.1666667,25.3833333
babichovka,,18,49.2833333,33.25
babicze,,15,50.2166667,24.5333333
babina,,04,47.4,34.05
babina,,15,49.5833333,23.2833333
babina,,25,49.3166667,22.85
babin,,03,48.3333333,25.4833333
babin,,06,48.2833333,25.0333333
babin,,09,49.65,27.5166667
babin,,19,50.6,26.5333333
babin,,23,49.1333333,29.3166667
babine,,15,50.1833333,24.6833333
babinie,,15,50.1833333,24.6833333
babinka,,16,47.9833333,31.75
babino,,03,48.5333333,26.8666667
babino,,04,47.4,34.05
babino,,09,49.65,27.5166667
babinopolye,,06,48.35,24.8333333
babinovka,,07,49.3086111,36.4077778
babinoye,,15,49.5833333,23.2833333
babintse,,22,48.5666667,26.2833333
babintsy,,06,49.4166667,24.6166667
babintsy,,13,50.6333333,30.0333333
babintsy,,22,48.5666667,26.2833333
babintsy,,23,49.55,29.4833333
babka,,19,51.3833333,25.8833333
babonovskiy,,05,47.7622222,38.1630556
babovka,,07,50.3333333,35.6666667
babshin,,03,48.4666667,26.5666667
babtschinzy,,23,48.3833333,28.15
babukhuv,,06,49.3666667,24.6166667
baburka,,26,47.8,35.0666667
babushki,,27,50.0,28.1833333
babyanka,,06,48.7166667,24.8166667
baby,,06,48.7666667,24.7666667
babychi,,25,48.4333333,22.9
babye,,21,51.2630556,34.095
babye,,24,50.95,24.9166667
babyk,,11,45.3333333,35.8166667
babykino,,07,50.0858333,35.6166667
babyna,,15,49.5833333,23.2833333
babyn,,06,48.2833333,25.0333333
babynka,,01,48.7036111,30.4511111
babynki,,07,50.0858333,35.6166667
babynopillya,,06,48.35,24.8333333
babyntsi,,06,49.4166667,24.6166667
babyshkino,,07,50.1875,37.4069444
baccialia,,17,45.7666667,29.4833333
bacharuvka,,19,50.1,25.35
bachashisarai,,11,44.75,33.8666667
bachevsk,,21,51.8483333,34.2716667
bachina,,15,49.45,23.0333333
bachischissarai,,11,44.75,33.8666667
bachivsk,,21,51.8483333,34.2716667
bachka,,15,50.0666667,24.8
bachkurin,,01,48.95,29.8666667
bachkurino,,01,48.95,29.8666667
bachmanovka,,09,50.35,27.0166667
bachmanovka,,17,47.6577778,29.5630556
bachmatsch,,02,51.1833333,32.7833333
bachuv,,22,49.5333333,24.65
bacoza,,17,46.1833333,30.1833333
baden,,17,46.7086111,29.9808333
badulyovo vtoroye,,17,47.4988889,29.7152778
baduvka,,09,50.3833333,26.6
badya,,05,47.6616667,38.2983333
badyulove,,17,47.5086111,29.6886111
badyulove druhe,,17,47.4988889,29.7152778
badyulove pershe,,17,47.5086111,29.6886111
badyulovo pervoye,,17,47.5086111,29.6886111
badyvlovo pervoye,,17,47.5086111,29.6886111
baga,,11,44.5,33.85
bagachka,,14,49.9797222,38.3666667
bagachka pervaya,,18,49.7,33.6166667
bagarovo,,11,45.3761111,36.2972222
bagava,,01,49.25,30.2166667
bagay,,11,45.2666667,33.3666667
bagerovo,,11,45.3761111,36.2972222
bagerovskoye,,11,45.3880556,36.2613889
baglai,,09,49.5,26.5833333
baglikovo,,11,45.3666667,34.1833333
bagna,,03,48.1666667,25.3666667
bagnovate,,25,49.0666667,23.15
bagnovatyy,,25,49.0666667,23.15
bagovitsa,,09,48.6166667,26.7333333
bagrationovo,,11,45.4333333,32.9166667
bagrinovka,,03,47.9841667,25.9408333
bagrinovtsy,,23,49.3,27.9333333
bagva,,01,49.25,30.2166667
bahacheve,,17,47.1375,29.8005556
bahatkivtsi,,22,49.4,25.3666667
baherove,,11,45.3761111,36.2972222
bahrinesti,,03,47.9841667,25.9408333
bahrynivka,,03,47.9841667,25.9408333
bai,,04,47.7333333,33.5833333
baidari,,20,44.45,33.7666667
baileanca,,17,45.8333333,29.9166667
baim,,11,45.6,33.1333333
bairak,,07,50.0144444,35.6636111
bairamcea,,17,46.1344444,29.9041667
bajmaki,,15,50.0166667,24.8
bakal,,11,45.7333333,33.2333333
bakalova,,17,46.8833333,30.1166667
bakalovo,,17,46.8833333,30.1166667
bakaly,,16,47.6166667,30.85
bakay,,18,49.6166667,33.9333333
bakayevka,,02,50.8833333,32.15
bakayevka,,07,49.2536111,36.2363889
bakchaliya,,17,45.7666667,29.4833333
bakchalya,,17,45.7666667,29.4833333
bakhchieli,,11,44.9666667,34.1
bakhchisaray,,11,44.75,33.8666667
bakhchysaray,,11,44.75,33.8666667
bakhehisaray,,11,44.75,33.8666667
bakhmach,,02,51.1833333,32.7833333
bakhmach romenskiy,,02,51.1833333,32.7833333
bakhmatovtsy,,09,49.4166667,27.2
bakhmetyevka,,07,49.8,35.8333333
bakhmut,,05,48.5913889,38.0080556
bakhmut,,18,49.15,34.2833333
bakhmutovka,,05,48.4252778,38.0252778
bakhmutovka,,14,48.8686111,39.0458333
bakhna,,06,47.9833333,25.1166667
bakhnovate,,25,49.0666667,23.15
bakhorova,,05,47.5166667,37.3333333
bakhrineshte,,03,47.9841667,25.9408333
bakhrineshti,,03,47.9841667,25.9408333
bakhrineshtiye,,03,47.9841667,25.9408333
bakhtin,,23,48.8166667,27.5
bakhtyk,,07,49.3380556,37.5311111
bakhtyn,,07,49.3380556,37.5311111
bakhtyn,,23,48.8166667,27.5
bakhtynok,,23,48.8,27.4666667
bakirovka,,21,50.3772222,35.0144444
bakivtsi,,06,49.5333333,24.3666667
baklanova,,02,51.4166667,31.45
baklanovamuraveyka,,02,51.4166667,31.45
bakota,,03,48.6,26.9833333
bakovtsy,,06,49.5333333,24.3666667
baksan,,11,44.9666667,34.4166667
baksha,,17,48.0166667,29.9666667
baksha,,21,50.9391667,34.2811111
bakshala,,16,47.75,30.9666667
baksharovka,,07,49.1877778,36.6019444
bakshay,,11,45.3166667,34.25
baksheyevka,,07,50.2077778,37.2125
baksheyevko,,07,50.2077778,37.2125
baksy,,11,45.3866667,36.5777778
bakta velka,,25,48.1666667,22.6666667
bakumovka,,18,49.6166667,33.3333333
bakumtsy,,07,50.1286111,36.0525
bakutin,,18,50.5033333,34.2291667
bakuyma,,19,50.4833333,25.4666667
balabanca,,17,45.7666667,29.85
balabancamica,,17,45.9333333,30.2333333
balabanivka,,23,49.1166667,29.6166667
balabanka,,17,45.7666667,29.85
balabanka mare,,17,45.8833333,30.2333333
balabanka mika,,17,45.9333333,30.2333333
balabanovka,,16,46.8333333,32.0166667
balabanovka,,23,48.7666667,27.3833333
balabine,,26,47.7344444,35.2061111
balabino,,26,47.7344444,35.2061111
balagoruvka,,06,48.6666667,25.2333333
balakhovka,,10,48.4833333,33.1833333
balakirevka,,14,49.3536111,38.9194444
balakiry,,09,49.1666667,26.7166667
balaklava,,20,44.5,33.6
balaklawa,,20,44.5,33.6
balakleya,,07,49.47,36.8638889
balakleya,,18,49.6166667,33.75
balakliya,,07,49.47,36.8638889
balakliya,,18,49.6166667,33.75
balamutka,,22,48.5333333,26.0666667
balamutovka,,09,49.3166667,27.05
balamutovka,,22,48.5333333,26.0666667
balamutovka,,27,49.7166667,29.2333333
balandino,,01,48.9333333,31.9833333
balanin,,02,51.0833333,32.75
balanino,,17,46.9666667,30.6
balaniny,,17,46.9666667,30.6
balanov,,16,46.8666667,31.6166667
balanovichi,,15,49.6833333,23.0666667
balanovka,,07,50.0622222,35.8091667
balanovka,,23,48.4,29.4
balanovo,,08,46.65,32.9833333
balanovo,,16,46.8666667,31.6166667
balashevo,,11,45.8833333,34.2333333
balashove,,17,47.3769444,29.7497222
balashovka,,08,45.9666667,34.3166667
balashovka,,19,51.0,26.9666667
balashovka,,26,47.15,35.8833333
balashovo,,08,46.6666667,34.4
balashovo,,17,47.3769444,29.7497222
balaya krinitsa,,05,47.3094444,38.0708333
balaychuk,,17,47.0833333,30.7166667
balca,,17,45.85,30.05
bali,,18,49.3833333,34.4166667
baliche podruzhne,,06,49.1666667,24.05
baliche zazhechne,,06,49.1666667,24.1
balichi,,15,49.7666667,23.0166667
balin,,09,48.8666667,26.6833333
balin,,23,49.35,28.2
balinovka,,09,48.8833333,26.6166667
balintse,,06,48.55,25.3
balintsy,,06,48.55,25.3
balitse,,15,49.7666667,23.0166667
balkan,,15,50.2333333,23.8666667
balkauts,,03,48.35,26.5666667
balkha,,21,51.0966667,34.5480556
balki,,07,49.3,35.6333333
balki,,11,45.0,34.4666667
balki,,23,49.0666667,27.6833333
balki,,26,47.3830556,34.9508333
balkovka,,17,46.85,30.1666667
balkovtsy,,22,49.55,26.2833333
balky,,26,47.3830556,34.9508333
balochki,,26,47.4833333,36.45
balovnaya,,16,47.05,31.8833333
balovnoye,,16,47.05,31.8833333
balshay fontan,,17,47.8202778,29.5375
balta,,17,47.9372222,29.6194444
baltachokrak,,11,44.7833333,33.9666667
baluchin,,15,49.85,24.5666667
balyarka,,19,50.9833333,26.0666667
balyarka,,27,50.8833333,28.8333333
balyarka prosetskaya,,27,50.85,27.65
balyasnoye,,18,49.8166667,34.3333333
balyka,,13,49.95,31.15
balykoshchuchinka,,13,49.95,31.15
balykoshchuchynska,,13,49.95,31.15
balyky,,13,49.95,31.15
balyn,,23,49.35,28.2
bandurovka,,21,51.2172222,34.0569444
bandurovka,,23,48.3,29.2333333
bandury,,21,50.2491667,34.6594444
bandyshevka,,23,48.4,28.0166667
bandyshivka,,23,48.4,28.0166667
baneasa,,17,45.6833333,28.9166667
banichi,,21,51.5,33.9166667
banilov,,03,48.0833333,25.4833333
banivka,,26,46.7477778,36.38
bannotatyanovka,,05,49.0397222,37.5855556
bannovka,,17,45.6833333,28.9166667
bannovskiy,,05,49.0397222,37.5855556
bannovskoye,,05,49.0397222,37.5855556
banovka,,26,46.7477778,36.38
banovki,,17,45.6833333,28.9166667
bantyshevo,,07,48.8333333,37.3
banunin,,15,49.95,24.4
banya,,06,48.6833333,24.55
banya berezov,,06,48.4166667,24.75
banyaberezuv,,06,48.4166667,24.75
banya berezuvska,,06,48.4166667,24.75
banyasa,,17,45.6833333,28.9166667
banya svirska,,06,48.3833333,24.7833333
banyliv,,03,48.3708333,25.3655556
banyunin,,15,49.95,24.4
banyunyn,,15,49.95,24.4
bapkan,,15,50.2333333,23.8666667
barabanovka,,11,44.9833333,34.3166667
barabashev,,18,49.6833333,34.3
barabashevka,,07,49.1175,37.05
baraboy pervy,,17,46.3,30.5166667
baraboy pervyy,,17,46.3,30.5166667
baraboy tretiy,,17,46.25,30.5333333
baraboy vtoroy,,17,46.2666667,30.5166667
baragan nemetskiy,,11,45.2833333,34.45
barak,,11,45.2333333,35.25
barakhty,,13,50.1166667,30.3333333
barakovka,,22,48.9166667,25.5833333
barane peretoki,,15,50.5666667,24.4
baranetska volya,,15,49.6166667,23.1333333
baranetskaya volya,,15,49.6166667,23.1166667
barania,,25,48.15,23.4
baranie peretoki,,15,50.5666667,24.4
baranikovka,,14,49.1322222,39.8436111
baranintsy,,25,48.55,22.3666667
barani peretoki,,15,50.5666667,24.4
baranivka,,27,50.8666667,29.2166667
baranivtsi,,15,49.6166667,23.1333333
barannikovka,,14,49.6666667,39.8333333
baranova,,07,49.6091667,37.4386111
baranovka,,02,52.0616667,32.2994444
baranovka,,05,48.3166667,37.5333333
baranovka,,07,49.6091667,37.4386111
baranovka,,09,49.15,27.0
baranovka,,11,45.4,32.6833333
baranovka,,18,49.95,34.0
baranovka,,21,50.9333333,34.85
baranovka,,27,50.3,27.6666667
baranovo,,07,49.9,35.6333333
baranovo,,17,46.9333333,30.4
baranovtsy,,15,49.6166667,23.1333333
baranowka,,27,50.3,27.6666667
barany,,13,51.3333333,29.5666667
baranye,,19,50.1833333,25.2666667
baranye nove,,19,50.1833333,25.2833333
baranye pole,,13,49.45,30.7333333
baranye stare,,19,50.1833333,25.2666667
baranyeulashanovka,,09,50.3333333,26.8666667
baranytsi,,25,48.55,22.3666667
barasanovka,,11,45.4833333,34.9333333
barashi,,27,50.7166667,28.0166667
barashovka,,27,50.2833333,28.55
baraskhan,,11,45.1,34.3833333
barasonovka,,11,45.4833333,34.9333333
baratova,,16,46.95,32.7833333
baratovka,,06,48.8,24.8
baratovka,,16,46.95,32.7833333
barbalatovo,,07,48.8166667,36.65
bar,,15,49.7833333,23.4833333
bar,,23,49.0666667,27.6666667
barbarovka,,09,50.2166667,26.8833333
barbarovka,,19,51.2166667,27.6
barbarovka,,27,50.5333333,27.9666667
barbarowka,,09,50.0166667,27.5
barbarshtadt,,26,47.4341667,35.5269444
barbaruv,,15,50.85,24.5333333
barbashevka,,07,49.0313889,36.2413889
barbashtadt,,26,47.4341667,35.5269444
barbasov,,05,47.4,37.8833333
barboro,,25,48.35,22.7666667
barbosivka,,16,47.35,32.2
barda,,27,51.0333333,28.7333333
bardakov,,21,50.4166667,34.6333333
bardanovka,,21,50.4166667,34.6333333
baremel,,19,50.4666667,25.2
barhumet,,03,48.1755556,25.3413889
barilo,,21,51.0580556,34.5155556
barilov,,19,50.35,24.8833333
barilovka,,21,50.9944444,35.0616667
barkasove,,25,48.3833333,22.4916667
barkasovo,,25,48.3833333,22.4916667
barkovskiy,,04,47.9333333,34.7333333
barmaki,,19,50.6333333,26.3
barmashovo,,16,47.0833333,32.45
barnova,,03,48.5,26.6666667
barnutka,,20,44.4666667,33.7
barnyshevka,,08,47.1166667,34.1666667
barok,,23,48.85,27.6833333
baronskoye,,14,48.3833333,38.55
barshchovitse,,15,49.8666667,24.2666667
barskiye chemerisy,,23,49.0666667,27.6666667
barsuchya,,06,48.5333333,24.35
barsuki,,03,48.0,25.2833333
barsuki,,09,48.7166667,27.1666667
barsuki,,17,48.05,29.4166667
barsuki,,19,51.1166667,26.0333333
barsuki,,22,49.8833333,25.9833333
barsuki,,23,48.75,29.5333333
barsukov,,03,48.1333333,25.9166667
barsuky,,09,48.7166667,27.1666667
barta,,17,45.3833333,28.5666667
bartativ,,09,49.8,23.8166667
bartatov,,09,49.8,23.8166667
bartatuv,,09,49.8,23.8166667
bartenevka,,20,44.6333333,33.55
bartenyevka,,07,50.0469444,37.6122222
bartenyevka,,20,44.6333333,33.55
bartoshevka,,23,49.3,29.3333333
barvenkova,,07,48.9,37.0166667
barvenkov,,07,50.0608333,37.7102778
barvenkovo,,07,48.9,37.0166667
barvinkove,,07,48.9,37.0166667
barvinovka,,26,46.8666667,35.9833333
barwenkowa,,07,48.9,37.0166667
barykino,,14,49.2911111,38.4016667
baryliv,,19,50.35,24.8833333
barylov,,19,50.35,24.8833333
barylow,,19,50.35,24.8833333
baryluv,,19,50.35,24.8833333
baryn,,11,45.15,34.6166667
baryn nemetskiy,,08,45.7,34.55
barysh,,22,49.0333333,25.2666667
baryshevka,,13,50.3666667,31.3333333
baryshevka,,27,50.2833333,28.55
baryshivka,,13,50.3666667,31.3333333
baryshivka,,27,50.2833333,28.55
barysz,,22,49.0333333,25.2666667
barytuvka,,06,48.8,24.8
barzenkovoblyumengof,,04,47.75,34.1833333
basan,,26,47.4166667,36.1313889
basanka,,05,47.2166667,37.8666667
basanskiy,,26,47.3333333,36.2666667
basbulak,,00,42.25,62.8666667
basevka,,09,49.7833333,23.9166667
basharuvka,,19,50.1,25.35
bashbek,,11,45.7166667,33.7333333
bashbek nemetskiy,,11,45.7166667,33.7333333
basheva,,24,50.8833333,25.1833333
bashkirgiz,,11,45.1333333,35.85
bashkirovka,,07,49.8469444,36.7088889
bashkovtse,,22,50.1333333,25.8833333
bashkovtsy,,22,50.1333333,25.8833333
bashlycha,,11,45.45,34.3
bashlyki,,19,50.8166667,25.85
bashmachka,,04,48.1666667,35.0166667
bashmak,,11,45.3,33.5833333
bashova,,24,50.8833333,25.1833333
bashtanka,,16,47.4,32.45
bashtankov,,17,48.1166667,28.9833333
bashtankovo,,17,48.1166667,28.9833333
bashtanovka,,11,44.6833333,33.9
bashtanovka,,17,45.7666667,29.4833333
bashtechki,,01,49.25,30.3333333
bashtevich,,14,48.3672222,38.865
bashtina,,10,48.2166667,33.1833333
bashtino,,10,48.2166667,33.1833333
bashuki,,22,49.8166667,25.5333333
basivka,,21,51.1833333,35.0875
basivshchina krasnyy,,21,50.7619444,34.5866667
baskaki,,27,50.8166667,28.1333333
basov,,07,50.4125,35.885
basovka,,21,50.8333333,33.5833333
basov kut,,19,50.6,26.25
basovo,,07,50.4125,35.885
bassalychevka,,23,48.7333333,29.25
bassayabka,,17,47.4583333,29.6144444
basul,,17,47.4583333,29.9552778
basuv kut,,19,50.6,26.25
basy,,21,50.8769444,34.8258333
basyula,,17,47.4583333,29.9552778
basyuvka,,09,49.7833333,23.9166667
baszowa,,24,50.8833333,25.1833333
baszuki,,22,49.8166667,25.5333333
batalnoye,,11,45.2,35.6166667
batar,,25,48.0166667,22.9666667
batevo,,25,48.3666667,22.4
batiatycze,,15,50.1,24.2666667
batiliman,,20,44.4166667,33.6833333
batiovo,,25,48.3666667,22.4
batiuczka,,15,50.2,24.2666667
batki,,18,50.0175,34.56
batkov,,22,49.8333333,25.2333333
batkuv,,22,49.8333333,25.2333333
batovo,,25,48.3666667,22.4
batrad,,25,48.3166667,22.4166667
batrak,,04,48.6666667,34.8166667
batratskoye,,23,48.25,28.8333333
batsmany,,21,50.75,33.2833333
baturin,,02,51.35,32.8833333
baturyn,,02,51.35,32.8833333
batyatyche,,15,50.1,24.2666667
batyatychi,,15,50.1,24.2666667
batyatychko,,15,50.2,24.2666667
batyevo,,26,46.6805556,35.8388889
batyjow,,19,50.2833333,24.8666667
batyu,,25,48.3666667,22.4
batyuchka,,15,50.2,24.2666667
batyyuv,,19,50.2833333,24.8666667
batyzman,,10,48.25,32.7166667
bavoriv,,22,49.45,25.7166667
bavorov,,22,49.45,25.7166667
bayan,,03,48.2833333,26.1333333
bayany,,03,48.2833333,26.1333333
bayasyt,,11,45.6833333,33.75
baybuzivka,,17,47.4591667,29.9677778
baybuzovka,,17,47.4591667,29.9677778
baybuzy,,01,49.4833333,31.6833333
baydaki,,07,49.2777778,36.9155556
baydakova,,10,48.8333333,33.35
baydakovo,,04,47.9,33.7666667
baydary,,20,44.45,33.7666667
baydovka,,14,49.1847222,38.9208333
baydukov,,10,47.8333333,32.1666667
baygeldy,,11,45.2333333,33.7666667
baygonchik,,11,45.6166667,34.5666667
baygondu,,11,45.7833333,33.45
baykivka,,23,49.5,28.4166667
baykivtsi,,22,49.5666667,25.7
baykiyat,,11,45.65,33.0333333
baykogenly,,11,45.3166667,34.0666667
baykova,,07,50.3233333,37.1408333
baykovka,,23,49.5,28.4166667
baykovshchina,,01,49.9,32.25
baykovtsy,,22,49.5666667,25.7
baymaki,,15,50.0166667,24.8
baymaki,,22,50.0666667,26.2333333
bayrach,,11,45.1333333,35.2333333
bayrachki,,14,48.3886111,38.6083333
bayrak,,05,48.35,38.1333333
bayrak,,07,49.4163889,36.8366667
bayrak,,18,49.7166667,34.3666667
bayrakovka,,23,49.05,28.7833333
bayramcha,,17,46.1344444,29.9041667
baytaly,,17,47.8122222,29.8194444
bazaleyevka,,07,49.8338889,36.9858333
bazaliya,,09,49.7166667,26.4666667
bazaliyevka,,07,49.8338889,36.9858333
bazany,,15,50.1,24.8
bazar,,13,51.05,29.3
bazar,,22,48.95,25.5666667
bazarchik,,11,44.8333333,33.95
bazarianca,,17,45.8833333,30.15
bazarintsy,,22,49.6833333,25.7833333
bazaryanka,,17,45.8833333,30.15
bazaryntsi,,22,49.6833333,25.7833333
bazavluchok,,04,47.9333333,34.0333333
bazavluk,,04,47.7,33.9833333
bazelevo,,16,47.7833333,32.1833333
bazhanova,,04,47.8666667,33.85
bazhany,,15,50.1,24.8
bazilevshchina,,18,49.4666667,34.8833333
bazilevskiy,,21,52.0283333,33.8061111
bazilovka,,21,51.0,33.4833333
bazylevshchina,,18,49.4666667,34.8833333
bebechy,,19,50.2333333,24.9
bebekhi,,09,49.15,27.1833333
bebekhi,,19,50.2333333,24.9
becheshti,,03,48.1333333,26.15
bechi,,27,51.0166667,28.7
bedevlya,,25,48.0,23.6666667
bedino,,07,50.3125,37.3952778
bedino,,14,49.5166667,38.8333333
bednarev,,06,49.0333333,24.55
bednarov,,06,49.0333333,24.55
bednarovka,,06,48.65,24.8166667
bednaruv,,06,49.0333333,24.55
bednaruvka,,06,48.65,24.8166667
bednyak,,07,49.4808333,36.1058333
bednyy,,07,50.2447222,36.4558333
bedovka,,14,49.5166667,38.8333333
bedrikovtsy,,09,49.2166667,26.55
bedrikovtys,,22,48.7,25.7833333
bedrykowce,,22,48.7,25.7833333
bedyanskoye,,26,46.9672222,37.0083333
begach,,02,51.6166667,31.65
begen,,19,50.7166667,26.1833333
begimchokrak,,26,47.15,36.0833333
begoslovka,,16,48.1,31.05
begun,,27,51.4,28.2833333
begunskiy,,27,51.6666667,28.2666667
begunskiye,,27,51.6666667,28.2666667
bekarovka,,26,47.85,35.4333333
bekbulatchi,,11,45.4,34.3666667
beketovo,,11,44.4,33.9166667
bekhteri,,08,46.2488889,32.2930556
bekhtershchina,,18,49.8166667,33.6
bekhtery,,08,46.2488889,32.2930556
bekkarskiy,,26,47.9166667,36.1166667
bekkazy,,11,45.5833333,34.45
bekkerovka,,26,47.85,35.4333333
belaja zerkow,,13,49.7833333,30.1166667
belany,,21,51.0169444,34.3858333
belashev,,19,50.35,26.4
belashi,,07,50.1391667,36.1461111
belashki,,01,48.85,30.65
belashki,,23,49.5,29.1666667
belashov,,19,50.3833333,26.1
belashov,,24,51.1166667,24.7166667
belasovitsa,,25,48.8333333,23.0666667
belauts,,03,48.35,26.4833333
belaya,,03,48.3166667,25.8833333
belaya,,07,49.4880556,37.5697222
belaya,,09,48.9166667,26.4833333
belaya,,15,50.1,23.6666667
belaya,,19,51.6666667,26.7333333
belaya,,22,49.0333333,25.7666667
belaya,,23,48.25,28.2166667
belaya dymerka,,13,50.6,30.9333333
belaya gora,,05,48.4833333,37.9
belaya gora,,14,48.8513889,38.5116667
belaya gora,,15,49.8666667,23.6333333
belaya krinitsa,,03,47.9766667,25.885
belaya krinitsa,,05,47.3094444,38.0708333
belaya krinitsa,,08,47.2166667,33.1166667
belaya krinitsa,,22,50.15,25.75
belaya krinitsa,,27,50.65,29.4666667
belaya ofirna,,13,50.1333333,29.95
belaya rechka,,06,47.9644444,24.9147222
belaya skala,,11,45.1,34.6166667
belaya tissa,,25,48.0416667,24.3605556
belaya tserkov,,13,49.7833333,30.1166667
belbasovka,,05,48.85,37.5
belbek,,20,44.6833333,33.6
bel,,00,54.8166667,30.5166667
belchaka,,27,50.8,27.15
belchaki,,27,50.8,27.15
belchin,,09,50.1166667,26.6833333
belchinka,,09,50.1166667,26.75
bele,,15,50.3833333,24.0166667
bele,,19,51.65,26.0166667
beleluya,,06,48.5,25.4833333
belenkiy,,08,47.3333333,33.15
belenkiy,,14,48.4833333,38.9833333
belenkoye,,04,48.7666667,37.6333333
belenkoye,,17,46.05,30.3666667
belenkoye,,26,47.6275,35.0338889
beletsk,,09,49.9,27.3833333
beletskovka,,10,49.0166667,33.3333333
beletskoye,,09,49.3333333,27.7666667
belev,,09,50.0833333,26.9166667
belevo,,09,50.0833333,26.9166667
beleyev,,06,49.1,24.0333333
belezhintsy,,09,50.0666667,26.6333333
belgoroddnestrovskiy,,17,46.2,30.35
belgorodka,,13,50.3833333,30.2166667
belgrad,,17,45.6833333,28.6108333
belichanka,,18,49.3333333,34.9666667
belichi,,13,50.4666667,30.35
belichkov,,18,50.0505556,34.1430556
beliki,,02,51.0166667,30.9166667
beliki,,18,49.25,34.2833333
belikov,,07,49.0477778,36.9269444
belikovka,,21,50.9938889,34.0952778
belikov kolodets,,07,49.0477778,36.9269444
belikovtsy,,23,49.1166667,28.0333333
belilovka,,23,49.6833333,29.0333333
belin,,15,50.9333333,24.2666667
belin,,24,51.2333333,24.8166667
belin,,25,48.1166667,24.25
belino,,17,47.8752778,29.6227778
belinskaya,,11,45.3747222,36.0936111
belitsa,,21,52.0072222,33.7672222
belitskiy,,26,47.5833333,35.3
belitskoye,,05,48.4166667,37.1833333
belitskoye,,26,47.6666667,35.7
beliyeva,,13,49.6,29.8
beliyevka,,13,49.6,29.8
belizhintsy,,09,50.0666667,26.6333333
belka,,13,50.5166667,29.4666667
belka,,17,46.9,30.4333333
belka,,19,50.9333333,26.75
belka,,21,50.5569444,34.9038889
belka,,27,50.0666667,29.5666667
belki,,21,50.5569444,34.9038889
belki,,25,48.3166667,23.1333333
belki,,27,50.0666667,29.5666667
belkovtsy,,23,49.1166667,28.0333333
belkovtsy,,27,50.3666667,28.9666667
belmanka,,26,47.25,36.65
beloberezka,,03,48.15,25.0833333
beloborodskoye,,11,45.0833333,35.8333333
belobozhnitsa,,22,49.05,25.6666667
belobrodskoye,,11,45.0833333,35.8333333
belochinkovka,,18,50.3666667,33.9333333
beloe,,14,48.4927778,39.0355556
belogalitsa,,21,51.2666667,33.95
belogolovoye,,22,49.7666667,25.3333333
belogolovy,,22,49.7666667,25.3333333
belogorelka,,18,50.5166667,33.2666667
belogorilka,,18,50.5166667,33.2666667
belogorka,,06,48.8833333,25.0833333
belogorka,,08,47.4666667,33.2833333
belogorodka,,09,50.0,26.6333333
belogorodka,,13,50.3833333,30.2166667
belogorovka,,05,48.7358333,38.2191667
belogorovka,,06,48.6666667,25.2333333
belogorovka,,14,48.9266667,38.2441667
belogorshche,,09,49.85,23.9333333
belogorsk,,09,50.0,26.6333333
belogorsk,,11,45.05,34.6
belogorskiy,,08,47.2,33.15
belogorye,,09,49.85,23.9333333
belogorye,,26,47.5183333,36.0002778
belogrivoye,,21,51.6666667,33.4333333
belogrivskiy,,21,51.6666667,33.4333333
belokamenka,,05,47.5333333,37.85
belokamenka,,11,45.4166667,35.8
belokamenka,,16,47.6833333,31.4166667
belokamennoye,,11,44.6833333,33.85
belokamensk,,20,44.6,33.6
belokamenskoye,,05,48.6833333,38.1
belokolytovo,,21,51.6730556,34.0675
belokopytovo,,21,51.6730556,34.0675
belokorovich,,27,51.1166667,28.0333333
belokorovichi,,19,50.9,26.7
belokorovichi,,27,51.1166667,28.0333333
belokriniche,,09,50.1333333,27.1666667
belokrinichny,,08,47.35,33.2
belokrinichnyy,,08,47.35,33.2
belokrinichye,,09,50.1333333,27.1666667
belokrinitsa,,22,49.2833333,25.2166667
belokurakino,,14,49.5363889,38.7033333
belokuzminovka,,05,48.65,37.65
belolessye,,17,45.9,29.7
belolesye,,17,45.9,29.7
belolutskaya,,14,49.6991667,39.0144444
belolutsk,,14,49.6991667,39.0144444
belomezh,,05,47.3833333,37.1666667
belonchenkovka,,18,50.3666667,33.9333333
belopol,,09,50.05,27.1166667
belopol,,15,50.6166667,24.65
belopolje,,21,51.1483333,34.3008333
belopolye,,21,51.1483333,34.3008333
belopolye,,27,49.85,28.8666667
belorechenka,,26,46.65,35.65
belorechenskiy,,14,48.4455556,39.1011111
belorechenskiy,,26,46.65,35.65
belorechitsa,,02,50.6833333,32.0
belosarayka,,05,46.9108333,37.3552778
belosarayskaya kosa,,05,46.9108333,37.3552778
beloserje,,01,49.4833333,31.6166667
beloshanki,,18,50.3833333,32.2
beloshapki,,18,50.3833333,32.2
beloshitskaya,,02,51.9666667,32.3833333
beloshitskaya sloboda,,02,51.9666667,32.3833333
beloshitsy,,27,50.8833333,28.6
beloskelevatoye,,14,48.4488889,39.6527778
beloskelevatyy,,14,48.4488889,39.6527778
belosovitsa,,25,48.8333333,23.0666667
belostadnoye,,11,45.5333333,35.0666667
belostok,,24,50.7,24.9833333
belosvitovka,,14,49.2,38.2166667
belotin,,09,50.25,26.6666667
belotserkovka,,02,51.6833333,31.0
belotserkovka,,08,46.4666667,33.3
belotserkovka,,14,49.4511111,38.2858333
belotserkovka,,18,49.6833333,33.7833333
belotserkovka,,26,47.2333333,36.8166667
belotserkovtsev,,21,51.0655556,34.3175
belotserkovtsy,,18,50.3166667,32.7333333
belouezhi pervuye,,02,51.0333333,32.7833333
belous,,02,51.5333333,31.1833333
belous,,21,52.3008333,33.6730556
beloushovka,,03,48.5333333,27.35
belousov,,07,49.85,35.2666667
belousovka,,01,49.95,32.3833333
belousovka,,03,48.5333333,27.35
belousovka,,16,47.4166667,31.5333333
belousovka,,17,46.8333333,30.35
belousovka,,18,50.3666667,32.9
belousovka,,21,52.3008333,33.6730556
belousovka,,23,48.6333333,28.8833333
belousovka pervaya,,23,48.6333333,28.8833333
belousovka vtoraya,,23,48.6666667,29.1333333
belousovo,,08,47.35,33.2
belovezh,,19,51.3833333,27.4666667
belovezhi pervyye,,02,51.0333333,32.7833333
belovezhi vtoryye,,02,51.0,32.75
belovizh,,19,51.3833333,27.4666667
belovizhskaya,,19,51.3833333,27.4666667
belovka,,10,47.9166667,32.7833333
belovod,,21,50.6666667,33.4666667
belovodsk,,14,49.2044444,39.5811111
belovody,,21,51.1747222,34.9766667
belovske,,19,50.6833333,26.0333333
belovskiy,,26,46.9833333,35.0
belovsky,,26,46.9833333,35.0
belovtse,,03,48.5,26.3666667
belovtsy,,03,48.5,26.3666667
belowodskoje,,14,49.2044444,39.5811111
beloyarovka,,05,47.7975,38.5988889
beloye,,07,49.4880556,37.5697222
beloye,,14,48.4927778,39.0355556
beloye,,19,51.65,26.0166667
beloye,,22,49.6,24.7666667
belozerka,,04,47.9166667,36.1833333
belozerka,,08,46.6252778,32.4441667
belozerka,,22,49.7666667,26.1833333
belozerkowka,,08,46.4666667,33.3
belozerovka,,04,47.9166667,36.1833333
belozerovka,,14,48.5088889,38.9408333
belozerovka,,23,49.2333333,28.8833333
belozerskoye,,05,48.5166667,37.0833333
belozerye,,01,49.3166667,31.9166667
belozoriny,,06,48.5833333,24.5166667
belozorka,,22,49.7666667,26.1833333
belska volya,,19,51.45,25.8166667
belskaya volya,,19,51.45,25.8166667
belsk,,18,50.0841667,34.6380556
belskiy gorodok,,14,49.2763889,38.9058333
beltsevo,,07,49.8,35.4333333
beltsovo,,07,49.8,35.4333333
beltsy,,15,49.4,23.8333333
belukhovka,,18,49.5833333,35.2833333
belyaki,,18,49.5833333,33.4333333
belyakovichi,,16,46.65,31.8166667
belyanka,,14,48.49,38.9611111
belyany,,23,48.6166667,28.0333333
belyary,,17,46.6166667,31.0333333
belyatyche,,19,51.4666667,26.5666667
belyaus,,11,45.3666667,32.9166667
belyavtsy,,19,50.1666667,25.1
belyayevka,,07,49.2344444,36.2830556
belyayevka,,08,46.6166667,34.35
belyayevka,,17,46.4833333,30.2
belyayevka,,26,47.85,36.35
belyayevo,,17,47.6333333,30.5666667
bely bereg,,27,50.75,29.4833333
bely kamen,,23,48.2666667,29.3666667
bely kolodes,,07,50.2075,37.1052778
bely kolodez,,07,50.2075,37.1052778
bely kosh,,11,45.5333333,35.0666667
bely rukav,,23,49.6,28.1
belyy,,07,49.0869444,36.6608333
belyy bereg,,13,50.95,29.9666667
belyy bereg,,27,50.75,29.4833333
belyye oslavy,,06,48.4916667,24.7033333
belyy kamen,,15,49.9,24.8333333
belyy kamen,,23,48.2666667,29.3666667
belyy kolodez,,07,50.2075,37.1052778
belyy kosh,,11,45.5333333,35.0666667
belyy rukav,,23,49.6,28.1
belza,,15,50.3833333,24.0166667
belz,,15,50.3833333,24.0166667
belzec,,15,50.3833333,24.0166667
belzets,,15,49.8833333,24.7833333
bena,,25,48.1666667,22.7666667
benderovka,,02,51.6833333,32.4333333
bendichany,,23,48.6333333,27.8
bendiuhy,,15,50.2,24.2333333
bendyugovka,,13,49.8833333,30.65
bendyukha,,15,50.2,24.2333333
bendzari,,17,47.9277778,29.6680556
bendzary,,17,47.9277778,29.6680556
bene,,25,48.1666667,22.7666667
benevka,,13,51.45,29.9833333
beni,,17,46.1333333,30.2333333
benivka,,13,51.45,29.9833333
benkendorf,,17,46.0166667,30.0666667
benkovka,,17,47.4747222,29.7044444
benkovtse,,06,49.45,24.45
bentyukha,,15,50.2,24.2333333
benziki,,02,51.8,33.2166667
berbeki,,15,50.1333333,24.4666667
berbenitsa,,18,50.45,33.0
berbenitsy,,18,50.45,33.0
berberovka,,17,47.05,30.2833333
berbery,,17,47.05,30.2833333
berbovka,,16,47.8,31.9666667
berchev,,22,48.8,26.05
berdichen,,27,49.9,28.5833333
berdichev,,27,49.9,28.5833333
berdichi,,03,48.1833333,27.65
berdikhino,,10,48.1,31.85
berdikovtsy,,22,48.7,25.7833333
berdinoivan,,21,50.3266667,35.465
berdinoivany,,21,50.3266667,35.465
berdinyivany,,21,50.3266667,35.465
berditschew,,27,49.9,28.5833333
berdjansk,,26,46.7502778,36.7944444
berdo,,22,48.9833333,25.8
berdyanka,,07,49.1,35.45
berdyansk,,26,46.7502778,36.7944444
berdyanske,,26,46.9672222,37.0083333
berdyanskiy,,05,47.0833333,37.7833333
berdyanskiye khutora,,05,47.1,37.45
berdyanskoye,,05,47.1,37.45
berdychiv,,27,49.9,28.5833333
berdykhiv,,15,49.8833333,23.5166667
berdykhov,,15,49.8833333,23.5166667
berdykhuv,,15,49.8833333,23.5166667
berdykovtse,,22,48.7,25.7833333
berdynovo,,17,47.3,30.1666667
berega,,15,49.5833333,23.3
bereg,,09,50.2,25.6666667
beregeli,,09,49.6333333,27.3333333
beregelintsy,,09,49.5833333,27.1666667
beregi,,15,49.5833333,23.3
beregi,,19,50.5,25.55
beregi,,25,48.2333333,22.75
beregkisalmas,,25,48.3666667,22.8666667
beregnagyalmas,,25,48.3833333,22.8666667
beregomet,,03,48.1755556,25.3413889
beregove,,15,49.8,23.3
beregovo,,25,48.2166667,22.65
beregovoye,,08,46.25,32.1166667
beregovoye,,11,44.9,33.6166667
beregovoye,,15,49.8,23.3
beregszasz,,25,48.2166667,22.65
beregszollos,,25,48.5,22.6666667
berehomet,,03,48.1755556,25.3413889
berehove,,11,44.9,33.6166667
berehove,,15,49.8,23.3
berehove,,25,48.2166667,22.65
berehovo,,25,48.2166667,22.65
berejani,,22,49.45,24.9333333
bereka,,07,49.4127778,36.1772222
berekhovo,,25,48.2166667,22.65
beremovtse,,22,49.7166667,25.2
beremyany,,22,48.8833333,25.4333333
beresan,,13,50.3166667,31.4666667
beresciany,,19,50.9666667,25.8833333
berescie,,19,51.5333333,26.55
beresk,,24,50.8833333,24.9
beresko,,24,50.8833333,24.9
bereslavka,,10,47.9,32.3
beresna,,02,51.5666667,31.7833333
beresovka,,17,47.2166667,30.9166667
beresowka,,10,48.75,33.1
beresowka,,17,47.2166667,30.9166667
berestechko,,19,50.35,25.1166667
beresteczko,,19,50.35,25.1166667
beresteczo,,19,50.35,25.1166667
berestek,,22,48.7833333,25.7166667
berestok,,22,48.7833333,25.7166667
berestova,,07,48.7333333,36.6
berestovaya,,05,48.7563889,38.2452778
berestovaya,,07,49.5427778,37.8916667
berestovaya,,26,47.9833333,35.55
berestovenka,,07,49.4833333,35.5833333
berestovets,,02,51.25,32.2166667
berestovets,,19,50.8666667,26.3
berestovets,,27,51.0166667,28.8666667
berestovka,,21,50.6333333,33.85
berestovka,,23,49.2333333,28.9666667
berestovo,,07,49.5766667,36.1411111
berestovoy,,05,47.7166667,38.0902778
berestovoye,,05,48.2397222,38.0294444
berestovoye,,07,49.5427778,37.8916667
berestovoye,,26,47.15,36.8
berestovyy,,07,48.7333333,36.6
berestovyy nomer odin,,05,48.5,37.5166667
berestowiec,,19,50.8666667,26.3
berestsany,,19,50.9666667,25.8833333
berestya,,03,48.3333333,26.3666667
berestyanka,,07,49.2336111,36.8647222
berestyanka,,13,50.6833333,29.9833333
berestyano,,19,50.9666667,25.8833333
berestyanoye,,19,50.9666667,25.8833333
berestyanskiy,,05,47.8230556,38.2244444
berestyany,,15,49.6,23.0833333
berestyany,,19,50.9666667,25.8833333
berestye,,19,51.5333333,26.55
beretskiy,,07,49.2072222,36.5586111
bereza,,21,51.7333333,33.8666667
bereza,,24,51.85,24.5
berezan,,13,50.3166667,31.4666667
berezan,,17,46.5666667,30.4333333
berezanka,,02,51.1,31.9833333
berezanka,,13,50.3833333,31.7
berezanka,,16,46.8666667,31.4
berezanka,,22,48.8166667,26.2333333
berezanovka,,04,48.5666667,34.9166667
berezce,,15,51.1666667,23.8666667
berezce,,22,50.1,25.6166667
berezdov,,09,50.4666667,27.1166667
berezdovtsy,,15,49.45,24.15
berezen,,17,46.5666667,30.4333333
berezets,,15,49.6,23.6833333
berezhanka,,09,48.9833333,26.35
berezhanka,,22,48.8166667,26.2333333
berezhanka,,24,50.6,24.9833333
berezhany,,22,49.45,24.9333333
berezhek,,25,49.25,22.85
berezhinka,,10,48.4833333,32.3666667
berezhintsy,,09,49.9166667,26.5166667
berezhki,,19,51.5166667,26.6166667
berezhna volya,,19,51.7666667,25.6166667
berezhnaya volya,,19,51.7666667,25.6166667
berezhnitsa,,03,48.2833333,25.3666667
berezhnitsa,,06,48.2166667,24.8
berezhnitsa,,15,49.2,23.9166667
berezhnitsa,,19,51.4333333,26.4666667
berezhnitsashlyakhetska,,15,49.4666667,23.1166667
berezhnitsya,,15,49.4666667,23.1166667
berezhnitsya persha,,15,49.4666667,23.1166667
berezhnitsy,,19,51.4333333,26.4666667
berezhnovka,,18,49.2166667,34.1
berezhnoy,,07,50.1725,36.1247222
berezhnoy,,21,51.25,33.5666667
berezhnoye,,21,51.25,33.5666667
berezhnytsya,,06,49.3333333,24.1833333
berezhnytsya,,15,49.4666667,23.1166667
berezhok,,25,49.25,22.85
berezhovka,,02,50.8166667,32.75
berezhtse,,22,50.1,25.6166667
berezhtsy,,15,51.1666667,23.8666667
berezhtsy,,22,50.1,25.6166667
bereziche,,19,51.7,25.45
berezichi,,19,51.7,25.45
berezina,,06,48.7333333,24.7166667
berezina,,13,51.0666667,29.95
berezina,,15,49.4333333,24.0666667
berezina,,17,46.2294444,29.2022222
berezina,,19,51.4333333,25.7
berezina,,27,50.75,29.1166667
berezinets,,15,49.2166667,23.1166667
berezino,,15,50.1166667,23.6
berezino,,17,46.2294444,29.2022222
berezitsy,,27,50.5,29.3166667
berezivka,,07,49.45,35.7
berezivka,,10,48.6011111,31.2783333
berezivka,,17,47.2166667,30.9166667
berezivka,,18,49.9166667,33.2
berezka,,19,51.65,25.4833333
berezki,,07,50.1969444,37.3911111
berezki,,10,48.4166667,29.7333333
berezki,,16,47.9,30.55
berezki,,17,48.1333333,29.6333333
berezki,,19,51.5166667,26.6166667
berezkichechelnitskiye,,17,48.1333333,29.6333333
berezna,,02,51.5666667,31.7833333
berezna,,09,50.05,27.4333333
berezna,,13,49.5666667,29.9
berezna,,23,49.5666667,27.85
berezna tatarskaya,,09,50.1,27.1833333
berezne,,19,51.0,26.75
bereznegovata,,04,48.2666667,34.4333333
bereznegovata,,16,47.3,32.85
bereznegovataya,,16,47.3,32.85
bereznegovatovka,,04,48.2666667,34.4333333
bereznegovatoye,,16,47.3,32.85
bereznegovatskoye,,16,47.75,32.2666667
bereznehuvate,,16,47.3,32.85
bereznica,,19,51.4333333,26.4666667
bereznik,,25,48.5088889,23.2244444
berezniki,,07,50.13,36.87
berezniki,,27,50.8666667,27.4833333
bereznitsa,,03,48.2833333,25.3666667
bereznitsa,,06,48.2166667,24.8
bereznitsa,,15,49.4666667,23.1166667
bereznitsa,,24,51.3666667,25.2
bereznitsa krulevska,,06,49.3333333,24.1833333
berezno,,13,49.5666667,29.9
berezno,,19,51.0,26.75
bereznoye,,09,49.8833333,27.0166667
bereznyak,,07,50.2591667,37.5908333
bereznyaki,,01,49.1333333,31.9666667
bereznyaki,,18,49.45,33.8333333
bereznyanets,,15,49.2166667,23.1166667
bereznyky,,25,48.5088889,23.2244444
berezolupy,,24,50.9,25.05
berezotocha,,18,50.0666667,33.1333333
berezova,,07,49.6255556,37.4694444
berezovatka,,14,49.8,38.3166667
berezovaya gat,,02,51.95,32.9166667
berezovaya luka,,18,50.2666667,33.7333333
berezovaya rudka,,18,50.3166667,32.2166667
berezov,,07,49.6255556,37.4694444
berezov,,19,51.5833333,27.35
berezov,,21,50.4125,34.4177778
berezove,,25,48.3,23.4825
berezovets,,06,48.5833333,24.6666667
berezov grud,,27,51.0,28.3666667
berezovichi,,15,50.7833333,24.5833333
berezovitsa,,06,48.9833333,24.75
berezovitsa,,22,49.7666667,25.5666667
berezovitsa mala,,22,49.7666667,25.5666667
berezovitsavelka,,22,49.5,25.6166667
berezovka,,02,50.7166667,32.9833333
berezovka,,04,47.8666667,36.4833333
berezovka,,07,49.45,35.7
berezovka,,09,49.35,27.2
berezovka,,10,47.9833333,32.0166667
berezovka,,11,45.5833333,33.3333333
berezovka,,13,49.95,31.05
berezovka,,14,48.6680556,38.6094444
berezovka,,15,49.5166667,22.9
berezovka,,16,47.8166667,32.4666667
berezovka,,17,47.2166667,30.9166667
berezovka,,18,49.7166667,34.7
berezovka,,19,50.2666667,24.9166667
berezovka,,21,50.4161111,35.1630556
berezovka,,22,49.0833333,25.1833333
berezovka,,23,48.6,28.1333333
berezovka,,27,49.7833333,27.85
berezovo,,07,49.8833333,34.9333333
berezovo,,14,49.25,40.0094444
berezovo,,19,51.5833333,27.35
berezovo,,23,48.65,27.4166667
berezovo,,25,48.3,23.4825
berezovoyarsk,,14,49.2527778,40.1408333
berezovoye,,04,47.8666667,36.4833333
berezovoye,,07,49.8772222,36.1444444
berezovoye,,14,49.3977778,39.1419444
berezovskaya banya,,06,48.4166667,24.75
berezovskiy,,05,47.8313889,38.0038889
berezovskoye,,14,48.6680556,38.6094444
berezovychi,,15,50.7833333,24.5833333
berezovyy,,07,49.6255556,37.4694444
berezovyy,,14,48.0091667,39.5352778
berezovyy grud,,27,51.0,28.3666667
berezow,,19,51.5833333,27.35
berezskij brod,,25,48.35,23.0166667
bereztsy,,27,50.5,29.3166667
berezuv,,15,49.5166667,22.9
berezuv,,19,51.5833333,27.35
berezuvka,,22,49.0833333,25.1833333
berezuv nizhny,,06,48.4,24.85
berezuv vyzhny,,06,48.4166667,24.8166667
berezyanka,,27,49.7,29.4666667
berezyne,,17,46.2294444,29.2022222
bergomet,,03,48.1755556,25.3413889
bergometka,,03,48.3666667,25.7
berhomet,,03,48.1755556,25.3413889
berhomete pe siret,,03,48.1755556,25.3413889
berilovka,,02,52.0722222,31.7397222
berimovtsy,,22,49.7166667,25.2
berislav,,08,46.8366667,33.4236111
berislavskiy,,10,47.9,32.3
berisslaw,,08,46.8366667,33.4236111
berkhomet,,03,48.1755556,25.3413889
berkhometpesiret,,03,48.1755556,25.3413889
berkhomitka,,03,48.3666667,25.7
berkovets,,13,50.5,30.3666667
berkovka,,27,50.75,29.1166667
berlebash,,25,47.9952778,24.2019444
berlin,,19,50.1333333,25.0833333
berlintsy,,23,48.8333333,27.7
berlintsy lesovyye,,23,48.8333333,27.7
berlintsy polevyye,,23,48.8333333,27.7
berloby,,06,48.9666667,24.25
berlogi,,06,48.9666667,24.25
berlogy,,06,48.9666667,24.25
berlyatka,,23,48.8166667,27.7833333
bermeshuv,,15,50.7,24.5166667
bermeszow,,15,50.7,24.5166667
bernardovka,,17,47.2333333,30.7666667
bernashivka,,03,48.5666667,27.4666667
bernatskaya,,17,47.8,30.3333333
bernova,,03,48.5,26.6666667
berozhtse,,15,51.1666667,23.8666667
berschad,,23,48.3666667,29.5166667
bershad,,23,48.3666667,29.5166667
bershchev,,22,48.8,26.05
bert,,05,47.3166667,37.95
berteshuv,,06,49.5333333,24.3333333
bertniki,,13,50.0,29.9
bertov,,05,47.3166667,37.95
bervinki,,06,48.5166667,24.25
bervinkova,,03,48.1166667,25.0166667
berxohy,,06,48.9666667,24.25
berylivka,,02,52.0722222,31.7397222
berymivtsi,,22,49.7166667,25.2
beryslav,,08,46.8366667,33.4236111
beryukh,,21,51.4266667,34.0072222
berzniki,,27,50.8666667,27.4833333
beschastnoye,,11,45.9333333,33.9
besedka,,01,49.3166667,30.2833333
besedki,,09,50.5,27.1166667
besedovka,,14,49.25,38.9
besedovka,,26,46.9,35.9
besharan,,11,45.45,34.7666667
besharanotar,,11,45.1666667,34.2166667
beshboyeraki,,10,48.1333333,31.75
beshevliilyak,,11,45.3666667,33.95
beshkhodzha,,11,45.45,34.9833333
beshkurtka,,11,45.3666667,34.7333333
beshkurtkavakuf,,11,45.3666667,34.7333333
beshtankov,,17,48.1166667,28.9833333
beshtarem,,11,45.1594444,36.2597222
beshtarym,,11,45.1594444,36.2597222
besh terek,,11,45.0166667,34.2333333
beshuy,,11,44.7833333,34.1
beshuyskiy,,11,44.65,34.1833333
beshuyskiye kopi,,11,44.65,34.1833333
besovka,,09,49.9666667,26.5666667
bespalovka,,07,49.6277778,36.2308333
bespavlovskiy,,05,47.7666667,38.55
bespechna,,13,49.8,29.75
bespechna,,23,49.7833333,28.0333333
bessaly,,18,50.3666667,33.15
bessarabka,,16,46.7333333,31.2333333
bessarabka,,17,47.1594444,29.8672222
bessarabovka,,07,49.25,35.8166667
bessokirnyy,,21,51.0733333,34.3483333
besternichany,,17,47.7180556,29.5408333
besternychany,,17,47.7180556,29.5408333
besyadka,,19,51.3166667,27.0833333
betsa,,17,46.8333333,31.0166667
betsilivka,,17,46.8666667,30.25
betsilivskiy,,17,46.8666667,30.2833333
betsilovo,,17,46.8666667,30.25
beyeva,,21,50.65,33.9833333
beyevo,,21,50.65,33.9833333
beyevoye,,26,47.0666667,36.0833333
beykush,,16,46.6333333,31.5166667
bezbrudy,,15,49.9166667,24.55
bezdrik,,21,50.8702778,34.9505556
bezginovo,,14,48.9227778,39.01
bezhbayraki,,10,48.1333333,31.75
bezhev,,27,50.4833333,28.8
bezhevka,,21,51.0,33.7666667
bezhovka,,21,51.0,33.7666667
bezhuysk,,11,44.7833333,34.1
bezimenca de sus,,17,45.9,30.0166667
bezimenne,,05,47.1,37.9333333
bezimennoye,,05,47.1,37.9333333
bezlesnoye,,11,45.3,33.6833333
bezlyudivka,,07,49.8763889,36.2755556
bezlyudovka,,07,49.8763889,36.2755556
bezmyatezhnoye,,07,49.5613889,37.3175
bezniki,,02,51.8,33.2166667
beznoskovtsy,,09,48.7166667,26.7166667
bezodnya,,21,50.8738889,34.2091667
bezpalche,,01,49.95,31.9333333
bezpaltsevo,,07,49.0052778,36.7119444
bezpavlovskiy,,05,47.7666667,38.55
bezradichi,,13,50.1666667,30.6
bezrodnoye,,10,48.0666667,31.6333333
bezruchki,,18,49.8666667,34.1333333
bezruchkov,,18,49.8666667,34.1333333
bezruki,,07,50.1877778,36.0788889
bezrukov,,07,50.0166667,35.8333333
bezrukovka,,07,50.1877778,36.0788889
bezsalovka,,21,51.2702778,34.3813889
bezsaly,,18,50.3666667,33.15
bezspornaya,,10,48.1666667,32.7166667
bezuglovka,,02,51.9833333,31.9166667
bezuglovka,,13,50.4166667,31.75
bezuglyaki,,13,49.8166667,29.95
bezuvarovo,,16,47.3666667,31.4333333
bezvodnaya,,07,49.1,35.45
bezvodnoye,,11,45.0833333,35.8833333
bezvodny,,08,47.1666667,33.2833333
bezvodny,,16,46.8833333,31.75
bezvodnyy,,08,47.1666667,33.2833333
bezvodnyy,,16,46.8833333,31.75
bezvodnyy yar,,07,49.8977778,37.2780556
bezymchamare,,17,45.9,30.0166667
bezymennoye,,05,47.1,37.9333333
bezymennoye,,23,49.7,28.55
bezymenovka,,05,47.1,37.9333333
bezymovka,,27,49.9666667,28.1666667
bezymyanka,,17,45.9,30.0166667
bezymyanka pervaya,,17,45.9,30.0166667
bezymyannoye,,23,49.7,28.55
bezzabotovka,,07,48.6833333,37.0333333
bezzaponnyy,,05,47.3047222,38.2208333
biala,,19,51.65,26.0166667
biala,,22,49.0333333,25.7666667
bialoboznica,,22,49.05,25.6666667
bialohorszcze,,09,49.85,23.9333333
bialokrynica,,22,50.15,25.75
bialopole,,15,50.6166667,24.65
bialostok,,24,50.7,24.9833333
bialowiz,,19,51.3833333,27.4666667
bialozorka,,22,49.7666667,26.1833333
bialy,,15,50.0833333,24.05
bialy kamien,,15,49.9,24.8333333
bibshchany,,22,49.6333333,24.9
bichal,,19,50.8833333,26.1166667
bicheva,,18,49.3666667,34.0833333
bichevaya,,18,49.3666667,34.0833333
bichova,,27,49.75,27.7833333
bidintsy,,06,48.8166667,25.5166667
bidun,,15,50.1,23.5666667
bidyntse,,06,48.8166667,25.5166667
bielczaki,,27,50.8,27.15
bielin,,15,50.9333333,24.2666667
bielovtsy,,03,48.5,26.3666667
bielowce,,03,48.5,26.3666667
bielska wola,,19,51.45,25.8166667
bigma,,26,48.1,35.5
bijukborasch,,11,45.3,33.6833333
bijuk onlar,,11,45.2833333,34.1333333
bikech,,11,45.1747222,36.1261111
bikholtsokhovtsy,,02,51.7,31.0166667
bila,,03,48.3166667,25.8833333
bila,,22,49.0333333,25.7666667
bila,,23,49.3833333,28.9166667
bila krynytsya,,03,47.9766667,25.885
bila krynytsya,,27,50.65,29.4666667
bila richka,,06,47.9644444,24.9147222
bilashiv,,24,51.1166667,24.7166667
bilashov,,24,51.1166667,24.7166667
bilasovitsy,,25,48.8333333,23.0666667
bilasovytsya,,25,48.8333333,23.0666667
bila tisa,,25,48.0416667,24.3605556
bila tserkva,,13,49.7833333,30.1166667
bilcha,,22,48.775,25.8727778
bilche,,15,49.4,23.8333333
bilche,,19,50.5333333,25.3
bilche,,22,48.775,25.8727778
bilchezolote,,22,48.775,25.8727778
bilchezolotoye,,22,48.775,25.8727778
bilcze,,19,50.5333333,25.3
bilcze,,22,48.775,25.8727778
bile,,22,49.6,24.7666667
bilenchenkovka,,18,50.3666667,33.9333333
bilenke,,26,47.6275,35.0338889
bilhoroddnistrovskyy,,17,46.2,30.35
bilich,,15,49.4333333,22.8833333
biliche,,15,50.65,24.2666667
biliche,,24,51.25,24.3333333
bilichi,,15,49.4333333,22.8833333
bilichin,,09,48.95,27.5
bilicz,,15,49.4333333,22.8833333
bilicze,,15,50.65,24.2666667
bilina velikaya,,15,49.5333333,23.4666667
bilina velka,,15,49.5333333,23.4666667
bili oslavy,,06,48.4916667,24.7033333
bilka,,06,48.7666667,25.5333333
bilka,,09,49.2666667,26.25
bilka,,15,49.6,24.6166667
bilka,,27,50.4166667,27.9666667
bilka krulevska,,15,49.85,24.2833333
bilka shlyakhetska,,15,49.8166667,24.3
bilki,,23,48.95,29.3
bilki,,25,48.3166667,23.1333333
bilkovtsy,,27,50.3666667,28.9666667
bilky,,25,48.3166667,23.1333333
bilmachevka,,02,51.0,32.5666667
bilogolovy,,22,49.7666667,25.3333333
bilogorshche,,09,49.85,23.9333333
bilohirka,,06,48.8833333,25.0833333
bilohirsk,,11,45.05,34.6
"bilohir""ya",,09,49.85,23.9333333
bilohirya,,26,47.5183333,36.0002778
bilohorszcze,,09,49.85,23.9333333
bilokrynytsya,,22,49.2833333,25.2166667
bilokurakyne,,14,49.5363889,38.7033333
bilolutsk,,14,49.6991667,39.0144444
bilopillya,,21,51.1483333,34.3008333
bilopillya,,27,49.85,28.8666667
bilosarayska kosa,,05,46.9108333,37.3552778
bilousivka,,17,47.9833333,30.0166667
bilousovka,,18,50.3666667,32.9
bilovodsk,,14,49.2044444,39.5811111
bilovody,,21,51.1747222,34.9766667
biloyarivka,,05,47.7975,38.5988889
bilozerka,,08,46.6252778,32.4441667
bilozoryny,,06,48.5833333,24.5166667
bilyaki,,18,49.5833333,33.4333333
bilyayivka,,17,46.4833333,30.2
bilychi,,15,49.6166667,23.0333333
bilyne,,17,47.8752778,29.6227778
bilytsya,,21,52.0072222,33.7672222
bilyy kolodyaz,,07,50.2075,37.1052778
bilyy potik,,25,47.9347222,24.1691667
bindyuga,,15,51.0833333,23.9166667
biokuzenbash,,11,44.5666667,34.0666667
birilovka,,21,50.9944444,35.0616667
birin,,02,52.0825,33.3802778
birino,,02,52.0825,33.3802778
birjukowo,,14,47.95,39.7333333
birki,,17,47.6666667,30.15
birki,,18,49.6333333,33.8166667
birki pervyye,,10,48.9469444,32.3130556
birki vtoryye,,10,48.9333333,32.2666667
birkovskiy,,27,51.4833333,29.0166667
birky,,10,48.9469444,32.3130556
birky,,15,49.9166667,23.9166667
birky,,24,51.6833333,24.8166667
birlova sloboda,,01,50.0833333,32.0666667
birlovka,,01,50.0833333,32.0666667
birlovka sloboda,,01,50.0833333,32.0666667
birnosove,,17,47.4661111,29.8116667
birnosovo,,17,47.4661111,29.8116667
birnosovo pervoye,,17,47.4661111,29.8116667
biryuchiy,,14,47.8658333,39.2341667
biryuki,,05,47.8647222,38.0822222
biryuki,,13,49.7333333,30.2833333
biryukov,,05,47.8647222,38.0822222
biryukove,,14,47.9577778,39.7366667
biryukovka,,14,47.9577778,39.7366667
biryukovo,,14,47.9577778,39.7366667
birzula,,17,47.75,29.5330556
bishche,,22,49.55,24.9
bishkin,,21,50.6291667,34.6197222
bishkiv,,15,50.1833333,23.8666667
bishkuv,,15,50.1833333,23.8666667
biskipka,,23,49.15,28.3166667
biskiu,,03,48.0833333,25.1333333
biskov,,03,48.0833333,25.1333333
biskovichi,,15,49.5333333,23.2
biskovitse,,15,49.5333333,23.2
biskupiche,,15,50.75,24.5166667
biskupiche,,24,50.6,24.9833333
biskupiche ruske,,15,50.75,24.5166667
biskupichi russkiye,,15,50.75,24.5166667
biskupicze ruskie,,15,50.75,24.5166667
bisovka,,09,49.9666667,26.5666667
bisovochka,,09,49.9666667,26.6
bistri,,25,49.0166667,22.7666667
bistrikuv,,25,48.3833333,24.0166667
bisyut,,11,45.4166667,34.95
bitak,,11,44.95,34.15
bititsa,,21,51.0125,34.9444444
bitkov,,06,48.6325,24.4580556
bitkuv,,06,48.6325,24.4580556
bitlya,,25,48.9666667,22.9666667
biyasala,,11,44.7,33.9833333
biybolush,,11,45.8,33.9666667
biybuzav,,11,45.5,33.7
biyeli,,11,44.8666667,33.8166667
biyevtsi,,18,50.15,32.9
biyevtsy,,13,49.5,31.0
biyevtsy,,18,50.15,32.9
biyevtsy,,23,49.0166667,28.9833333
biyorlyuk,,11,45.6666667,33.35
biysu kayzera,,11,45.6833333,34.2666667
biysukovcha,,11,45.6833333,34.2666667
biyu burish,,11,45.6666667,33.9
biyukaktachi,,11,45.2166667,33.6166667
biyukalkaly,,08,45.85,34.4
biyukass,,11,45.7166667,33.55
biyukbarash,,11,45.3,33.6833333
biyukborach,,11,45.3,33.6833333
biyukhuskomya,,20,44.4833333,33.7833333
biyukkaban,,11,45.45,33.7
biyukkaralez,,20,44.65,33.7833333
biyukkardzhav,,11,45.55,34.1666667
biyukkenegez,,11,45.35,33.0833333
biyukkiyat,,11,46.0333333,34.05
biyukkonrat,,11,45.5833333,33.9333333
biyuklambat,,11,44.6166667,34.3666667
biyukmuskomya,,20,44.4833333,33.7833333
biyuknayman,,08,46.0166667,34.35
biyukonlar,,11,45.2833333,34.1333333
biyukotar,,11,45.2833333,34.1333333
biyuksunak,,08,45.8833333,34.3833333
biyuksunik,,08,45.8833333,34.3833333
biyuksyuren,,20,44.65,33.8166667
biyuktoksaba,,11,45.2666667,33.8
biyukuzenbash,,11,44.5666667,34.0666667
biyukyankoy,,11,44.8166667,34.25
biyukyashlav,,11,44.8333333,33.8333333
bizhevka,,21,51.0,33.7666667
blagodat,,05,47.7116667,38.2827778
blagodat,,07,48.5833333,37.1166667
blagodatnaja,,07,49.6333333,36.645
blagodatnaya,,04,48.1166667,34.2
blagodatnaya,,07,49.6333333,36.645
blagodatnoye,,04,48.5666667,35.9833333
blagodatnoye,,05,47.7,37.4166667
blagodatnoye,,07,48.65,36.2666667
blagodatnoye,,08,46.6211111,34.4191667
blagodatnoye,,16,46.9666667,31.3333333
blagodatnoye,,17,45.9833333,30.1833333
blagodatny,,08,47.0,34.0333333
blagodatny,,26,47.9166667,36.1166667
blagodatnyy,,04,48.4333333,35.4166667
blagodatnyy,,05,47.9741667,38.2169444
blagodatnyy,,07,49.0833333,36.6880556
blagodatnyy,,08,47.0,34.0333333
blagodatnyy,,14,49.5908333,40.0583333
blagodatnyy,,26,47.9166667,36.1166667
blagoveshchanka,,26,47.2833333,36.7833333
blagoveshchenka,,05,47.6833333,37.3833333
blagoveshchenka,,07,49.0483333,36.4491667
blagoveshchenka,,08,46.3,34.25
blagoveshchenka,,17,47.4666667,30.7166667
blagoveshchenka,,26,47.2833333,36.7833333
blagoveshchenskiy,,05,47.6833333,37.3833333
blagoveshchenskiy,,07,49.0483333,36.4491667
blagoveshchenskiy,,26,47.8666667,35.55
blagoveshchenskoye,,26,47.4525,34.8363889
blagovishchenka,,26,47.4525,34.8363889
blagovka,,14,47.9627778,39.355
blagoyevo,,17,46.7666667,30.8
blahivka,,14,47.9627778,39.355
blahodatne,,05,47.8822222,38.4830556
blahodatne,,08,46.6211111,34.4191667
blahodatne,,16,47.9833333,31.15
blahodatne,,17,46.2555556,29.6455556
blakitnaya,,08,47.4333333,33.3666667
blakitnoye,,08,47.4333333,33.3666667
blatovka,,15,49.5166667,23.8333333
blazhenik,,15,50.9833333,24.3833333
blazhennik,,15,50.9833333,24.3833333
blazhev,,15,49.4333333,23.1666667
blazhiv,,15,49.4333333,23.1666667
blazhiyevka,,23,49.6166667,28.9666667
blazhnivka,,23,49.6166667,28.9666667
blazhov,,15,49.4333333,23.1666667
blazhov nizhniy,,15,49.4333333,23.1666667
blazhovo,,19,51.4333333,27.35
blazhov verkhniy,,15,49.4333333,23.1666667
blazodatnoye,,16,47.9833333,31.15
bleshchanovka,,09,48.7666667,26.8
bleshnya,,02,52.1275,32.3436111
blezhovo,,19,51.4333333,27.35
blidcha,,13,50.8333333,29.8
blikh,,22,49.8,25.4333333
blishchanka,,22,48.7333333,25.8
blisnezy,,07,48.8666667,36.55
blistava,,02,51.8833333,32.9166667
blistavo,,02,51.8833333,32.9166667
blistova,,02,51.4166667,31.9166667
blistovaya,,02,51.8833333,32.9166667
blistovo,,02,51.4166667,31.9166667
blitcha,,13,50.8333333,29.8
blizhnegorodskoye,,11,45.6333333,34.3833333
blizhnekushnerova,,17,47.3833333,30.5666667
blizhneye,,11,45.05,35.3333333
blizhniy beykush,,16,46.6333333,31.5166667
blizhniye kamyshi,,11,45.0833333,35.4
blizhniye makarty,,05,46.8216667,36.8927778
blizhnyaya baybuga,,11,45.05,35.3333333
blizhnyaya dyleyevka,,05,48.45,37.9
blizhnyaya kamyshi,,11,45.0833333,35.4
bliznetsy,,07,48.8666667,36.55
bliznitsa,,19,51.9,25.3833333
blizniy beykush,,16,46.6333333,31.5166667
bliznyuki,,07,48.8666667,36.55
blone,,15,50.0333333,23.3333333
blonie,,15,50.0333333,23.3333333
blonskoye,,17,46.8666667,30.45
bloshchentsy,,13,49.7833333,30.3333333
bloshintsy,,13,49.7833333,30.3333333
blotnitsa,,02,50.8166667,32.9333333
blotnya,,22,49.55,24.6833333
bludiv,,15,50.6166667,24.9166667
bludiv,,19,50.6333333,26.8166667
bludniki,,06,49.1166667,24.6333333
bludov,,15,50.6166667,24.9166667
bludov,,19,50.6333333,26.8166667
bluduv,,15,50.6166667,24.9166667
bluduv,,19,50.6333333,26.8166667
blyatuvka,,15,49.5166667,23.8333333
blyshchanka,,22,48.7333333,25.8
blyshchivody,,15,50.05,24.0666667
blyshchyvody,,15,50.05,24.0666667
blyszczywody,,15,50.05,24.0666667
blyudniki,,06,49.1166667,24.6333333
blyudnyky,,06,49.1166667,24.6333333
blyumenfeld,,16,46.8666667,31.25
blyumenort,,26,47.0666667,35.6
blyumental,,26,47.4333333,35.7333333
blyumental nomer devyatnadtsatyy,,05,47.5833333,37.0333333
blyumshteyn,,26,47.0666667,35.5
blyznyuky,,07,48.8666667,36.55
bobchintsy,,23,48.3833333,28.15
bobek,,06,48.8333333,24.4666667
bober,,13,51.15,29.55
boberka,,25,49.2,22.7833333
bobeshti,,03,48.265,25.6983333
bobiatyn,,15,50.5,24.4333333
bobivtsi,,03,48.265,25.6983333
bobly,,24,51.0,24.4833333
bobok,,06,48.8333333,24.4666667
bobove,,25,48.0666667,22.8833333
bobovishche,,25,48.55,22.6666667
bobovo,,25,48.0666667,22.8833333
bobovoye,,25,48.0666667,22.8833333
bobovtsy,,03,48.265,25.6983333
bobovyshche,,25,48.55,22.6666667
bobr,,13,51.15,29.55
bobrichi,,27,51.15,28.2333333
bobrik,,02,51.9166667,32.7333333
bobrik,,13,51.2,29.6
bobrik,,17,47.9,30.1833333
bobrik,,18,50.4138889,34.2475
bobrik,,21,50.4294444,34.3658333
bobrik,,27,50.05,28.5
bobrikovka,,14,48.1366667,39.7227778
bobrikovo,,14,47.9325,39.2261111
bobrikowo,,14,47.9325,39.2261111
bobrik pervyy,,02,51.9166667,32.7333333
bobrik pervyy,,17,47.9166667,30.1833333
bobrik vtoroy,,17,47.8833333,30.15
bobrinets,,10,48.0541667,32.1652778
bobrinez,,10,48.0541667,32.1652778
bobrinka,,10,48.0,31.9833333
bobritsa,,13,49.8,31.4166667
bobritsa,,27,50.6833333,28.1333333
bobrka,,15,49.6333333,24.3
bobrovaya,,07,48.9666667,37.1666667
bobrovaya,,14,48.8119444,38.6430556
bobrov,,07,50.055,36.395
bobrov,,21,50.4925,34.3372222
bobrovisty,,02,50.75,31.3833333
bobrovitsa,,02,50.75,31.3833333
bobrovitsy,,02,50.75,31.3833333
bobrovnik,,18,50.2297222,34.3027778
bobrovniki,,06,49.0,25.05
bobrovo,,14,48.8119444,38.6430556
bobrovo,,21,50.4925,34.3372222
bobrovy kut,,16,47.1,32.95
bobrovytsya,,02,50.75,31.3833333
bobrovyy kut,,16,47.1,32.95
bobroydy,,15,50.15,23.85
bobry,,16,47.4333333,32.0
bobrykove,,14,47.9325,39.2261111
bobrynets,,10,48.0541667,32.1652778
bobshchany,,22,49.6333333,24.9
bobulintsy,,22,49.1666667,25.3333333
bobulyntsi,,22,49.1666667,25.3333333
bobyanskoye,,11,44.65,34.3666667
bobyatin,,15,50.5,24.4333333
bobyatyn,,15,50.5,24.4333333
bochala,,11,45.2,34.4666667
bochanitsa,,19,50.5333333,26.7
bochany,,26,47.6666667,36.3
bochechki,,21,51.3,33.4166667
bochikauts,,03,48.45,26.15
bochki,,18,49.8166667,33.15
bochkovo,,07,50.3233333,37.1408333
bochkuv,,25,47.9758333,24.0186111
bochmanivka,,17,47.6577778,29.5630556
bochmanovka,,17,47.6577778,29.5630556
bockov velke,,25,47.9758333,24.0186111
bodaki,,22,49.8833333,25.8166667
bodakva,,18,50.3,33.4166667
bodaky,,22,49.8833333,25.8166667
bodnariv,,06,49.0333333,24.55
bodnarov,,06,49.0333333,24.55
bododukhov,,07,50.1608333,35.5163889
bodoliv,,25,48.1,22.6333333
bodolov,,25,48.1,22.6333333
bodraktavricheskiy,,11,44.8166667,33.9666667
bodzyachuv,,15,50.4666667,24.5666667
bofova,,15,50.1166667,23.9666667
bogachevka,,01,49.05,31.1
bogachevka,,16,47.9666667,30.55
bogachevo,,17,47.1375,29.8005556
bogachka,,14,49.9797222,38.3666667
bogachka,,18,49.7,33.6166667
bogachka pervaya,,18,49.7,33.6166667
bogataya cherneshchina,,07,48.9833333,35.5833333
bogataya chernetchina,,07,48.9833333,35.5833333
bogataya chernetshchina,,07,48.9833333,35.5833333
bogatkovtsy,,22,49.4,25.3666667
bogatovka,,11,44.8666667,35.0666667
bogatovka nomer devyatyy,,26,47.3833333,36.95
bogatoye,,07,48.9666667,35.5333333
bogatoye,,11,45.0333333,34.7666667
bogatoye,,17,45.4,28.9333333
bogatoye ushchelye,,11,44.55,33.8833333
bogatyr,,05,47.9833333,36.9333333
bogatyr,,11,44.5833333,34.0166667
bogatyrev,,26,47.9333333,35.2
bogatyrka,,01,49.45,30.1333333
bogay,,11,45.2666667,33.3666667
bogdalayevka,,02,51.8333333,32.5
bogdan,,25,48.0416667,24.3605556
bogdanhajdeu,,17,46.35,29.2838889
bogdanivskiy,,16,47.7,31.1
bogdanov,,02,52.305,33.2152778
bogdanov,,09,50.5666667,27.05
bogdanov,,26,47.8833333,35.4833333
bogdanoverbki,,04,48.5,36.35
bogdanoverbskiy,,04,48.5,36.35
bogdanovichi,,18,50.25,32.3833333
bogdanovka,,02,51.9,33.3333333
bogdanovka,,04,48.2666667,34.7833333
bogdanovka,,05,47.4855556,38.0525
bogdanovka,,07,48.8,36.8166667
bogdanovka,,08,46.3166667,33.1166667
bogdanovka,,09,49.6666667,26.4833333
bogdanovka,,10,48.3333333,31.7166667
bogdanovka,,13,50.2166667,32.0
bogdanovka,,14,48.6169444,38.7308333
bogdanovka,,16,47.2,32.2333333
bogdanovka,,17,46.35,29.2838889
bogdanovka,,18,49.3333333,34.5833333
bogdanovka,,22,48.6166667,25.95
bogdanovka,,23,49.3,29.2
bogdanovka,,26,46.7333333,35.9
bogdanovka,,27,51.2833333,28.9666667
bogdanovka vtoraya,,08,47.0,34.55
bogdanovo,,07,48.8,36.8166667
bogdanovo,,14,49.0394444,39.4833333
bogdanovo pervoye,,17,47.2638889,29.8344444
bogdanovo vtoroye,,17,47.2491667,29.8713889
bogdanovskiy,,04,47.6833333,34.1166667
bogdanovskiy,,07,48.95,36.5833333
bogdanovskiy,,16,47.5666667,31.5333333
bogdanovskiye,,16,47.7,31.1
bogdanovtsy,,09,49.3333333,27.25
bogdanuvka,,09,50.5666667,27.05
bogdanuvka,,22,49.6833333,25.3
bogdany,,01,49.9333333,31.8833333
bogdany,,13,51.0333333,30.25
bogdany,,18,50.4166667,32.6666667
bogdin khayden,,17,46.35,29.2838889
bogemka,,11,45.7666667,34.25
bognatovka,,17,46.7833333,30.4833333
bogoblagodatnoye,,04,47.9333333,33.2
bogodarivka,,18,50.4,32.9833333
bogodarovka,,01,50.1333333,32.05
bogodarovka,,04,47.95,36.2166667
bogodarovka,,07,49.6813889,37.1152778
bogodarovka,,16,47.5833333,31.8166667
bogodarovka,,18,50.4,32.9833333
bogodarovo,,07,48.85,36.9666667
bogodirov,,05,47.3177778,38.1786111
bogoduchow,,07,50.1608333,35.5163889
bogodukhov,,07,50.1608333,35.5163889
bogodukhovka,,01,49.75,32.3666667
bogolyubovka,,04,48.1166667,34.4333333
bogolyubovka,,21,50.4166667,34.9666667
bogomolovka,,07,49.0863889,36.5555556
bogomolovka,,10,49.15,33.4166667
bogopol,,16,48.05,30.8333333
bogorodchany,,06,48.8072222,24.5363889
bogorodichin,,06,48.7,25.0166667
bogorodichna,,07,49.5455556,37.5063889
bogorodichnoye,,05,49.0202778,37.4938889
bogorodichnoye,,07,49.8816667,37.0322222
bogoroditskoye,,05,47.5833333,37.3833333
bogoroditskoye,,08,46.85,32.5166667
bogoroditskoye,,14,49.7166667,38.2
bogoroditskoye,,26,46.9652778,36.2908333
bogoroditsyn,,06,48.7,25.0166667
bogorodychyn,,06,48.7,25.0166667
bogorozhdestvenka,,17,47.3,30.65
bogoslavka,,17,47.0741667,29.8411111
bogoslovka,,05,47.5333333,37.1833333
bogoslovka,,09,49.25,26.2666667
bogoslovka,,16,48.1,31.05
bogoyavienska,,05,47.85,37.2166667
bogoyavlenka,,05,47.85,37.2166667
bogoyavlensk,,16,46.8669444,32.0327778
bogoyavlenskoye,,05,47.85,37.2166667
bogoyavlenskoye,,10,48.7166667,33.3
bogrovka,,06,48.7166667,24.2666667
bogruvka,,06,48.7166667,24.2666667
boguniya,,27,50.2833333,28.6166667
bogunly,,08,46.3227778,34.1541667
bogunskoye,,17,47.0333333,30.4666667
bogurchi,,11,44.9833333,34.1666667
bogushe,,19,51.1,26.75
bogushi,,19,51.1,26.75
bogushkova,,01,49.55,32.1
bogushkova sloboda,,01,49.55,32.1
bogushovka,,24,51.0166667,25.0666667
bogushuvka,,24,51.0166667,25.0666667
boguslav,,04,48.45,36.0333333
boguslav,,13,49.55,30.8833333
boguslavka,,07,49.4791667,37.6902778
boguslaw,,13,49.55,30.8833333
bogutyn,,22,49.6666667,24.95
bohdan,,25,48.0416667,24.3605556
bohdanivka,,10,48.7466667,32.5113889
bohdanivka,,17,46.35,29.2838889
bohdanivka,,22,49.55,25.9666667
bohdanivka,,23,48.65,29.1
bohdanove 1,,17,47.2638889,29.8344444
bohdanove 2,,17,47.2491667,29.8713889
bohdanove druhe,,17,47.2491667,29.8713889
bohdanove pershe,,17,47.2638889,29.8344444
bohodukhiv,,07,50.1608333,35.5163889
bohorodchany,,06,48.8072222,24.5363889
bohorodczany,,06,48.8072222,24.5363889
bohoyavlenka,,05,47.8833333,37.2
bohuslav,,13,49.55,30.8833333
bohuslavka,,17,47.0741667,29.8411111
boian,,03,48.2833333,26.1333333
bojaniec,,15,50.1666667,24.1
bokhny,,09,49.3666667,27.7
bokhoniki,,23,49.1666667,28.3666667
bokiyevka,,09,49.45,26.55
bokiyevshchina,,27,51.3666667,28.3666667
bokiyma,,19,50.4833333,25.4666667
bokova,,10,48.2166667,33.0833333
bokov,,22,49.25,24.9
bokovoantratsit,,14,48.1191667,39.09
bokovo,,10,48.2166667,33.0833333
bokovo,,14,48.2341667,39.4222222
bokovo,,17,47.75,30.1833333
bokovoplatovo,,14,48.1130556,39.0233333
bokovoye,,10,48.2166667,33.0833333
bokovskiy,,14,48.1016667,38.995
bokuv,,22,49.25,24.9
bokuyma,,19,50.4833333,25.4666667
bolboaca,,17,45.5,28.5666667
bolboaka,,17,45.5,28.5666667
bolboka,,17,45.5,28.5666667
boldury,,19,50.1833333,25.0833333
boldyrevka,,07,49.6327778,37.5758333
boldyrevo,,05,48.0166667,38.7
bolechow,,06,49.0666667,23.8666667
bolekhiv,,06,49.0666667,23.8666667
bolekhivtsi,,15,49.3333333,23.6
bolekhov,,06,49.0666667,23.8666667
bolekhovtsy,,15,49.3333333,23.6
bolekhuv,,06,49.0666667,23.8666667
bolesawowka,,15,50.7833333,24.2666667
boleslavuvka,,15,50.7833333,24.2666667
boleyuv,,06,49.1,24.0333333
bolgan,,23,48.1333333,28.75
bolgar,,07,49.8833333,35.6833333
bolgariyka,,17,45.7502778,28.6152778
bolgarka,,16,46.8166667,31.6666667
bolgarov,,17,47.4666667,30.5
bolgarskoye,,26,46.6833333,35.0
bolgrad,,08,46.35,35.05
bolgrad,,17,45.6833333,28.6108333
bolgrad,,26,46.5,35.1
bolhrad,,17,45.6833333,28.6108333
boliboki,,07,50.1525,36.0497222
bolichi,,15,49.7666667,23.0166667
bolkun,,13,49.5666667,30.6166667
bologovka,,07,50.0561111,37.7980556
bolokhoviche,,19,51.2833333,25.95
bolokhuv,,06,49.1,24.1833333
bolotene,,14,48.6052778,39.5777778
bolotenka,,14,48.6052778,39.5777778
bolotennoye,,14,48.6052778,39.5777778
bolotennyy,,14,48.6052778,39.5777778
bolotkovtse,,19,50.25,26.35
bolotkovtsy,,19,50.25,26.35
bolotnennoye,,14,48.6052778,39.5777778
bolotnitsa,,02,50.8166667,32.9333333
bolotnitsa,,27,51.2,28.9333333
bolotnya,,13,50.95,29.8833333
bolotnya,,22,49.55,24.6833333
bolotnyy,,14,49.5666667,40.1333333
bolozev,,15,49.5833333,22.9166667
bolozhinov,,15,50.0166667,24.7333333
bolozhinuv,,15,50.0166667,24.7333333
bolozhovka,,22,50.1166667,26.2333333
bolozhuvka,,22,50.1166667,26.2333333
boloziv,,15,49.5833333,22.9166667
bolozynow,,15,50.0166667,24.7333333
bolschaja aleksandrowka,,08,47.3166667,33.3166667
bolschajaandromowkamoldawa,,08,46.2666667,32.8666667
bolschaja beloserka,,26,47.2747222,34.7030556
bolschaja bymerka,,13,50.6,30.9333333
bolschaja lepeticha,,08,47.1833333,33.95
bolshaya akkarzha,,17,46.3333333,30.5833333
bolshaya aleksandrovka,,08,47.3166667,33.3166667
bolshaya aleksandrovka,,16,47.7833333,32.6833333
bolshaya anastazovka,,27,50.7833333,27.3333333
bolshaya andreyevka,,07,49.0036111,36.7902778
bolshaya andronevka,,08,46.2666667,32.8666667
bolshaya andronovka,,08,46.2666667,32.8666667
bolshaya andronovkamoldava,,08,46.2666667,32.8666667
bolshaya artakova,,16,47.2166667,33.0666667
bolshaya babka,,07,49.9852778,36.7383333
bolshaya balabanka,,17,45.8833333,30.2333333
bolshaya balka,,17,46.5666667,30.6
bolshaya belina,,15,49.5333333,23.4666667
bolshaya belmanka,,26,47.3,36.5833333
bolshaya belozerka,,26,47.2747222,34.7030556
bolshaya berezka,,21,52.2166667,33.8491667
bolshaya blagoveshchenka,,08,46.85,34.05
bolshaya,,18,50.2269444,34.3994444
bolshaya,,21,50.8569444,34.9891667
bolshaya borovitsa,,22,50.1333333,26.2666667
bolshaya bubnovka,,09,49.5333333,26.6
bolshaya budishcha,,18,49.8666667,34.5666667
bolshaya bugayevka,,13,50.1833333,30.45
bolshaya buromka,,18,49.6166667,32.65
bolshaya buzova,,18,49.7833333,34.0166667
bolshaya chaykovka,,17,47.75,30.4333333
bolshaya chechelevka,,10,48.3666667,32.75
bolshaya chernetchina,,21,50.9577778,34.9275
bolshaya chernigovka,,14,48.9555556,39.4138889
bolshaya chernigovka,,27,51.2833333,28.9166667
bolshaya chernyavka,,23,49.7666667,28.9833333
bolshaya chernyavka,,27,49.9833333,29.5833333
bolshaya danilovka,,07,50.0438889,36.3044444
bolshaya danilovka,,10,47.9833333,32.8
bolshaya derazhnya,,27,50.6,27.25
bolshaya devitsa,,02,50.7166667,32.15
bolshaya dymerka,,13,50.6,30.9333333
bolshaya fedorovka,,10,47.9833333,32.9833333
bolshaya fedorovka,,17,46.8761111,29.9469444
bolshaya fomina balka,,17,46.5666667,30.6
bolshaya garazhevka,,07,49.1666667,37.0
bolshaya glusha,,24,51.8166667,25.05
bolshaya gnoynitsa,,09,50.1,26.5833333
bolshaya gomilsha,,07,49.5533333,36.2680556
bolshaya gomolsha,,07,49.5533333,36.2680556
bolshaya gorbasha,,27,50.4166667,28.8
bolshaya gubshchina,,07,49.7166667,35.5833333
bolshaya ivanovka,,05,49.1141667,37.9466667
bolshaya kamenka,,06,48.6408333,25.1052778
bolshaya kamenka,,14,48.15,39.4333333
bolshaya kamyshevakha,,07,49.1136111,36.9813889
bolshaya karakuba,,05,47.6172222,38.0188889
bolshaya kardashinka,,08,46.5166667,32.65
bolshaya karpivka,,17,46.7833333,30.2666667
bolshaya kiriyevka,,23,48.3833333,29.6166667
bolshaya kletska,,27,50.75,27.0833333
bolshaya klimkovka,,18,49.65,34.2333333
bolshaya klitenka,,27,49.7833333,28.35
bolshaya klitna,,09,49.7,26.6833333
bolshaya kokhnovka,,18,49.1166667,33.4666667
bolshaya komstromka,,04,47.5333333,33.7166667
bolshaya kondratovka,,17,47.5958333,29.8313889
bolshaya kondratyevka,,17,47.5958333,29.8313889
bolshaya korenikha,,16,46.9666667,31.9
bolshaya koshelevka,,02,51.25,31.95
bolshaya kozyrka,,16,46.8166667,31.8833333
bolshaya krupol,,02,50.5,31.5
bolshaya kureyevka,,23,48.3833333,29.6166667
bolshaya lenina,,15,49.4,22.9333333
bolshaya lepatikha,,08,47.1833333,33.95
bolshaya lepetikha,,08,47.1833333,33.95
bolshayalevada,,09,49.0666667,26.6
bolshaya likhovka,,07,49.9166667,35.7166667
bolshaya magazinka,,11,45.8666667,34.05
bolshaya makarikha,,10,48.8166667,32.8166667
bolshaya mamayka,,10,48.6,32.2666667
bolshaya maryanovka,,17,46.05,30.0666667
bolshaya mayachka,,08,46.5986111,33.2319444
bolshaya medvedevka,,09,49.9,26.9666667
bolshaya medvedovka,,09,49.9,26.9666667
bolshaya meshkova,,05,47.8702778,38.565
bolshaya mikhaylovka,,04,47.9691667,36.4552778
bolshaya motovilovka,,13,50.15,30.0833333
bolshaya muksha,,09,48.5666667,26.7166667
bolshaya neplyuyevka,,21,51.1166667,33.7333333
bolshaya neplyuyevo,,21,51.1166667,33.7333333
bolshaya novoselitsa,,09,50.0833333,27.55
bolshaya novoselka,,26,47.8333333,36.8333333
bolshaya obukhovka,,18,50.15,33.95
bolshaya ofirna,,13,50.1333333,29.95
bolshaya olshanka,,13,50.0833333,30.45
bolshaya osich,,02,51.4166667,32.8166667
bolshaya osnitsa,,19,51.1833333,25.95
bolshaya ozhomlya,,15,49.85,23.4166667
bolshaya pavlovka,,18,50.2377778,34.2652778
bolshaya pisarevka,,21,50.4233333,35.4797222
bolshaya pivarova,,17,47.1833333,30.3833333
bolshaya poboina,,09,48.8166667,27.0166667
bolshaya poboyna,,09,48.8166667,27.0166667
bolshaya pogorelova,,16,46.9833333,32.1
bolshaya radogoshch,,19,50.2,26.4166667
bolshaya reshnevka,,09,50.0833333,27.2
bolshaya rodzyanka,,26,47.55,36.6833333
bolshaya rogozyanka,,07,50.1875,35.8386111
bolshaya romanovka,,16,47.4333333,32.95
bolshaya rostovka,,23,49.25,29.3833333
bolshaya roztoka,,25,48.8833333,22.8833333
bolshaya rublevka,,18,49.9,34.8333333
bolshaya rudka,,18,49.75,34.4666667
bolshaya rusava,,23,48.6,28.45
bolshaya sadovaya,,20,44.6333333,33.8333333
bolshaya salikha,,09,49.8666667,26.9
bolshaya serbulovka,,16,47.7,31.6666667
bolshaya severinka,,10,48.6333333,32.2333333
bolshaya seydeminukha,,16,47.1166667,32.9833333
bolshaya shapkovka,,07,49.7819444,37.5188889
bolshaya shishovka,,05,47.9677778,38.5261111
bolshaya sloboda,,21,51.8155556,34.2155556
bolshaya snetinka,,13,50.0833333,30.0
bolshaya sofiyevka,,17,47.8333333,30.2666667
bolshaya sushitsa,,15,49.5,22.8333333
bolshaya ternava,,23,48.4,28.9166667
bolshaya ternavka,,23,48.4,28.9166667
bolshaya ternovka,,23,48.4,28.9166667
bolshaya ternovka,,26,46.6833333,35.0
bolshaya tsapovka,,07,50.2402778,35.8558333
bolshaya tsvilya,,27,50.8,27.6166667
bolshaya turya,,06,49.1333333,24.0666667
bolshaya ulashanovka,,09,50.3333333,26.8666667
