names,population,state_code,lat,lon
aabaan weyn,,04,2.65,44.0166667
aabaan yare,,04,2.6166667,44.0333333
aabarak,,04,3.0666667,43.5
aabow,,04,3.0333333,44.1666667
aadan harmey,,14,1.4333333,43.9166667
aadan nuur,,14,1.8333333,44.6333333
aadan waraabow,,01,3.5833333,43.8666667
aadan yabaal,,07,3.7833333,46.25
aaminaay,,06,2.3,42.3333333
aantaara,,03,11.4413889,49.5530556
aawla,,04,2.9666667,44.0166667
aayolay,,04,3.05,43.95
abaaji,,05,3.6,46.95
abaarey,,10,7.0833333,47.4833333
abaarso,,16,9.6,43.8833333
abaar yoma,,04,2.6833333,44.1
abaati,,08,2.0833333,42.5166667
abaayle,,06,2.1,42.25
abaayow,,14,2.6833333,45.1
ababscia,,14,1.6333333,44.2666667
abac gurei,,04,2.7666667,43.7833333
abag dheere,,01,3.9833333,44.35
abakor cadaawe,,16,10.0333333,43.35
abal,,01,3.9333333,43.9333333
abaq dheere,,08,1.6169444,42.3833333
abaq mudule,,14,1.35,44.2
abaqsaarre,,04,2.9166667,44.05
`abasa,,16,10.1166667,43.2333333
abawle,,04,2.7666667,44.1
abbaayow,,14,2.7,45.0833333
abbannaale,,14,2.2166667,45.15
abbas,,13,2.8833333,45.45
abdi ali,,14,1.75,44.4833333
abdi arbo,,09,-0.0333333,42.6
abdi boloh,,15,9.2666667,45.8333333
abdi farah,,15,9.1833333,44.9833333
abdille,,14,2.3333333,44.8333333
abdi uurane,,04,2.8833333,43.8666667
abdurug,,04,3.0166667,43.4833333
abduuch,,05,6.2166667,46.3833333
abeesaale,,01,4.9,44.5166667
abeesaale,,14,2.7666667,45.1333333
abees eemid,,04,3.1166667,43.4666667
abeesgarwaal,,04,3.1166667,43.5
abesale,,01,4.9,44.5166667
abikarow,,14,1.7333333,44.6666667
abliko,,14,1.8666667,44.7333333
abo,,03,11.7833333,50.5166667
aboow cali,,14,1.75,44.55
aboreu,,09,0.0755556,42.7327778
aborey,,07,4.0166667,45.6833333
aborko,,04,2.9,43.95
aboro,,09,0.0755556,42.7327778
aborou,,09,0.0755556,42.7327778
abou,,01,4.35,43.05
abrarow,,14,1.3333333,43.8333333
abrone,,06,2.4666667,41.5833333
abu gala,,09,0.0666667,41.3666667
aburriin,,16,9.5166667,43.8166667
abuukar xaaji figow,,04,2.9666667,43.4
abuu sheegow,,14,1.4166667,44.2833333
acable,,01,4.35,44.7
acaca,,08,1.5433333,42.4341667
acqua uadi,,11,8.15,48.35
ada,,11,9.9166667,43.7833333
adada,,09,-1.1,41.7333333
adad,,15,8.9333333,45.95
adadere,,07,3.2666667,45.6333333
adad gheri,,04,2.3166667,42.7166667
adadle,,16,9.7666667,44.6833333
adadleh,,16,9.7666667,44.6833333
adado,,05,6.15,46.6333333
`adado,,09,-1.1,41.7333333
adahio,,13,2.3833333,45.7666667
adaio,,05,4.4,46.4333333
adale,,13,2.75,46.3166667
adale,,14,2.4833333,45.2166667
adale afuen,,07,3.2333333,45.4166667
adale afweyna,,07,3.2333333,45.4166667
adalei,,10,1.9333333,43.3
adalei,,14,2.4833333,45.2166667
adale ibrahim,,07,3.2,45.3666667
adaliyow,,14,1.75,44.6333333
adalou,,13,2.9,45.5166667
adat,,10,5.4166667,47.5166667
addomo,,09,0.6666667,42.7166667
addow,,01,3.5833333,43.8166667
`addudo,,14,1.1666667,43.1333333
ade adeye,,11,8.6666667,47.15
adega,,13,2.55,45.3333333
adega mobilen,,13,2.55,45.3333333
adego,,03,8.9666667,49.5833333
adegow,,04,3.4166667,43.3833333
adeile,,10,1.9333333,43.3
adelta,,14,1.15,43.4666667
adhicadeeye,,11,8.6666667,47.15
adim,,10,4.6544444,47.8575
adinsoone,,03,9.5333333,49.2333333
adizona,,03,9.5333333,49.2333333
adudo,,14,1.1666667,43.1333333
aduma,,14,1.7666667,44.5666667
aesow,,14,1.75,44.6
aeula,,03,11.9666667,50.75
afaafo,,04,2.35,43.7666667
afad,,07,3.5833333,45.6666667
afar daar,,07,3.1666667,44.8166667
afar iato,,04,3.25,43.55
af barwaaqo,,10,6.5,48.7833333
af ed,,10,1.9666667,43.3666667
af gedud,,11,8.3833333,49.15
afgoi addo,,13,3.25,45.55
afgoi,,14,2.15,45.1166667
afgooy,,08,0.9491667,42.6216667
afgooye,,01,3.45,43.8333333
afgooye,,08,2.2166667,42.2833333
afgooye,,14,2.15,45.1166667
afgooye,,15,9.75,45.6333333
afgooye cadde,,13,3.25,45.55
afgooye yare,,14,1.6666667,44.4166667
afgoye,65461,14,2.15,45.1166667
af gudud,,03,10.0666667,50.1833333
af gudud,,11,8.3833333,49.15
af gudut,,03,10.0666667,50.1833333
afguduudle,,10,5.7666667,48.05
afhuug,,04,3.1333333,43.6333333
afjiinow,,04,2.9333333,43.6333333
afkala haya,,03,11.9,50.5833333
af karin,,03,11.2833333,50.1666667
afmadoow,,09,0.5172222,42.0711111
afmadow,,09,0.5172222,42.0711111
afmadu,11939,09,0.5172222,42.0711111
af ruugleey,,03,10.2166667,50.9
afuein,,14,1.5333333,44.5333333
af uen,,07,3.3,45.15
afweyn,,14,1.5333333,44.5333333
af yar,,06,2.4333333,42.3166667
agabar,,16,9.9166667,43.9166667
`ag,,03,8.4333333,50.2333333
agagable,,06,2.1666667,42.15
agamsaha,,16,9.6833333,43.6833333
agarada,,15,8.6333333,45.7
agarboale,,03,10.4833333,50.8166667
agar gul,,05,3.6166667,46.8
agarrei,,05,5.1166667,47.1
agarrei,,07,4.0833333,44.9
aggherar,,06,4.05,42.6666667
agghini,,06,2.4166667,42.4333333
agh,,03,8.4333333,50.2333333
agi ali,,14,2.2,45.1833333
agille,,09,-0.7833333,41.75
agin,,11,8.4166667,49.8833333
agodi,,09,-0.1333333,41.9666667
ago merodeh,,16,10.2166667,44.6666667
agordaban,,03,10.0333333,49.3833333
ahable,,03,11.2,50.4166667
ahg,,03,8.4333333,50.2333333
ai culei,,04,3.05,43.95
aiesloho,,03,11.5666667,51.1166667
aifelle,,14,0.9,43.2833333
aifodo,,04,2.9,44.2
aik,,15,9.0,45.3666667
aikijedi,,04,3.2,43.6166667
ailesho,,04,2.5666667,43.9666667
ainabo,,15,8.95,46.4333333
ainle,,16,9.35,44.1
ainleh,,16,9.35,44.1
airebehje,,03,11.9166667,50.75
ajaaw,,06,3.0833333,42.4
`ajin,,11,8.4166667,49.8833333
akamso,,16,9.6666667,43.65
alaalacadka,,16,9.85,44.35
aladhajo,,09,1.3,44.1333333
alafuutow,,14,1.5666667,44.0166667
alamburo,,14,1.7833333,44.5166667
alambuur,,14,1.7833333,44.5166667
alamo,,01,4.3833333,43.15
`alan dabe,,15,8.75,45.9
alan debe,,15,8.75,45.9
alanshile,,14,1.4166667,43.95
al cad,,07,3.5833333,45.6666667
aleibadei,,16,9.3833333,43.5166667
alessandra,,09,0.5,42.7666667
ali assan,,14,1.0666667,43.4166667
ali banga,,09,0.4666667,42.75
alifow,,14,2.2833333,45.1833333
ali gala,,16,10.45,43.25
ali isa,,15,8.55,45.5166667
alio edda,,14,1.2666667,43.8833333
alio eddao,,14,1.2666667,43.8833333
alla gabe,,01,3.7333333,43.75
allanga gurrow,,09,-0.3166667,41.05
allango gurru,,09,-0.3166667,41.05
allegada,,16,10.45,43.25
allenta,,04,2.5166667,42.9833333
alleqalla,,16,10.45,43.25
al marodle,,03,10.4,50.6166667
al medou,,14,0.8666667,43.65
alol lamma gad,,10,1.9833333,43.3833333
alula,,03,11.9666667,50.75
alundi,,14,1.8333333,44.7
`amadere,,15,9.25,45.0833333
ambago,,09,0.3136111,42.7541667
ambalio,,10,5.1,47.8833333
ambul,,04,2.7,44.0833333
amiiney,,09,0.4666667,42.75
aminei,,06,2.3,42.3333333
aminow,,08,0.3730556,42.8344444
amisighei,,04,2.8666667,44.2666667
`amtara,,03,11.4413889,49.5530556
analgubi hal,,03,11.0666667,50.1833333
ancherrou,,14,1.25,44.1166667
ando bait,,16,10.0,43.25
andobeid,,16,10.0,43.25
anduuma,,09,0.6666667,42.7166667
anghor,,03,11.25,50.1333333
anghor daban,,03,10.0333333,49.3833333
angole,,08,1.0833333,42.5811111
angole uen,,08,1.0833333,42.5811111
angolle uein,,08,1.0833333,42.5811111
angolle uen,,08,1.0833333,42.5811111
angorti dalmadol,,03,9.95,49.9333333
angorti dalmadot,,03,9.95,49.9333333
aniuma,,09,0.8,42.6
anjuma,,09,0.8,42.6
ankele,,09,0.4166667,42.7333333
ankhor,,11,10.7763889,46.1947222
ankor,,11,10.7763889,46.1947222
anole,,06,2.0166667,42.3166667
anole,,09,-0.8666667,41.9166667
anole,,14,1.6333333,44.5166667
ansubisto,,08,0.6666667,41.8166667
antara,,03,11.4413889,49.5530556
anteral,,16,10.7166667,45.6
anzubisto,,08,0.6666667,41.8166667
aproni,,06,2.4666667,41.5833333
aqab doco,,07,2.9,45.75
aqal saar,,13,2.45,45.3166667
araara,,09,0.03,42.6916667
arabsiyo,,16,9.6833333,43.7666667
arale,,07,4.2666667,45.2666667
arale,,13,2.9666667,46.55
arapsio,,16,9.6833333,43.7666667
araqolab,,16,9.9166667,43.2166667
arara ueine,,09,0.03,42.6916667
ararchi eggi,,13,3.1833333,45.5666667
arar gubetti,,03,10.9166667,50.8833333
arar lugole,,07,3.2666667,45.4666667
araroba,,09,0.7333333,41.5333333
arar yarey,,09,0.0197222,42.675
arbadinle,,14,0.7833333,43.3
arbey cabdi,,08,0.5102778,42.9755556
arbi,,04,2.5666667,44.8
arbo abdi,,09,0.45,43.0666667
arbo haro,,14,1.5833333,44.1833333
arbohiray,,04,1.85,42.9
arbow,,04,2.15,44.55
arbowoheerow,,14,1.5833333,44.1833333
arec,,04,3.1666667,43.75
areeg,,04,3.1666667,43.75
arenaga,,09,0.5333333,42.9166667
areri,,03,8.8333333,50.0833333
areri lalamod,,10,7.3833333,49.15
areri lolammod,,10,7.3833333,49.15
areri mallim uarfai,,05,4.5666667,47.35
arfuda,,10,6.6333333,47.6
argeeg,,16,9.7333333,43.3833333
arghed,,08,0.4505556,42.7063889
arghes,,09,-0.2666667,41.8833333
ar gummo,,07,3.7333333,44.9
ari adeso,,16,10.4,44.7333333
arieegle,,14,2.5,44.9166667
arilay,,06,3.15,43.0666667
arinder,,03,9.6666667,50.8333333
arindirri,,11,7.9833333,49.8666667
arin ragazz,,11,7.9833333,49.8666667
ariradle,,14,1.8,44.8833333
arisimo,,11,7.8,49.15
armugia,,03,11.4166667,50.75
aro berar,,16,9.6,43.45
arole,,13,2.9666667,46.55
aroori,,15,9.35,45.4666667
aroos beenaat,,13,2.85,45.6666667
aroos eber,,14,1.6166667,44.3833333
aroos ibir,,04,3.0833333,43.55
aroos xaawa,,04,3.1833333,43.5
arosurre,,08,1.9813889,42.23
arraoba,,09,0.7333333,41.5333333
arrinmoog,,14,2.2,45.2
arroberar,,16,9.6,43.45
ar uein,,03,9.0166667,50.25
ar ueir,,03,9.0166667,50.25
ar uen,,03,9.0166667,50.25
arundolei,,08,0.6333333,42.7497222
arundoole,,08,0.6333333,42.7497222
arunlei,,06,4.2166667,42.95
`ar weyn,,03,9.0166667,50.25
ascia gava,,04,3.2666667,43.6166667
ascira,,03,10.3666667,50.95
asculle,,13,2.6833333,46.2666667
asgoi,,14,2.15,45.1166667
asha farfow,,04,3.2666667,43.5666667
asha gab,,04,3.2666667,43.6166667
ashagow,,04,3.0833333,43.55
assaley,,13,2.1666667,45.5666667
astur,,04,3.1333333,43.8833333
ato,,01,4.6166667,43.35
auadle,,13,2.5666667,45.5
auadlei,,13,2.5666667,45.5
aual afra mussa,,05,4.9333333,46.0166667
aual alas,,10,4.9166667,47.45
aual allas,,10,4.9166667,47.45
aualbulle,,14,1.2333333,43.7666667
auale gupti,,05,3.7833333,46.45
aual giohar,,05,4.6333333,46.6333333
aualgube hai,,03,11.0666667,50.1833333
aual nagot,,14,2.05,45.1666667
aual selo,,13,2.35,45.4
au,,09,0.55,41.4166667
audegle,,14,1.9833333,44.8333333
audelle ier,,03,10.65,49.0166667
audelle uein,,03,10.6666667,49.1166667
audelle uen,,03,10.6666667,49.1166667
audelle wein,,03,10.6666667,49.1166667
audelle yer,,03,10.65,49.0166667
audinle,,04,3.1833333,43.4
aughele,,09,0.4166667,42.7333333
aukhor,,11,10.7763889,46.1947222
aule,,04,2.9666667,44.0166667
au misighei,,04,2.8666667,44.2666667
au nordi,,04,3.0333333,44.1833333
aur bogeis,,12,9.5666667,47.75
avai,,14,1.1666667,43.7166667
availe,,06,2.1,42.25
avai onole,,14,0.9333333,43.2833333
avalbulle,,14,1.2333333,43.7666667
avarboda,,14,1.1333333,43.8666667
avarfaro,,03,10.9833333,50.8833333
aveno,,07,4.2,45.8333333
avesale,,01,4.9,44.5166667
aw aadan fayi,,01,3.6,43.7833333
awaala gupte,,05,3.7833333,46.45
aw aamow rooble,,14,2.7,44.9
awal buley,,14,1.2333333,43.7666667
`awalegubtey,,05,3.7833333,46.45
aw axmad,,04,2.5,44.7833333
aw baasow,,04,2.8,44.1333333
aw biti,,14,2.5666667,44.9166667
aw bitte,,04,2.4,44.8333333
aw cariif,,14,2.5,44.85
aw cusmaan,,14,2.65,44.9333333
aw daarow,,04,2.8833333,44.2
awdey,,01,3.6166667,43.7666667
awdheegle,,14,1.9833333,44.8333333
awdheere,,04,3.2166667,43.2833333
aw dhiinle,,04,3.1833333,43.4
aw dhuroow,,04,2.8166667,44.1666667
awdiinle,,04,3.1833333,43.4
aw dinle,,04,3.1833333,43.4
aweey,,04,3.2,43.8833333
awgoosh,,04,3.1333333,43.5333333
aw gooye,,14,2.2,45.1833333
aw guurow,,14,2.65,44.8666667
aw humoow,,04,2.8,44.25
aw jiloole,,04,2.95,43.95
aw kuulamuudey,,14,2.4333333,44.8166667
aw kuulaw,,04,2.9,44.1833333
awla sidi,,14,1.1666667,44.0
aw liibaan,,04,2.4333333,44.75
awlo,,04,3.2333333,43.55
aw mayow,,04,2.8333333,44.1666667
aw misigey,,04,2.8666667,44.2666667
aw mordi,,04,3.0333333,44.1833333
aw nagay,,04,3.0833333,44.1
aw raansow,,14,2.4166667,44.8333333
aw reenow,,04,2.95,44.1833333
aw riinow,,04,2.8,44.0166667
aw sacad aawow,,14,2.1666667,45.2
aw sagaare,,14,2.5333333,44.8666667
aw shabeel isaaq,,04,3.05,44.1666667
aw shini,,04,3.2166667,43.4
aw xajow,,14,1.86,45.0013889
aw yaale,,04,2.85,44.2666667
aw yaay,,04,2.8166667,44.05
aw yarow,,04,2.85,44.2333333
aw yarow maroodiyoow,,04,2.8333333,44.25
axmed cigoow,,13,2.9166667,45.55
axmed gaas,,14,1.7333333,44.4833333
axmed guure,,14,1.7333333,44.5666667
axmed kamatiirey,,09,0.3069444,42.7533333
axmed maxamed cali,,13,3.4,46.6333333
ayaroy,,04,3.0666667,44.15
ay buulleey,,14,2.65,44.9833333
ay buuraaley,,14,2.55,45.0333333
ay dooya,,04,2.9,44.2333333
ay guud wiin,,04,2.8,44.2166667
ayl,,11,7.9833333,49.8166667
`aynle,,16,9.4166667,44.1666667
ayroobley,,04,3.35,43.6666667
aysuure,,14,1.05,43.8333333
baabaagob,,16,9.1666667,44.65
baabash,,04,2.4666667,44.7833333
baabo,,09,-1.45,41.6
baacyar,,07,4.5,45.3
baad,,03,11.3516667,49.4494444
baad faadan,,14,1.4833333,43.9833333
baad fadumo,,14,1.3833333,43.9
baaduin,,10,5.35,47.9166667
ba`adweyn,,10,7.2,47.5333333
baahan,,04,3.0833333,43.45
baalcad,,07,4.4666667,45.3
baale,,04,2.8833333,44.05
baalgudde,,09,-0.4833333,42.2
baalley,,14,2.8166667,45.1666667
baanyaale,,04,2.9833333,43.7666667
baanyaale,,14,1.8333333,44.6166667
baanyale banka,,04,3.0,43.7666667
baanyale goot galoole,,04,3.0333333,43.7666667
baanyale mubaarak,,04,3.0,43.7833333
baar,,09,-0.0166667,42.6333333
baarbacadle,,11,7.8166667,49.8
baarbadan,,06,2.8333333,42.4
baardheere,,06,2.3333333,42.2833333
baardheere,,09,0.2833333,42.75
baarey,,07,4.55,45.2833333
baargaal,,03,11.2833333,51.0833333
ba aror,,07,4.7,45.4666667
baarow,,14,1.6166667,44.3
baarrow weyne,,13,2.8666667,45.5333333
baarta faanye,,08,2.1,42.2666667
baasaay,,09,0.2630556,42.7483333
baasani anjalo,,14,1.7666667,44.6333333
baasani,,14,1.75,44.65
baasani oreste,,14,1.7666667,44.6833333
baasi,,14,1.6333333,44.55
baas ma leh,,04,2.7333333,43.6333333
babaay,,14,1.8166667,44.7
babagog,,16,9.1666667,44.65
babbagob,,16,9.1666667,44.65
babbagog,,16,9.1666667,44.65
babelow,,04,2.6,44.15
bacaad,,03,11.3516667,49.4494444
bacaad,,09,0.0166667,42.8166667
bacaadley,,13,2.6666667,45.5
bacaadlow,,07,4.6666667,45.2166667
bacaadweeyn,,10,7.2,47.5333333
bacaadweyn,,10,7.2,47.5333333
bacado,,16,9.6333333,44.0833333
bacadweyne,,05,5.3333333,47.9
bacaw,,14,2.0666667,44.9166667
baceyga,,16,9.65,43.3833333
bactili,,06,1.7,41.0833333
bacugia,,03,11.15,49.5
bad adda,,09,-1.0333333,41.4833333
badan,,12,10.7166667,48.35
badanbadu,,01,3.6166667,43.6166667
bad-bad,,13,2.7333333,45.6666667
bad daada,,09,-1.0333333,41.4833333
baddada,,09,-1.0333333,41.4833333
baddana,,09,-1.0333333,41.4833333
badey,,11,7.9666667,49.8166667
badhaadhe,,09,-1.0333333,41.4833333
badhadha,,09,-1.0333333,41.4833333
badhan,,12,10.7166667,48.35
baduen,,10,7.2,47.5333333
badwein,,10,7.2,47.5333333
badwein,,15,9.0,46.65
badweyn,,15,9.0,46.65
baemada,,04,3.3,43.5166667
baenada,,04,3.3,43.5166667
bafley,,09,0.7,43.1
bagaadey,,04,1.8166667,42.65
bagahar,,10,6.5166667,48.8333333
bagalle,,04,3.1833333,43.6166667
bagallei,,04,3.1833333,43.6166667
bagdad,,14,2.2666667,45.2166667
bahadlei,,13,2.6666667,45.5
bahado,,05,5.7833333,47.2166667
bahanjo,,03,11.0666667,50.1666667
bahle dogli,,14,2.6166667,44.9
baidabho,,04,3.1166667,43.65
baidabo,,04,3.1166667,43.65
baidoa,,04,3.1166667,43.65
bajeela,,10,5.7833333,47.7
bajiino jannaay,,14,1.6833333,44.6
bakaar yar,,01,3.6166667,43.4666667
bakal,,06,2.3333333,42.3333333
bakal,,08,2.1333333,42.2
bakari,,09,0.05,42.8333333
bakar weyn,,01,3.65,43.4333333
bakhtiti,,06,1.7,41.0833333
balaaw,,04,2.7666667,44.1
balac,,10,7.35,48.9
balad al amiin,,04,2.8666667,43.75
balad,,13,2.35,45.3833333
balad,,15,8.1666667,46.9166667
balad raxma,,13,2.6166667,45.5
balad raxman,,09,0.0830556,42.7211111
baladul kariim,,08,0.5472222,42.7405556
baladu raxma,,08,0.4975,42.7630556
balad weyn,,07,4.75,45.2
balamballa,,03,10.2,49.1666667
balamballe,,03,10.2,49.1666667
balanbaal,,15,8.8833333,45.7666667
balanbal,,10,7.45,48.1333333
balanballe,,15,8.4166667,46.6666667
balbal,,14,1.4666667,43.9166667
balbale,,14,1.4666667,43.9166667
bal balle,,14,1.4666667,43.9166667
balcad,,13,2.35,45.3833333
balcad,,14,2.65,45.05
bale abdi dere,,16,9.0833333,44.7666667
bale abdi farah,,15,9.1833333,44.9833333
bale dobeheya,,16,9.1166667,44.6833333
baleh dandan,,15,8.2,46.5333333
baleh hileh,,15,9.1833333,45.5833333
bale hile,,15,9.1833333,45.5833333
balguri,,13,2.7666667,45.5166667
balhile,,15,9.1833333,45.5833333
balhileh,,15,9.1833333,45.5833333
balidandan,,15,8.2,46.5333333
baligorda,,15,8.25,46.75
baljey,,08,0.6119444,42.7525
ballamballei,,03,10.2,49.1666667
ballanbaal,,15,9.6,46.6833333
ballay hiile,,15,9.1833333,45.5833333
balleey,,06,2.8833333,42.4666667
balleh abane,,16,9.15,43.85
balleh ahmed,,16,9.4333333,44.5
balleh dobo haya,,16,9.1166667,44.6833333
balleh durad,,15,9.0166667,44.9666667
balleh gubadle,,16,9.0,44.0
balleh hile,,15,9.1833333,45.5833333
balleh jalelo,,16,9.1666667,44.7333333
balleh khadar,,16,9.0,44.0
balleh qorilugud,,15,8.55,46.2333333
ballei,,06,2.8833333,42.4666667
ballei,,08,0.6119444,42.7525
balley,,06,2.8833333,42.4666667
balley,,08,0.6119444,42.7525
balley,,14,1.7666667,44.5
balleysle,,03,11.8333333,50.9166667
balliabees,,10,7.5,47.8333333
balli ad,,01,4.55,43.05
balli ad,,10,6.4833333,46.95
balli adde,,01,4.55,43.05
balli ahur barre,,11,7.7333333,48.9
balli angie berdo,,05,6.1333333,46.8166667
balli ano,,10,6.4333333,46.8333333
balli aur barre,,11,7.7333333,48.9
balli,,10,5.7833333,47.7166667
balli busle,,10,7.1,48.1666667
balli cad,,05,5.4833333,46.1
balli cad,,10,6.4833333,46.95
balli calanle,,15,8.55,45.9666667
ballicalanle,,15,8.5833333,46.0666667
balli dagarire,,10,6.55,47.2833333
balli dagar uen,,10,6.55,47.2833333
balli damer,,01,4.8666667,44.0166667
balli dhiddin,,03,10.8833333,50.4
balli doogle,,04,2.65,44.7833333
balli galad,,10,5.5166667,48.3833333
balli gobob diran,,11,7.9,48.8333333
balli gubat,,10,5.4333333,48.1166667
balli hagagari,,10,6.95,48.8833333
balli hagago,,10,6.95,48.8833333
balli hat,,10,6.1166667,47.95
balli kaliil,,16,9.0833333,44.5
balli lama adi,,10,6.95,48.2333333
balli lamma adi,,10,6.95,48.2333333
balli scillin,,03,8.65,50.05
ballo,,13,2.3333333,45.3
ballow,,04,2.6833333,43.95
ballow,,14,2.2,45.15
baloole,,04,2.6,43.9666667
balow,,14,1.7166667,44.4333333
bambaaso kulub,,14,1.6833333,44.4
bambaaso mahdi,,14,1.7,44.4333333
bambila,,09,0.05,42.7166667
bamburaale,,04,2.8166667,44.1333333
banaada,,04,1.9,42.5666667
banaadir,,04,2.2333333,44.7166667
banaanag,,14,2.6666667,45.0166667
banaaney,,09,0.1055556,42.8819444
banaaney,,13,2.4833333,45.4666667
banaaney,,14,2.3833333,45.0166667
ban bussul,,01,3.5166667,43.5666667
banbusul,,01,3.5166667,43.5666667
ban-chi surta,,04,3.2666667,44.1833333
bandar alula,,03,11.9666667,50.75
bandar,,09,0.6666667,42.7166667
bandar,,14,1.75,44.5
bandarbeyla,13753,03,9.4833333,50.8166667
bandar filuk,,03,11.9,50.5833333
bandar jadiid,,09,-0.0166667,42.6
bandar jadiid,,14,1.7,44.45
bandar jedid,,12,11.1666667,47.4666667
bandar jidiid,,08,1.1158333,42.5838889
bandar kassim,,03,11.2847222,49.1825
bandar murcaayo,,03,11.6833333,50.45
bandar salaam,,06,2.35,42.15
bandar salaam,,08,0.3333333,42.7666667
bandar wanaag,,16,9.5833333,44.4
bandar ziada,,03,11.2427778,48.9758333
bandege,,04,2.2333333,44.6833333
banden laskhonai,,12,11.1666667,48.2166667
ban dhuub,,04,2.4166667,42.8666667
bandiiradley,,10,6.4833333,46.95
bangeeni,,09,0.045,42.7330556
bannaan,,06,2.4166667,42.35
bannaan,,07,2.9,45.4833333
bannaan,,13,2.8333333,45.3333333
bannaaney,,13,2.8,45.5166667
bannaaney,,14,2.0166667,45.0333333
ban reer,,04,2.6,43.1
bansoole,,04,2.7333333,44.05
banta,,08,1.1841667,42.5425
banyaal,,04,2.95,44.1833333
banyaale,,14,2.45,45.15
ban-yaro,,16,9.4166667,44.5
baqalleey,,04,3.1833333,43.6166667
baqalley,,04,3.25,43.4333333
baqdaad,,07,3.4166667,45.6166667
baqdaad,,08,0.8,42.6333333
baqdaad,,09,-0.0333333,42.65
baqdaad,,13,2.6166667,45.5
baqdaad,,14,1.75,44.4833333
baqtile,,06,3.6333333,41.8833333
baraaktaqol,,12,9.55,48.4833333
baraale,,14,1.75,44.6833333
baraan,,12,10.7166667,48.35
baraawe,,14,1.1,44.05
baraawe yare,,14,1.4833333,44.1
barabuule,,04,2.8333333,43.9666667
bar ad,,15,8.8833333,45.1166667
baraka,,08,0.64,42.7391667
baraki,,13,2.8333333,45.3833333
barako,,04,2.9166667,43.3666667
barako,,08,0.75,42.6
baran,,12,10.2333333,48.7333333
bar aror,,07,4.7,45.4666667
barawe,27067,14,1.1,44.05
barba`adle,,11,7.8166667,49.8
barbadan,,06,2.8333333,42.4
barbadle,,11,7.8166667,49.8
bar ballei,,06,4.1666667,42.45
barcad,,15,8.8833333,45.1166667
bardaale,,10,7.0666667,47.85
bardera,,06,2.3333333,42.2833333
bardera,,09,0.2833333,42.75
bardere,,06,2.3333333,42.2833333
bardere,,09,0.2833333,42.75
barde saalax,,14,1.7166667,44.5833333
bardid,,14,1.8666667,44.7166667
bardira,,06,2.3333333,42.2833333
bareda,,03,11.85,51.05
bareeda,,03,11.85,51.05
bargaal,,03,11.2833333,51.0833333
bargaan,,05,4.3666667,47.05
bargal,6798,03,11.2833333,51.0833333
bar ganlave,,07,4.5833333,44.95
bar ganni,,06,3.9166667,42.1833333
bariira,,09,0.55,42.6833333
bariir,,05,4.8666667,47.8333333
bariire,,09,0.55,42.6833333
bariirre,,13,2.0666667,44.9
bariis,,14,1.9166667,44.7833333
barire,,09,0.55,42.6833333
barire,,13,2.0666667,44.9
barkaan caliyow,,04,2.6666667,44.1166667
barkadle,,04,2.75,44.1333333
barkale,,01,3.9833333,44.2333333
barkhadlow,,04,2.95,43.7666667
bar madeghe,,07,4.6166667,45.0833333
bar madobeh,,11,9.0,48.9
bar medeghe,,07,4.6166667,45.0833333
bar muumin dhoorow,,08,1.85,42.3805556
barow,,04,3.2333333,44.0333333
barow diinle,,04,1.9761111,42.3244444
barquuqe,,09,0.0166667,42.4333333
barra goodir,,09,-0.0166667,42.6666667
barran,,12,10.7166667,48.35
barre auadle,,13,2.8166667,45.5333333
barre cali xasan,,07,2.95,45.55
barrey,,13,2.8166667,45.5333333
barrou dinle,,04,1.9761111,42.3244444
barro uein,,13,2.8666667,45.5333333
barrow,,14,1.8666667,44.7666667
barsame,,14,1.7666667,44.7333333
barta faniyo,,06,2.0666667,42.2333333
bartanno,,16,9.5166667,44.2
barwaaqo,,06,3.4833333,42.1833333
barwaaqo,,08,0.4711111,42.7308333
barwaaqo weyn,,09,0.0644444,42.7430556
baryaalo,,04,2.8166667,43.9833333
basaqley,,04,2.1833333,44.6833333
bashiir,,14,1.8833333,44.6833333
bashiir malaambow,,08,0.3166667,42.75
bashir beere,,04,3.05,43.4333333
bashmaale,,04,2.8833333,43.9666667
basra,,08,1.6861111,42.3402778
basra,,14,2.3,45.2666667
batalaale,,16,10.4833333,45.1166667
batalaleh,,16,10.4833333,45.1166667
batalali,,16,10.4833333,45.1166667
batuulo,,08,1.7341667,42.4061111
baxarka,,04,2.2333333,44.8333333
baxdo,,05,5.7833333,47.2166667
bayaxaaw,,13,2.75,45.5
baydhabo,,04,3.1166667,43.65
baygar,,06,4.0333333,43.15
bayra,,10,6.95,47.3166667
bedanbedey,,04,3.0333333,43.45
bedei,,11,7.9666667,49.8166667
bederwanak,,16,9.5833333,44.4
beedle,,04,2.1833333,44.8
beeli wacatay,,03,11.0166667,50.45
beerato,,15,9.35,45.0666667
beer axmadow,,14,1.3333333,43.9
beer,,15,9.3666667,45.75
beernaasi,,09,-0.6833333,42.1333333
beer shabeel,,04,3.2666667,44.1666667
beerta afaraad,,13,2.75,45.55
beerta bisikrini,,14,2.1333333,45.0833333
beerta lixaad,,13,2.75,45.5833333
beerta shanaad,,13,2.7333333,45.5333333
beerta siyago,,07,3.0166667,45.5166667
beerta xasan qaaid,,14,2.1166667,45.0333333
beer xaano,,07,4.5333333,45.35
beey,,09,-0.0666667,42.7166667
beeyo doofar,,16,9.6833333,44.0333333
behelidle,,06,2.3166667,42.3166667
beifacabo,,13,2.3333333,45.3833333
beira,,10,6.95,47.3166667
beira ier,,10,6.95,47.3166667
belai-wen,,07,4.75,45.2
beled aamin,,14,2.1166667,44.9833333
beledai amin,,14,2.6,44.8166667
beled amiin,,04,2.6,44.0333333
beled amiin,,07,4.5333333,45.2833333
beled amiin,,09,0.2011111,42.7766667
beled amiin,,14,1.7166667,44.6166667
beled amin,,04,2.8333333,43.05
beled amin,,09,0.2011111,42.7766667
beledei amin,,14,2.6,44.8166667
beledel amin,,14,2.1166667,44.9833333
beled muddey,,14,1.2166667,44.05
beled-sa cacuni,,09,0.2905556,41.7127778
beled weyn,,07,4.75,45.2
beledweyne,,07,4.75,45.2
belesc cogani,,09,0.2905556,41.7127778
beles gogani,,09,0.2905556,41.7127778
beles gugami,,09,0.2905556,41.7127778
belet amin,,09,0.2011111,42.7766667
belet amin,,13,2.7,45.2833333
belet amin,,14,2.2833333,45.2333333
belet gola,,08,1.4,42.465
belet mamo,,09,0.1638889,42.7630556
belet mseres,,06,2.4333333,42.3166667
belet robo,,14,1.1,43.6666667
belet uen,,07,4.75,45.2
belet wayne,,07,4.75,45.2
belet wen,,07,4.75,45.2
belet weyne,,07,4.75,45.2
belgmudi,,14,1.2166667,44.05
belhan humei,,07,3.1666667,44.8666667
beli adaax,,15,8.8666667,45.7333333
bellelju,,16,8.9333333,44.55
bellesle,,03,11.8333333,50.9166667
benbahodi,,06,2.3833333,42.3333333
benbesle,,04,2.6666667,44.1666667
bendar cadde,,14,1.7,44.6166667
bender baad,,03,11.3516667,49.4494444
bender bacaad,,03,11.3516667,49.4494444
bender bayla,,03,9.4833333,50.8166667
bender bead,,03,11.3516667,49.4494444
bender beila,,03,9.4833333,50.8166667
bender,,06,2.3,42.2666667
bender beyla,,03,9.4833333,50.8166667
bender cassim,,03,11.2847222,49.1825
bender filuch,,03,11.9,50.5833333
bender gedid,,03,11.5016667,49.9208333
bender gedid,,14,1.75,44.5
bender gelid,,03,11.9,50.5833333
bender meraio,,03,11.6833333,50.45
bender merhagno,,03,11.6833333,50.45
bender qaasin,,03,11.2847222,49.1825
bender qasin,,03,11.2847222,49.1825
bender salam,,06,2.35,42.1666667
bender salam,,08,0.3627778,42.7722222
bender siyaada,,03,11.2427778,48.9758333
bendersiyada,,03,11.2427778,48.9758333
bender ziada,,03,11.2427778,48.9758333
ber as,,15,8.55,46.3
berato,,15,9.35,45.0666667
ber au duben,,06,3.0166667,43.3833333
ber,,15,9.3666667,45.75
berbera,242363,16,10.4355556,45.0163889
berberah,,16,10.4355556,45.0163889
berbere,,16,10.4355556,45.0163889
ber berisso,,08,1.6697222,42.4230556
ber birisso,,08,1.6697222,42.4230556
bercadle,,04,3.0333333,44.1333333
berdaale,,04,2.9833333,44.2833333
berdaale,,07,3.2833333,45.25
berdaale,,08,0.8797222,42.5919444
berdaale,,10,7.0666667,47.85
berdale,,04,2.9833333,44.2833333
berdale,,07,4.9333333,45.0333333
berdale,,10,7.0666667,47.85
berdale,,14,2.2,45.1833333
berda uein,,03,11.0833333,50.15
berda uen,,03,11.0833333,50.15
berde,,10,5.75,48.4666667
berdile,,07,4.6833333,45.2166667
berdit,,14,1.8666667,44.7166667
bereda,11262,03,11.85,51.05
bereeda,,03,11.85,51.05
ber-i cobogori,,07,3.35,44.8
bernabodi,,06,2.3833333,42.3333333
ber ras,,15,8.55,46.3
berta fagno,,06,2.0666667,42.2333333
beruged,,05,4.95,46.25
besare,,16,9.95,43.45
besareh,,16,9.95,43.45
beynax barre,,14,1.5833333,44.5166667
beyra,,10,6.95,47.3166667
beytalkariim,,14,2.2666667,45.2333333
bia `addo,,13,2.9333333,45.75
bia caddo,,13,2.9333333,45.75
biadera,,10,6.15,48.6333333
bibi,,09,0.1666667,42.2333333
bi bidhooy,,04,2.5,44.8166667
biciidley,,06,2.3333333,42.2
bidde,,08,0.9827778,42.6291667
bidi,,08,0.9827778,42.6291667
bieia,,09,-0.2,42.6166667
biheio,,11,8.7333333,49.1166667
bihejo,,11,8.7333333,49.1166667
bihiyo,,11,8.7333333,49.1166667
bijiliino,,14,1.85,44.7166667
bilciljabe,,15,8.5833333,45.25
bil cilley,,04,2.6333333,44.8166667
bilcilwayso,,15,8.9333333,45.5833333
bilcisha,,08,2.0333333,42.3666667
bilel tobaneh,,16,8.9333333,44.55
bilhelle,,07,4.4333333,46.05
bilhelli,,10,5.5333333,47.7
biliil,,04,3.35,43.25
bililjabe,,15,8.5833333,45.25
bililscia,,06,2.5333333,41.3166667
bilil weiso,,15,8.9333333,45.5833333
biliq diinle,,08,0.5666667,42.9833333
biliq maro,,08,0.5386111,42.9597222
biliq roboow,,14,1.1,43.6666667
biliq tale,,09,0.6333333,43.0666667
bilisa,,08,0.5269444,42.6808333
biliscai,,04,2.9,43.2666667
bilis qooqaani,,09,0.2905556,41.7127778
bilis yare,,06,2.2666667,42.2166667
bili uen,,08,0.9258333,42.5844444
billac,,09,0.0258333,42.8122222
billada,,09,-1.5166667,41.5333333
billaq,,09,0.0258333,42.8122222
billeilji tobaneh,,16,8.9333333,44.55
billeilji toboni,,16,8.9333333,44.55
billeilji tobono,,16,8.9333333,44.55
billei ueno,,08,0.9258333,42.5844444
billich maro,,08,0.5386111,42.9597222
billi weyn,,08,0.9258333,42.5844444
bilo,,09,0.7166667,42.7166667
biloi,,01,4.3,44.5
biloo,,09,0.7166667,42.7166667
bimal,,14,1.1,43.6166667
binnleg gialalli,,16,11.2333333,43.25
binnleg jagalli,,16,11.2333333,43.25
bio addo,,03,11.95,50.8333333
bio addo,,11,8.3,49.8
bio addo,,13,2.9333333,45.75
bio culul,,03,11.5833333,50.25
bio gudud,,03,9.8333333,50.5833333
biolei,,01,3.9333333,44.4166667
biolei,,04,3.3333333,43.6666667
biolel,,04,3.3333333,43.6666667
bioma,,07,3.2666667,45.3
bio mado,,09,-1.25,41.7666667
biomal,,10,5.35,48.0333333
birbiris,,08,1.6697222,42.4230556
bircao,,09,-1.2166667,41.85
bisiqa,,15,8.7,45.4833333
bisiqley,,14,2.7833333,45.1666667
bissig addo,,04,2.4666667,43.7666667
bissig gundere,,10,7.1333333,48.4166667
bissik addo,,04,2.4666667,43.7666667
bixinduule,,16,10.1575,45.1088889
biyadhanane,,16,9.6666667,44.2833333
biyafoge,,16,10.5,44.2
biya fogo,,16,10.5,44.2
biyamadoow,,11,8.65,48.3166667
biyamadow,,11,8.65,48.3166667
biyeeye,,09,-0.2,42.6166667
biyo as,,16,9.7666667,43.85
biyo,,13,2.9333333,45.75
biyo fogo,,16,10.5,44.2
biyo fuquh,,16,10.5,44.2
biyo kululo,,07,3.3333333,45.4833333
biyoley,,01,3.9333333,43.8333333
biyoley,,04,3.0333333,43.4833333
biyoley,,14,1.4166667,43.9166667
biyomaal,,10,5.35,48.0333333
biyooley,,04,2.95,44.2333333
biyosuur,,13,2.6833333,45.55
biyoweyne,,14,1.6333333,44.6333333
biyo yare,,09,-0.2,42.6166667
blidandan,,15,8.2,46.5333333
blowka,,04,3.05,43.45
boaneh,,11,8.3833333,47.9333333
bocole,,04,2.7333333,44.1333333
bodale,,13,2.65,45.5
bodboode,,08,0.6591667,42.7083333
boddi cadde,,04,3.15,43.55
bode,,08,0.6591667,42.7083333
bodhley,,15,8.9166667,45.3
bog daadi,,04,2.9666667,43.9333333
bogon gad,,07,3.1,45.1666667
bohagno,,03,11.0666667,50.1666667
bohanjo,,03,11.0666667,50.1666667
bohin,,03,11.75,51.25
boho,,03,11.9333333,50.8833333
boho,,13,2.6,46.1833333
bohodle,,15,8.25,46.3333333
bohodleh,,15,8.25,46.3333333
bohol,,05,5.75,46.2166667
bohol,,11,9.25,47.2833333
bohotle,,15,8.25,46.3333333
bohotleh,,15,8.25,46.3333333
bohotleh wein,,15,8.25,46.3333333
boia,,09,-0.5166667,42.3
bokh,,12,10.6166667,47.1833333
bokh,,16,10.45,43.0666667
bola cohuan,,03,9.9833333,50.8666667
boocane,,11,8.3833333,47.9333333
booc,,15,8.6333333,46.6166667
boocda kabaab,,16,9.8333333,43.6
boodaale,,13,2.65,45.5
booda,,09,-0.1,42.65
boodhka,,16,9.9166667,43.4833333
boodhlay,,15,9.8,45.5666667
boodhlay,,16,9.5833333,43.6
boodhley,,16,9.6,43.55
booka,,09,0.0833333,42.4166667
booli diido,,16,9.5333333,43.8666667
boolmadu,,04,3.2666667,43.5333333
boonka,,04,2.9166667,44.0833333
booraame,,06,3.45,42.55
booraan,,14,2.6666667,44.9
boorama,,16,9.9333333,43.1833333
booriini,,09,0.1333333,42.7166667
boorka,,04,3.2166667,43.4666667
boosaaso,,03,11.2847222,49.1825
boosaso,,03,11.2847222,49.1825
booshol,,04,1.9813889,42.8019444
boox,,08,0.9863889,42.61
boqo,,06,2.8833333,42.0666667
boqol jire,,16,9.5333333,44.0333333
boqor,,16,9.6333333,43.5666667
bora,,09,-0.9833333,41.2
borama,,04,2.9333333,43.7
borama,,06,3.45,42.55
borama,38075,16,9.9333333,43.1833333
borame,,04,3.3166667,43.1833333
borame,,06,3.45,42.55
boramo,,06,3.45,42.55
boramo,,16,9.9333333,43.1833333
boran,,12,10.2333333,48.7333333
borgof,,04,2.8166667,43.2833333
borime,,16,9.9333333,43.1833333
boron,,04,1.85,43.8666667
borosole,,04,3.15,43.5333333
borou,,01,3.6166667,43.8166667
borow,,01,3.7333333,43.7166667
borraan,,12,10.2333333,48.7333333
borran,,12,10.2333333,48.7333333
borroon,,04,1.85,43.8666667
bosaso,74287,03,11.2847222,49.1825
bosasso,,03,11.2847222,49.1825
boska gulane,,13,3.3333333,46.25
botiala,,03,11.4730556,49.9494444
bottiala,,03,11.4730556,49.9494444
bottis,,04,2.8666667,43.4
bou,,16,10.45,43.0666667
bouk,,16,10.45,43.0666667
bown,,16,10.2,43.0833333
boxo,,08,0.9666667,42.6166667
boyah,,09,-0.5166667,42.3
bqda kosar,,01,4.5166667,44.8166667
braawe,,14,1.1,44.05
brava,,14,1.1,44.05
brava iere,,14,1.4833333,44.1
brave,,14,1.1,44.05
brawa yare,,14,1.4833333,44.0833333
bu'aale,,08,1.0833333,42.5833333
bua barugi,,08,0.4475,42.7266667
buba,,08,0.64,42.7391667
bu buule,,08,1.1591667,42.5525
buco,,04,3.1666667,43.55
bud bud,,05,4.1833333,46.4666667
budbud,,10,6.1833333,48.6833333
buduna,,09,-0.4666667,42.05
budunbuto,,11,8.5166667,49.4166667
bug atoti,,03,10.7333333,50.5833333
bugda acable,,07,4.0666667,45.25
bugda cosar,,01,4.5166667,44.8166667
bugeey,,09,0.0833333,42.7333333
bugh,,12,10.6166667,47.1833333
bugh,,16,10.45,43.0666667
bug mairot,,03,10.65,50.5666667
bug tugo,,11,8.3666667,49.0166667
buhodle,,15,8.25,46.3333333
buka,,16,10.45,43.0666667
bukh,,12,10.6166667,47.1833333
bukh,,16,10.45,43.0666667
buklaabow,,04,3.0166667,43.3666667
bukuraale,,07,3.2333333,45.5333333
bul aas,,04,3.4333333,43.5166667
bulac,,05,5.3333333,46.4833333
bula gian,,14,1.7666667,44.8
bula iac,,14,1.7833333,44.8333333
bulaxaar,,16,10.3838889,44.42
bulhale,,05,5.3333333,46.4833333
bulhar,,16,10.3838889,44.42
bullahar,,16,10.3838889,44.42
bullaxaar,,16,10.3838889,44.42
bulloxaar,,16,10.3838889,44.42
bulo abdille,,04,2.8666667,43.3666667
bulo addan amei,,13,2.8,45.6833333
bulo ado daio,,04,2.9166667,43.7833333
bulo ahmed igo,,13,2.9166667,45.55
bulo alio,,14,1.7,44.3333333
bulo alio daio,,04,2.9166667,43.7833333
bulo ambasse,,04,2.9666667,43.4
bulo assanei,,04,3.0333333,44.0333333
bulo auculom,,14,2.7333333,44.9
bulo au osman,,14,2.65,44.9333333
bulo avor,,06,3.2666667,42.4833333
bulo baccal,,06,2.3333333,42.3333333
bulo bahier,,07,4.5,45.3
bulo baina,,04,2.9666667,43.4
bulo balamal,,01,3.5333333,43.75
bulo balcier,,07,4.5,45.3
bulo ballei,,13,2.95,45.5166667
bulo banoi,,04,2.9166667,43.8333333
bulo bardere,,09,0.2833333,42.75
bulo berde,,07,3.85,45.5666667
bulo biliscai,,04,2.9,43.2666667
buloboda,,09,-0.1166667,41.65
bulo boda,,09,-0.1,42.65
bulo bullo,,04,3.0,44.25
bulo,,03,10.6166667,50.8333333
bulo burti,,07,3.85,45.5666667
bulo caitei,,14,1.5166667,44.3
bulo caitet,,14,1.5166667,44.3
bulo calaf,,07,3.3833333,45.55
bulo calangi,,08,0.375,42.7419444
bulo caro,,07,3.8333333,45.5666667
bulo coro,,07,3.8333333,45.5666667
bulo cugno,,04,2.6833333,43.9666667
bulo daio,,14,1.1666667,43.7166667
bulo daro,,04,2.8833333,43.2833333
bulo derou,,09,0.4833333,42.9166667
bulo dodai,,04,2.85,43.0166667
bulo donfurur,,04,3.0333333,44.05
bulo drueil,,13,2.9666667,45.4666667
bulo el aile,,14,1.9,44.5
bulo erillo,,09,0.55,42.6833333
bulo er ueber,,08,3.35,45.55
bulo failegoi,,13,2.7666667,45.6333333
bulo failogoi,,13,2.7666667,45.6333333
bulo fara,,14,1.75,44.4833333
bulo fert dole,,04,2.15,44.55
bulo fiada,,04,2.9666667,43.3833333
bulo gafei,,13,2.85,45.5333333
bulo galole,,14,2.05,44.8166667
bulo garangaro,,13,2.8333333,45.15
bulo gasei,,04,2.9833333,43.8166667
bulo ghedudo,,04,2.8666667,43.0166667
bulo gheremei,,01,3.65,43.7833333
bulo gian,,14,1.7666667,44.8
bulo godut,,06,2.6333333,42.2333333
bulo gof adde,,14,1.8666667,44.9833333
bulo gudud,,06,2.6333333,42.2333333
bulo haldid,,01,3.6333333,43.75
bulo harran,,14,1.65,44.6666667
bulo hascle,,04,3.4333333,43.5166667
bulo hasile,,04,3.4333333,43.5166667
bulo hauen,,04,3.25,43.5333333
bulo hirso,,04,2.65,43.9333333
bulo iach,,14,1.7833333,44.8333333
bulo iach dolet,,14,2.1,44.8166667
bulo iacunta,,14,1.4,44.3166667
bulo jach,,14,2.1,44.8166667
bulollicunta,,14,1.4,44.3166667
bulo mada morodi,,01,3.7333333,43.7666667
bulo mallable,,04,3.0,43.45
bulo medina,,13,3.05,45.55
bulo merer,,06,2.6833333,42.2
bulo merere,,09,-0.1166667,42.6166667
bulo mererta,,06,2.6833333,42.2
bulo mererta,,14,1.6333333,44.5333333
bulo merertoi,,14,1.6333333,44.5333333
bulo messer,,14,1.6,44.2166667
bulo mintana,,04,3.35,43.55
bulo moddei,,04,3.0333333,43.5333333
bulo mofa,,09,0.1688889,42.7580556
bulo muniassa,,08,0.4561111,42.7294444
bulo muniassa,,09,0.4666667,42.7166667
bulo naharo,,13,2.8833333,45.5666667
bulo nassib,,08,0.6019444,42.7433333
bulo nassib,,09,0.3330556,42.7666667
bulo nefle,,14,2.4833333,44.85
bulo nurbadi,,13,2.9,45.6166667
bulo nur,,13,2.9333333,45.5166667
bulo raina,,04,2.9666667,43.4
bulo rer scec abdulla,,13,2.7,45.8
bulo rer scek abdulla,,13,2.7,45.8
bulo saga,,09,0.2286111,42.7686111
bulo saile,,14,1.8333333,44.9166667
bulo samaniar,,04,2.9833333,43.45
bulo samantar,,04,2.9833333,43.45
bulo scecal,,14,2.2666667,45.1666667
bulo scevelo,,07,4.6833333,45.2666667
bulo sehia,,13,2.9166667,45.5666667
bulo selei,,14,1.7166667,44.35
bulo sellei,,14,1.7166667,44.35
bulo sigalei,,13,2.8,45.1
bulo subta,,04,3.0666667,44.05
bulo togon,,07,3.5166667,45.5333333
bulo tugar,,04,2.75,43.8333333
bulo tumas,,04,3.1833333,43.6166667
bulo uaiama,,14,1.5,43.9833333
bulo uarbo,,14,1.5833333,44.1666667
bulo uar uen,,06,2.9333333,43.0
bulo uslei,,04,3.4,43.5
bulukey,,14,1.8,44.6
bulu nuru,,04,3.0833333,43.9
bunkay,,04,2.8666667,43.9333333
bunle,,08,1.1591667,42.5525
buq atoti,,03,10.7333333,50.5833333
buq,,12,10.6166667,47.1833333
buq,,14,1.4833333,44.45
buq catooti,,03,10.7333333,50.5833333
buqda `aqable,,07,4.0666667,45.25
buqda,,07,4.0666667,45.25
buqda caqable,,07,4.0666667,45.25
buqda koosaar,,01,4.5166667,44.8166667
buqde caqable,,07,4.0666667,45.25
buqkoosaar,,01,4.5166667,44.8166667
buraale,,14,1.75,44.5166667
buraan,,12,10.2333333,48.7333333
bura,,06,3.1666667,42.1333333
bur acaba,,04,2.7833333,44.0833333
bur `adde,,08,1.0166667,41.9166667
burader,,07,3.2833333,45.5833333
bur ali fachei,,07,3.8,45.5833333
buramo boorama,,16,9.9333333,43.1833333
buran,,12,10.2333333,48.7333333
burao,,15,9.5166667,45.5333333
bur carrowlay,,05,4.4333333,47.5666667
burco,,15,9.5166667,45.5333333
burcosera,,06,3.0166667,42.0666667
burdeere,,07,3.5,45.6333333
burdere,,07,3.5,45.6333333
burey mannas,,04,2.85,43.55
bur fole,,08,1.1383333,42.5730556
burfule,,06,3.1666667,43.45
burfule,,08,1.1383333,42.5730556
burfule,,13,2.9333333,45.5333333
burfuul,,08,0.6,42.7166667
burfuule,,08,1.1383333,42.5730556
burgaan,,09,0.2605556,42.8416667
bur gaban,,03,11.3613889,49.4691667
bur gabo,3096,09,-1.2166667,41.85
burgao,,09,-0.0166667,42.6333333
bur gap,,09,-1.2166667,41.85
bur gavo,,09,-1.2166667,41.85
bur ghibi,,07,3.95,45.1166667
bur gulo,,04,2.8166667,44.3833333
bur hacaba,,04,2.7833333,44.0833333
burhakaba,,04,2.7833333,44.0833333
burka giibi,,07,3.95,45.1166667
bur mahago,,03,10.3833333,50.6333333
bur meirale,,03,10.5333333,49.5166667
buro,,03,11.4733333,49.6822222
buro,,10,5.5833333,48.2166667
bur `o,,15,9.5166667,45.5333333
burogi,,08,0.4475,42.7266667
buruc,,03,11.4733333,49.6822222
buruuji,,08,0.4475,42.7266667
busaar,,06,2.6833333,41.3
bu sar,,06,2.6833333,41.3
bus,,16,9.85,43.6666667
buscbusc,,09,-1.2166667,41.7
busleey,,06,2.3166667,42.3833333
buslei,,06,2.3166667,42.3833333
buslei,,14,2.1166667,45.1
busley,,04,2.9,43.45
busley,,13,2.6333333,45.3333333
busley,,14,1.8,44.5
buslow,,14,2.1166667,45.1
bustoole,,07,3.1666667,45.75
butiyaalo,,03,11.4730556,49.9494444
buubis,,10,7.1333333,48.3666667
buufo danada,,14,1.7166667,44.6
buufow,,14,1.75,44.75
buuhoodle,,15,8.25,46.3333333
buukoh,,04,3.1666667,43.55
buulaal,,04,2.8333333,44.1666667
buulallow,,14,2.2166667,45.1
buulcaas,,14,2.6666667,45.0333333
buul galoole,,04,3.35,43.4166667
buulle,,08,0.2,42.8
buullo marer,,04,3.3,44.0666667
buullow,,14,1.7666667,44.5166667
buulo aas,,14,2.4,44.85
buulo afrax,,13,2.8,45.65
buulo amiin,,04,2.8333333,44.1166667
buulo balley,,13,2.75,45.65
buulobarde,,07,3.85,45.5666667
buulo bardheere,,09,0.2833333,42.75
buulo berde,,07,3.85,45.5666667
buulo bilaan,,01,3.5333333,44.0333333
buulo bullow,,04,3.0,44.25
buulo burte,,07,3.85,45.5666667
buulo,,01,3.6166667,43.8166667
buulo,,07,3.85,45.5666667
buulo cabdi,,14,1.8166667,44.8666667
buulo cigalle,,08,3.35,45.55
buulo daaraf,,04,2.7833333,42.8166667
buulo dhaaya,,06,3.0833333,43.1333333
buulo dheer,,13,2.8166667,45.6833333
buulo dhenforur,,04,3.0333333,44.05
buulo dooday,,04,2.85,43.0166667
buulo duff,,04,2.9666667,43.45
buulo edeega,,04,3.0333333,43.4
buulo eelay,,13,2.7166667,45.6
buulo fajir,,01,3.9666667,44.2666667
buulo feermo,,13,2.7333333,45.6
buulo fulaay,,04,2.1166667,43.5166667
buulo ganaay,,13,2.8,45.6333333
buulo garas,,04,2.85,42.9833333
buulo garas,,13,2.7833333,45.6333333
buulo guduud,,04,2.1333333,42.6666667
buulo gurundhow,,04,3.1,43.6
buulo hanyow,,04,2.85,43.8166667
buulohilowle,,04,3.25,43.5833333
buulo-jannaay,,04,3.2833333,43.4166667
buulo kuraari,,14,2.1666667,45.1833333
buulo macalim,,04,3.2166667,44.0166667
buulo macallim,,13,2.8,45.6666667
buulo madina,,13,3.05,45.55
buulo makiino,,13,2.7833333,45.6166667
buulo mareer,,06,2.6833333,42.2
buulo mareer,,14,1.6333333,44.5333333
buulo mareerto,,14,1.6333333,44.5333333
buulo mareertoi,,14,1.6333333,44.5333333
buulo maxamuud aadan,,13,2.7833333,45.6
buulo mintaan,,04,3.35,43.55
buulo moobleen,,13,2.7833333,45.6166667
buulo nasiib,,04,2.7833333,44.0666667
buulo noofe,,13,2.7166667,45.5833333
buulo obliko,,07,4.8,45.1833333
buulo oon jirre,,06,3.05,43.1
buulo qalaf,,07,3.3833333,45.55
buulo reer shiikh cabdulle,,13,2.7,45.8
buulo risqi,,14,2.15,45.1833333
buulo sabar,,01,3.5166667,44.0666667
buulo shanta,,04,3.3666667,43.4833333
buulo shiikh,,13,2.8,45.55
buulo subto,,04,3.0666667,44.05
buulo togoro,,07,3.5166667,45.5333333
buulo uusla,,04,3.4,43.5
buulo warabe,,04,3.3166667,43.6
buulo warbe,,14,1.5833333,44.1666667
buulo warbo,,14,1.5833333,44.1666667
buulo warriiray,,04,3.1166667,43.3833333
buulo xaaji,,09,-0.6333333,41.9833333
buulo xaawiyow,,06,3.0666667,43.1166667
buulo xasanow,,04,3.0333333,44.0333333
buulo yuusuf,,04,3.05,43.4166667
buurane,,07,2.9666667,45.5
buuray shunle,,04,3.3,43.4333333
buur baan,,04,2.9666667,43.4
buur basle,,06,4.0666667,43.1333333
buurbishaaro,,13,2.8333333,45.55
buur cadde,,08,1.0166667,41.9166667
buur caddey,,01,4.0666667,43.35
buur dhajis,,04,3.0166667,44.1833333
buurdheer,,07,3.5,45.6333333
buur dheere,,14,2.5166667,44.8666667
buur dhijis,,04,2.9833333,44.1833333
buur dhuxunle,,01,4.05,43.25
buurfule,,08,1.5244444,42.4225
buur fuul,,08,1.6,42.5
buurfuule,,06,3.1666667,43.45
buur fuule,,08,1.1383333,42.5730556
buurfuule,,13,2.9333333,45.5333333
buur fuule,,14,1.7666667,44.7
buur gaaban,,03,11.3613889,49.4691667
buur gaabo,,09,-1.2166667,41.85
buur gaduud,,08,1.9219444,42.28
buurhakaba,,04,2.7833333,44.0833333
buur hakkaba,,04,2.7833333,44.0833333
buur halab,,04,3.0833333,43.8333333
buur haybe,,07,3.95,45.1166667
buur heybo,,04,2.9833333,44.3
buurka,,08,1.88,42.3558333
buur koy,,09,-0.0333333,42.6
buur kuulow,,04,2.8166667,44.3833333
buuro bahale,,06,2.9833333,41.9666667
buur samarole,,06,2.7833333,41.25
buur samaroole,,06,2.7833333,41.2333333
buur weyn,,07,3.5666667,45.55
buur xaano,,07,3.1666667,45.4666667
buur xaraw,,06,3.1166667,42.9166667
buuryaqab,,10,7.35,47.6166667
buusleey,,14,2.4833333,44.8333333
buuxow,,14,2.35,44.8666667
caadey,,04,3.15,43.6
caadle dhalin,,07,3.25,45.7166667
caadley,,07,3.1,45.7166667
caag bashiir,,07,3.9833333,45.5666667
caag lebile,,07,3.55,45.6333333
caamir gacandheer,,13,2.2666667,45.6333333
caano,,13,2.6666667,45.3
caanoole,,06,2.0166667,42.3166667
caanoole,,08,1.0863889,42.5816667
caanoole,,14,1.7166667,44.4333333
caanooley aÄùaaÄù,,14,1.75,44.4833333
caanooley aÄùbaÄù,,14,1.7333333,44.5
caaqaboy,,07,4.25,45.3833333
caashe,,04,2.9166667,43.7666667
cabaasa,,16,10.1166667,43.2333333
caba,,09,-0.2333333,41.95
cabanca,,14,1.5833333,44.1666667
cabangifa,,01,3.5333333,43.5333333
cabangilo,,01,3.5333333,43.5333333
cabaydh,,12,10.8166667,47.45
cabbaas,,13,2.8833333,45.45
cabdalle,,14,1.9,44.7333333
cabdalle kakane,,08,0.5166667,42.75
cabdalle shacbaan,,04,2.7833333,44.2
cabdi abuukar,,14,1.7166667,44.45
cabdi cali,,08,0.7333333,42.65
cabdi cali,,14,1.75,44.4833333
cabdi daahir,,14,1.8166667,44.6166667
cabdi dheere,,16,9.0833333,44.7666667
cabdi faarah,,15,9.1833333,44.9833333
cabdi garuun,,04,2.95,43.3833333
cabdi kariim,,04,2.3666667,44.85
cabdillahi caddow,,14,1.8333333,44.6333333
cabdillahi mudey,,14,1.9,44.6833333
cabdille buur fuule,,14,2.3,44.8666667
cabdille,,14,2.3333333,44.8333333
cabdi uqaabi,,14,1.6833333,44.5
cabdiyow geedow,,04,2.8666667,44.25
cabdulle kudaad,,07,2.95,45.7166667
cabdulle xabad,,13,2.9166667,45.55
caboba,,08,1.5522222,42.4480556
cabobe,,08,1.5522222,42.4480556
cabuud waaq,,05,6.2166667,46.3833333
cadaad,,16,10.0833333,43.2666667
cadaad geri,,09,-0.0166667,42.7666667
cadaadle,,16,9.7666667,44.6833333
cadaadley,,16,9.7666667,44.6833333
cadaado,,05,6.15,46.6333333
cadaadoo,,05,6.15,46.6333333
cadaadoo,,09,-1.1,41.7333333
cadale,,13,2.75,46.3166667
cadaley,,14,2.4,45.25
cadaydheere,,14,2.6166667,45.05
caday kud,,04,2.6666667,43.9666667
cadayley,,14,2.2333333,45.0833333
cadayo,,03,11.0,51.1166667
cad caddey,,05,3.4666667,46.7833333
caddaan camey,,13,2.8,45.6833333
caddayle,,01,3.55,43.5333333
caddey barre,,14,1.4833333,44.0166667
caddey,,02,2.1,45.4666667
caddey,,04,2.4166667,42.8166667
caddey,,13,2.55,45.35
caddiimoole,,14,1.8,44.65
caddi qoqonay,,04,3.1,43.5166667
caddow uul,,13,2.8666667,46.1666667
cadduudo,,14,1.1666667,43.1333333
cadei barrey,,04,2.9333333,43.4333333
cadey bare,,14,1.4,43.9
cadey barwaaqo,,14,2.65,45.0666667
cadey,,08,1.9216667,42.3411111
cadow jurara,,15,9.2666667,45.4166667
cagaaran,,14,1.6833333,44.75
cagacade,,05,4.4166667,47.3666667
caga gable,,06,2.1666667,42.15
cag,,03,8.4333333,50.2333333
caggiaua,,08,0.5422222,42.7605556
cagioue,,03,11.95,50.7833333
cago,,03,11.0,49.2166667
caguri,,08,1.8677778,42.2927778
cahando,,05,5.9666667,47.1333333
caidero,,10,5.75,47.4833333
caiodo,,03,10.8666667,49.2666667
caisene,,13,2.8833333,45.2166667
caitei,,14,1.5166667,44.3
caitoi anjuma,,09,0.8,42.6
caitoi,,14,1.7833333,44.6833333
caizanei,,14,1.1166667,43.5166667
caje,,04,2.7166667,44.1666667
cajin,,11,8.4166667,49.8833333
cajuusa,,14,2.4666667,44.85
calaacule,,16,9.9166667,45.1
calaamo,,01,4.3833333,43.15
cala,,09,-1.5,41.5
calahargo,,11,8.3666667,48.7
calalio,,08,0.4669444,42.7480556
calama,,06,2.4166667,41.8166667
calan dabe,,15,8.75,45.9
calangalle,,09,-0.45,42.1
calasow aadan,,05,4.2166667,46.3666667
calasow,,13,2.65,45.3
cal cagaarre,,05,5.5166667,47.45
cal,,11,8.8166667,48.8333333
caleyow kerrow,,04,1.9052778,42.4472222
cal goble,,03,9.8666667,49.8
cali aadan,,16,9.0666667,44.6666667
cali alwaan,,13,2.7666667,45.6166667
cali axmed,,05,3.7,46.55
cali cayda,,05,4.5,47.45
calidheer,,07,2.9166667,45.45
cal iehed,,11,8.7666667,49.2
cali goble,,04,2.1833333,44.6166667
calihaarrey,,08,0.3,42.8666667
cali saahid,,15,9.1166667,45.3833333
caliweyd,,05,3.5166667,46.75
cali xaaji,,14,1.9166667,44.8
cali xirel,,14,1.8166667,44.65
caliyaale,,13,2.1833333,45.4
caliyo erbow,,04,1.8694444,42.6627778
caliyo marayle,,04,2.9333333,43.3333333
caliyow cusmaan,,04,2.75,44.2
caliyow dooyo,,04,2.9166667,43.7833333
caliyow eene,,04,3.25,43.5166667
caliyow muumin,,04,2.9833333,43.5166667
callis,,11,8.4333333,49.0833333
callyabaal,,05,3.9666667,47.0833333
cal marthal,,03,8.6666667,50.35
cal marthat,,03,8.6666667,50.35
calmasso,,03,9.9333333,50.7333333
caloolacad,,07,4.65,45.2166667
calula,,03,11.9666667,50.75
caluula,,03,11.9666667,50.75
cal yihed,,11,8.7666667,49.2
calzafel,,04,3.0666667,43.5333333
calzane,,04,3.0666667,43.5333333
camadheere,,15,9.25,45.0833333
camalka,,04,3.1666667,43.55
cambaar,,03,9.7333333,49.45
cambanaani,,14,1.8166667,44.7666667
cambarey,,14,1.5166667,44.4333333
cambarow,,04,2.2,44.6666667
cambuul lebi,,04,2.7166667,44.15
cambuul madhabey,,04,2.6833333,44.1333333
cambuul weyne,,04,2.7,44.15
cambuul xaraar,,04,2.7166667,44.15
camora bali,,09,0.1666667,41.3166667
camora ball,,09,0.1666667,41.3166667
camor gila,,09,-0.2166667,41.1833333
camsuma,,09,0.2552778,42.7816667
camtande,,08,0.4933333,42.7572222
camtaraa,,03,11.4413889,49.5530556
canalow,,14,1.6833333,44.4833333
cananoola,,04,1.9347222,42.6030556
canbar,,14,1.5,44.0666667
candala,,03,11.4711111,49.8738889
cangianau,,14,2.7333333,44.8
cangiara,,09,0.5166667,41.6666667
canierei el gof,,06,3.2,43.1666667
canjeel,,03,10.95,50.2666667
canjeel,,09,-0.15,42.4
canjeel,,16,3.9666667,43.8
cankhor,,11,10.7763889,46.1947222
canoole cise,,06,2.0166667,42.3166667
cansuma,,09,0.2552778,42.7816667
cantama,,06,2.4166667,41.8166667
cantor,,10,5.7,48.35
capanne,,05,4.5333333,46.6333333
caqaqable,,06,2.1666667,42.15
caraay,,04,2.8333333,44.0666667
caracase,,06,3.75,42.5333333
carah guduud,,04,3.1166667,43.5833333
carbis,,14,2.1166667,45.1666667
cardale,,08,1.1130556,42.5947222
carfuuda,,05,4.8333333,47.8
carin,,03,10.9833333,49.2166667
carmaale,,12,10.48,47.9597222
carmaale,,16,10.6333333,44.0166667
carmoole,,13,2.8333333,45.3666667
carmoole,,14,1.9166667,44.7333333
carmooy,,14,1.75,44.4333333
caro,,04,2.9,44.0833333
carou dere,,04,2.7666667,43.9666667
caroweyn,,15,8.5333333,46.6
carranca,,04,2.9,44.2666667
carre,,04,3.2666667,44.3666667
carro muse case,,16,9.55,43.85
carrooley,,11,8.85,48.15
car weeyn,,03,9.0166667,50.25
casce dibin,,09,-0.7,41.0
caschei,,08,0.9219444,42.5988889
cascia debin,,09,-0.7,41.0
casciddo,,14,1.15,43.7166667
cashaaro,,04,1.8333333,42.7
casha-gaabo hubeyrad,,04,3.2833333,43.65
cashow berkaan,,04,2.95,44.0333333
cashow,,04,3.4166667,43.5166667
cashur,,01,3.9166667,44.35
casirmaal,,13,2.7,45.3333333
catama,,06,2.4166667,41.8166667
catro,,03,11.7,50.4666667
cauitti,,09,-0.5833333,41.0333333
cautti,,09,-0.5833333,41.0333333
cawaalegubtey,,05,3.7833333,46.45
caw,,09,0.55,41.4166667
cawjab,,14,1.7166667,44.3833333
cawle,,07,3.5666667,45.6
caynaba,,15,8.95,46.4333333
cayngala,,16,9.7,43.3833333
caynle,,16,9.4166667,44.1666667
ceeg bilcille,,15,9.3833333,45.25
ceek,,15,9.0,45.3666667
ceelaayo,,12,11.2455556,48.8925
ceel ableey,,05,4.4166667,47.3333333
ceel-adde,,07,3.2333333,44.7666667
ceelafweeyn,,12,9.9166667,47.25
ceel afweyn,,12,9.9166667,47.25
ceelal,,15,9.9166667,46.25
ceel andalle,,14,0.7666667,43.6166667
ceel awdala,,14,0.7666667,43.6166667
ceelay,,03,9.7833333,49.1666667
ceel baari,,08,2.05,42.4
ceelbacduur,,10,6.4166667,49.0833333
ceel baraf,,07,3.2333333,45.7666667
ceel bashaqley,,13,2.4833333,46.0666667
ceel baxay,,07,4.8,46.15
ceel baxay,,16,10.3,42.9666667
ceel bay,,04,2.7666667,43.2833333
ceel berdaale,,04,3.2333333,43.1833333
ceel berde,,01,4.8333333,43.65
ceel bisiq cadde,,04,2.4666667,43.7666667
ceel buh,,03,9.0833333,49.5833333
ceelbuh,,12,10.2333333,48.3
ceel burro,,06,2.9833333,42.5833333
ceelbuur,,05,4.6833333,46.6166667
ceel caali,,07,4.2,44.9833333
ceel cabdi,,05,4.4833333,47.95
ceel cabdow,,14,1.6833333,44.7
ceel cad,,03,11.45,50.0
ceel cad,,06,3.0333333,41.8666667
ceel cad,,13,3.1,45.35
ceel cali,,07,4.2,44.9833333
ceel-cali,,07,4.2,44.9833333
ceel carab,,03,11.7333333,50.5666667
ceel carraale,,13,2.9666667,46.55
ceel,,11,7.9833333,49.8166667
ceel dameer,,11,9.3,48.5166667
ceel dhaareed,,16,10.7166667,45.6
ceel dhahanaan,,10,6.5833333,49.1333333
ceel dheem,,07,3.5,45.4833333
ceeldheer cammaara,,05,5.2666667,47.9166667
ceeldheere,,05,3.85,47.2
ceel dheere,,05,4.6833333,47.7833333
ceel dheere,,07,3.4833333,46.0833333
ceel dheere,,15,5.3666667,46.1833333
ceel dhiinle,,07,5.4166667,45.4166667
ceel dhogonle,,07,3.6666667,46.25
ceel dhooble,,06,4.05,42.8333333
ceel diinle,,07,5.4166667,45.4166667
ceel doofaar,,03,10.6333333,49.0333333
ceel doon,,04,3.2166667,43.7
ceelduur calan,,12,10.1261111,46.3522222
ceelgaalaad,,10,5.45,48.4166667
ceel gaal,,03,11.25,51.0666667
ceel gaal,,07,4.8333333,45.2333333
ceel gaal,,16,10.9833333,43.4333333
ceel garab jeelow,,06,3.6666667,42.5
ceel-garas,,01,4.15,44.2166667
ceel garas,,04,2.3833333,42.6
ceel garas,,10,5.2666667,47.6
ceelgod,,07,4.6333333,46.0833333
ceel goof,,04,2.9166667,43.6833333
ceel gool,,13,3.35,46.7
ceel gudo,,01,4.1166667,44.35
ceel guduud,,06,3.0833333,42.6
ceel guuloo,,13,3.45,47.0
ceel heji,,01,3.9333333,44.0333333
ceel huur,,10,5.0069444,48.2691667
ceel jaalle,,14,1.6833333,44.7166667
ceel jilib,,05,3.8,47.1166667
ceel lafoole,,07,3.3833333,45.5
ceel lahelay,,04,2.5166667,42.9666667
ceel lahelay,,11,9.3666667,47.15
ceel laqoday,,12,10.6402778,47.4141667
ceellow,,13,2.3,45.6333333
ceel mageed,,13,3.2,46.8
ceel makoile,,07,3.8,45.2166667
ceel masaare,,04,2.5833333,43.9333333
ceel muudaan,,10,6.5833333,46.65
ceel qaraare,,14,2.5333333,44.8833333
ceel qoxle,,05,4.85,46.5166667
ceel same,,15,9.3833333,45.1666667
ceel shaama,,06,2.7833333,41.0
ceel shiikh,,14,1.5,44.4666667
ceel waran,,06,3.2333333,42.7333333
ceel wareegow,,14,1.7666667,44.4666667
ceel xarar,,07,3.1833333,45.7
ceelxarar,,10,4.8,48.15
ceel ya,,01,4.0166667,44.1666667
ceerigaabo,,12,10.6180556,47.37
ceeshoy,,13,2.7166667,45.3166667
ceganloo,,05,4.4666667,47.6333333
ceg,,15,9.0,45.3666667
cehan,,05,4.6333333,46.4833333
celaya,,12,10.7666667,47.3
celbashaqley,,13,2.4833333,46.0666667
cerigaabo,,12,10.6180556,47.37
ceymog,,07,3.9166667,45.5
ceynte,,07,2.95,45.5333333
chale,,07,5.2,45.2
cheli gu,,07,4.4333333,45.0833333
chelihet,,11,8.7666667,49.2
chellihet,,11,8.7666667,49.2
chelliheto,,11,8.7666667,49.2
chenaf,,08,1.5833333,41.5333333
chiambone,,09,-1.65,41.5833333
chiamboni,,09,-1.65,41.5833333
chidivani,,09,-1.15,41.75
chirchirri,,01,4.7166667,44.7
chisimaio,,09,-0.3666667,42.5333333
chisimayu,,09,-0.3666667,42.5333333
chivasciapisci,,09,-0.8833333,42.1
ciacalassai,,09,-1.3333333,41.7833333
ciddei jebis,,03,9.8,50.0666667
cigala hooleey,,04,2.65,44.5333333
cigalle hooley,,04,2.7166667,44.4833333
ciiradhame,,03,10.5,49.3666667
ciisaay,,14,2.7333333,44.9
cilaan,,06,2.5,42.55
cilmi,,08,1.4294444,42.4158333
cilmi nuux,,14,1.8833333,44.7
cilmi shiixaale,,07,3.5333333,45.5833333
ciraadhame,,03,10.5,49.3666667
cirai cheli dere,,10,6.3,48.9
cir kud,,06,3.5166667,42.7833333
cismaan yarow,,08,1.2188889,42.5513889
cocaio,,06,2.7666667,41.15
cogarti,,03,11.5166667,50.3
coiama,,09,-0.6166667,42.35
coiamani,,09,-0.65,42.3333333
colbio,,09,-1.15,41.2166667
colguula,,10,6.0166667,47.85
collog,,03,11.85,51.2
colole bar,,04,2.0166667,43.65
colomat,,02,2.1,45.4
colundi,,13,2.8,45.5166667
comauala,,09,-1.55,41.55
comia,,14,1.1,43.4833333
corair,,13,2.9833333,46.2
coralehe,,03,11.4166667,51.0166667
coralle,,01,4.3166667,43.05
corbesa,,09,-0.7333333,41.3666667
corbes,,09,-0.7333333,41.3666667
corcameri,,06,2.25,42.2833333
corfon,,06,3.15,42.0333333
coriamo,,06,3.8333333,41.9166667
coriamu,,06,3.8333333,41.9166667
corieli,,03,11.2166667,51.0
corio,,09,-0.5833333,41.0166667
coriole,,14,1.7833333,44.5333333
coriolei,,14,1.7833333,44.5333333
cormale,,09,-0.3,41.0833333
coron barrei,,04,2.7166667,44.0166667
coron derei,,04,2.7666667,43.9666667
coron scide,,04,2.7833333,43.9833333
cororo,,09,-1.4166667,41.4333333
corou barrei,,04,2.7166667,44.0166667
corou scide,,04,2.7833333,43.9833333
correva,,13,2.4666667,45.4833333
corsindere,,06,2.55,42.3
corucdoro,,04,3.2833333,43.6166667
covon,,09,0.0397222,42.7133333
cubi coude,,14,1.55,43.55
cubocso,,03,10.0333333,50.1333333
cubosco,,03,10.0333333,50.1333333
cuca,,09,0.7333333,42.45
cuchettu,,06,2.15,42.1833333
cudai,,09,-1.0333333,41.9666667
cu daio,,09,-1.0333333,41.9666667
cudanlay,,15,8.3333333,46.4833333
cuddama,,06,3.3,41.4666667
cudo,,03,10.0666667,49.5166667
cugni barro,,14,0.7833333,43.4166667
cugni fara,,04,2.5833333,44.1333333
cuis dera,,09,0.25,41.45
culli,,10,5.9666667,48.9333333
culmis iero,,13,2.6166667,45.5166667
culume allango,,09,0.8166667,41.6
culume dagaga,,09,0.8166667,41.5833333
cumar aadan,,16,9.7,43.65
cumar abooke,,08,0.4691667,42.9172222
cumar beerre,,14,2.2,45.05
cumar bulle,,07,3.75,45.6
cumar cusmaan,,13,2.7666667,45.65
cumar maxamoud,,14,1.7,44.5333333
cumaroow ibrahim,,04,2.4333333,44.8
cumarow maddow,,04,3.2833333,43.6166667
cumberere,,08,0.5811111,42.7155556
cumlamo,,08,0.4027778,42.7413889
cumtere,,09,0.2683333,42.7405556
cundulah,,15,9.0333333,45.55
cuno qabad,,16,9.45,44.0333333
curale,,08,1.5002778,42.4658333
curao,,06,2.4333333,42.1333333
curare,,14,2.1666667,45.1833333
curcurta,,04,2.9,44.2333333
cursi,,06,2.4666667,41.1666667
cursole,,13,2.2333333,45.4166667
curtum,,14,1.6,44.35
curtumo,,10,7.4,48.9666667
curtum uaro,,14,1.6,44.35
curuae,,08,1.6916667,42.4044444
curucdoro,,04,3.2833333,43.6166667
cusbooley,,08,0.5383333,42.7519444
cusbooley,,14,1.7333333,44.5833333
cusmaan khamisow,,14,1.8333333,44.7
cusmaan mooto,,08,0.6955556,42.6969444
cusmaan moto,,09,0.05,42.7166667
cusmaan quule,,14,1.75,44.7666667
cusmaan xasan,,14,1.85,44.85
cut berai,,08,0.7294444,42.9338889
cutcudale,,09,-0.45,42.1333333
cuutooyin,,16,10.8166667,43.1166667
daaddaale,,05,4.95,46.1333333
daad jerow,,14,0.8333333,43.1833333
daafeed,,05,4.6333333,46.7666667
daafet,,05,4.6333333,46.7666667
daamo,,03,11.8166667,51.2333333
daamo,,12,10.6666667,48.75
daanti,,14,1.7833333,44.65
daanyeere,,08,1.9111111,42.2594444
daarasalaam,,14,1.9333333,44.7666667
daarbuduq,,16,9.85,44.5333333
daaro,,04,2.9166667,43.3333333
daauudow,,04,2.9833333,43.6833333
dabaan,,07,4.5666667,45.25
dabab,,14,1.95,44.9666667
dabacaddo,,16,9.7666667,43.3333333
dabacore,,01,3.65,43.2166667
daba,,06,3.0166667,41.2
daba galay,,14,2.6333333,45.0666667
dabagale,,05,4.9166667,47.6666667
daba gallo,,10,5.7,47.85
dabagalo,,10,5.7,47.85
daba garo,,15,8.6666667,45.8666667
dabalul,,15,9.1166667,45.3833333
daban,,07,4.5666667,45.25
dabandoob,,02,2.1333333,45.35
daba qabad,,15,8.6833333,45.8166667
daba qalooc,,10,5.7,47.85
dabaro,,09,6.35,48.7166667
dabataag,,11,8.1166667,47.15
dabayoodle,,07,4.05,45.4666667
dabdera,,16,9.5,44.5
dabder,,03,10.5,51.2
dabdheera,,16,9.5,44.5
dabeylley,,07,2.9166667,45.4333333
dabeylow,,04,3.2333333,43.6
dabiil,,14,1.7666667,44.6
dab nar,,05,4.6,46.4333333
dabo dheer,,08,2.15,42.2833333
dabodheere,,07,3.8,45.5833333
dabo kabud,,11,8.25,46.6666667
dabool yarey,,14,2.8,45.05
dabooye,,16,9.3333333,43.9166667
daborow,,09,6.35,48.7166667
daboy,,16,9.3333333,43.9166667
dab xarar,,05,4.6166667,46.45
dacaar,,07,3.0166667,45.6666667
dacarbudhug,,16,9.85,44.5333333
dacar,,13,3.0666667,46.3666667
dacarre,,04,2.8166667,44.0833333
dacarre yarey,,04,2.8166667,44.1
dacatch,,06,2.0666667,42.2166667
dacawalay,,16,9.3833333,43.9166667
dadabalo,,03,11.25,51.0333333
dadabli,,06,3.2333333,41.7166667
dada gumbi,,09,-0.1833333,41.25
dadar,,03,11.1230556,49.8719444
dad gumbi,,09,-0.1833333,41.25
dadian,,04,2.9333333,44.1333333
dadjenai,,04,3.05,43.6
dadle,,05,5.3333333,46.9666667
daduma addi,,06,2.7,41.25
dafed,,05,4.6333333,46.7666667
dafet,,05,4.6333333,46.7666667
dagaalyahan,,06,3.7833333,42.55
dagaane,,15,10.0833333,45.1666667
dagaari,,10,6.55,47.2833333
dagaariweeyn,,10,6.55,47.2833333
daga,,16,10.0,43.8333333
dagaduud,,04,3.0833333,43.65
daga hab,,03,11.0833333,49.6833333
dagahad,,03,11.0833333,49.6833333
dagah gudud,,12,10.7063889,46.315
dagah waraba,,16,10.0,43.8333333
daga laha uein,,11,8.05,49.9333333
daga laha uen,,11,8.05,49.9333333
dagal,,01,3.5166667,43.8666667
dagane,,15,10.0833333,45.1666667
daga xaab,,03,11.0833333,49.6833333
dagay beerre,,14,1.7833333,44.5333333
daggaras,,08,1.8322222,42.3808333
daghegh,,04,3.2666667,44.0
dag lahaa,,11,8.05,49.9333333
dag laha,,11,8.05,49.9333333
dag mareer,,06,2.6833333,42.2
dagnerei,,14,1.9166667,44.7833333
dag qoono,,06,2.5166667,42.3
dahar,,08,0.9491667,42.6216667
daharro,,07,3.8833333,45.55
daieno,,05,6.3,46.6833333
dai garas,,09,0.0380556,42.7325
daio,,05,2.7,44.1833333
daio,,14,1.1666667,43.7166667
dai saffi,,14,2.1166667,45.0833333
dai sufi,,14,2.1166667,45.0833333
daiyer gal,,16,10.7333333,45.6833333
dajimaale,,10,6.2833333,48.2333333
dajimale,,10,6.2833333,48.2333333
dakhanyado,,15,9.5,45.6
dalaama,,08,0.5833333,42.7166667
dalaash,,13,2.6666667,45.6166667
dalaroobare,,14,1.7333333,44.6
dallantale,,11,9.05,48.4833333
dallantali,,11,9.05,48.4833333
daloh,,12,10.7666667,47.3
dalooldho,,16,9.6,44.0666667
dalordo,,16,9.6,44.0666667
dalweyn,,03,10.2666667,49.0666667
dalxiiska,,09,-0.3333333,42.5666667
damairor,,05,4.15,46.4666667
damaley,,13,2.5,45.5
damalle,,07,3.4166667,45.6
damassa,,06,3.15,41.3333333
dambale,,04,3.0166667,43.5333333
dambaley,,08,0.6702778,42.7113889
dambarre,,03,10.9666667,49.1
dameerale,,14,2.25,45.1333333
dameer,,15,9.9166667,45.35
damellei,,08,0.6702778,42.7113889
damerabob,,16,9.4,43.4833333
damer fort,,11,9.3,48.5166667
damettei,,09,0.6666667,42.7166667
damo,,03,11.8166667,51.2333333
damo,,12,10.6666667,48.75
danaaley,,04,2.8666667,44.1166667
danab qoy,,04,2.7166667,43.9166667
danakuus,,14,2.6333333,45.0666667
danane,,14,1.8725,45.0311111
danan gaolod,,11,9.0333333,48.2833333
danan toleh,,11,9.05,48.4833333
danbale,,04,2.8166667,44.0166667
danbar,,04,3.2333333,43.6166667
dancug,,03,10.9666667,49.0666667
dandamale,,03,10.9833333,49.9833333
dandan,,15,8.7666667,45.9333333
dangnerei,,14,1.9166667,44.7833333
dangnerrei,,14,1.9166667,44.7833333
dan gorayo,,11,8.7333333,49.3333333
dan goreio,,11,8.7333333,49.3333333
dani,,14,2.7833333,45.1
danis sipi,,08,0.15,41.4166667
dante,,03,10.4166667,51.2666667
dan wadaag,,14,2.4833333,44.9666667
danyar,,04,3.1166667,43.6
darabqooy,,04,2.7,43.9166667
dara davo,,11,8.7,48.85
daradawanle,,16,10.0,44.2
dar ad,,11,9.3,48.5166667
daradhur,,03,11.15,50.0666667
daragodle,,16,10.1619444,44.8519444
daragoldeh,,16,10.1619444,44.8519444
darale,,03,11.6333333,50.5
daran taleh,,11,9.05,48.4833333
dara ouaha,,16,9.8666667,43.3
dararweyne,,12,9.75,47.5166667
dararweyne,,16,9.7166667,44.2333333
dara waha,,16,9.8666667,43.3
daraweina,,16,9.7166667,44.2333333
daraweine,,16,9.7166667,44.2333333
dara woha,,16,9.8666667,43.3
dara wuha,,16,9.8666667,43.3
darburruk,,16,9.7333333,44.5166667
darcheimo,,05,4.3,46.3333333
darfacle,,16,9.4,44.05
darimoh,,03,9.05,50.5833333
daringaret,,12,9.4666667,47.5833333
darinne,,03,10.2833333,50.35
darin tog,,11,8.2333333,48.2666667
dari sal weyn,,03,11.1333333,50.3833333
daris,,03,1.3,50.0666667
darka,,16,9.65,43.5666667
darligada aw shiikh maxamed rooble,,06,3.2,43.1666667
daro,,04,2.9166667,43.3333333
darre,,11,8.8333333,47.8333333
darrei donta,,03,11.25,50.4333333
darrei sal uein,,03,11.1333333,50.3833333
darrei sal uen,,03,11.1333333,50.3833333
darrin garsit,,12,9.4666667,47.5833333
darrow,,06,3.3333333,43.1333333
darsi,,12,9.4666667,47.2833333
darso,,12,9.4666667,47.2833333
daryaleh,,15,8.4166667,45.7666667
dauli,,03,8.8833333,50.4333333
daveboriale,,16,8.75,44.8333333
davegoriale,,16,8.75,44.8333333
dawanle,,14,2.55,44.8833333
dawla,,01,4.05,44.4
dayaha,,12,10.5825,47.1891667
dayaxa,,12,10.5825,47.1891667
dayax,,08,0.4258333,42.8827778
daydoog,,14,1.5833333,44.55
dayer gal,,16,10.7333333,45.6833333
daylaale,,04,2.7833333,44.15
daymasame,,13,2.6833333,45.5166667
dayma shiikh,,16,9.45,43.7833333
daynuunay,,04,3.05,43.8166667
dbiingaras,,07,3.05,45.45
deb arar,,07,3.0833333,44.9
debatscile,,10,5.1666667,48.1333333
deb boni,,03,9.65,49.05
deb gorum,,07,3.2833333,45.1333333
debriomene,,16,10.0,43.1666667
deb scinnele,,07,3.0333333,44.9166667
debweyn,,04,2.65,43.15
dec curbes,,06,2.6,41.05
deebley,,13,2.4,45.9666667
deegaan,,05,4.7,47.8166667
deegaanta,,14,1.75,44.6666667
deega,,04,2.95,44.1
deeleb,,04,3.2166667,43.85
deg adei,,08,0.6158333,42.935
degagan,,10,5.6333333,48.4166667
degagou,,10,5.6333333,48.4166667
degari,,04,1.8666667,44.1333333
deg biti,,14,2.65,45.0666667
degdaa,,04,2.8833333,44.1833333
degeelow,,14,2.65,45.0833333
deg eri,,04,1.8666667,44.1333333
deg gonay,,04,3.0333333,43.55
degh adei,,08,0.6158333,42.935
degh ari,,04,1.8666667,44.1333333
degh godut,,04,3.25,43.7
deg hiray,,14,0.85,43.45
degis,,07,3.45,45.6166667
deg jannaay,,14,1.7,44.6
degmuduush,,04,2.2166667,44.8333333
degsisinta,,04,2.1166667,44.5833333
degta reidab,,06,2.85,42.2833333
deg-ti alima,,06,2.7833333,41.6833333
degwariirow,,14,1.85,44.6833333
deh-cabo,,03,10.8,51.1
dehi,,10,5.2166667,47.45
deimasame,,13,2.6833333,45.5166667
dejah uar,,06,2.2666667,41.8666667
deladar,,04,2.2,43.0666667
deleb,,04,3.2166667,43.85
delenle,,10,5.65,48.35
delenlei,,10,5.65,48.35
denli,,06,2.8,42.1
denouda digdiglei,,11,7.3333333,49.6
den ueine,,07,4.1833333,45.6166667
den uene,,07,4.1833333,45.6166667
der ad,,15,8.9333333,46.6333333
dereboshile,,04,2.8,43.7666667
derersin,,01,3.85,44.3666667
derma,,06,3.5,41.75
dermangit,,01,4.35,42.9666667
dermatile,,11,8.6333333,47.8833333
dermatileh,,11,8.6333333,47.8833333
dermatisle,,11,8.6333333,47.8833333
dermo,,06,3.5,41.75
dermodo,,13,2.6666667,46.2166667
dermu,,06,3.5,41.75
derri,,05,4.3333333,46.6166667
dhaankadus,,03,11.2833333,50.3
dhaay garas,,09,0.0380556,42.7325
dhaayow,,05,2.7,44.1833333
dhabancaddo,,11,7.7833333,48.8666667
dhabaq lebi,,07,3.6333333,46.2333333
dhaboolaq,,16,9.5166667,43.8666667
dha dhacle,,04,2.35,44.7333333
dhafaad fuurka,,04,2.7,43.6333333
dhagardheere,,04,2.5166667,44.0166667
dhagaxow,,13,2.5166667,45.4833333
dhahar,,12,9.75,48.8166667
dhahiro,,04,3.1,43.6
dhajalokh,,14,2.1666667,45.1666667
dhajimaale,,10,6.2833333,48.2333333
dhalanya dhuux,,16,9.8,43.9833333
dhallaamocune,,15,8.3666667,46.6
dhallmaanyoley,,14,1.7333333,44.4333333
dhalwo,,05,4.5666667,47.5666667
dhamaji,,04,3.0333333,43.8166667
dhamas,,06,3.15,41.3333333
dhamaso,,06,3.15,41.3333333
dhamme yaasiin,,14,1.7333333,44.65
dhanaane,,14,1.8725,45.0311111
dhanaano,,15,9.4666667,46.6166667
dhanabo,,07,3.9833333,44.65
dhanful,,01,4.1833333,43.9833333
dhan gorajo,,11,8.7333333,49.3333333
dharaamey,,14,2.4333333,44.85
dharabo,,04,2.3333333,44.8166667
dhariigada,,01,4.2333333,43.9166667
dharkaynley,,09,-0.6,41.9833333
dharkaynley,,14,1.7833333,44.4833333
dharkaynta,,07,4.7833333,45.2
dharkeenley,,07,2.9666667,45.7
dharkeyn kuus,,06,3.9833333,43.1166667
dharooy,,14,1.8666667,45.0166667
dharuurada,,04,2.3,44.8333333
dhas,,06,2.8666667,41.4666667
dhawey,,04,2.65,44.1666667
dhaweynta,,08,1.7491667,42.3397222
dhaxanley,,14,2.7666667,45.15
dhaxtal,,07,4.1666667,45.6166667
dhayo,,08,0.2333333,42.7833333
dhayo,,14,1.1666667,43.7166667
dhaysiya,,14,2.5833333,45.0333333
dhaze,,06,2.8666667,41.4666667
dhedhey,,08,0.5666667,42.7
dheenka,,04,2.6166667,43.95
dheenle,,06,2.6,42.1
dheenlo,,06,2.8,42.1
dheere,,04,3.1833333,43.65
dhegari,,04,1.8666667,44.1333333
dheg cadey,,08,0.6158333,42.935
dhejiile-masbadane,,06,3.15,43.1333333
dhejis,,07,3.45,45.6166667
dhema,,01,3.8166667,44.5166667
dhex-yaal,,04,3.2833333,43.4
dheydhey,,08,0.7147222,42.6902778
dhey tubaako,,08,0.4897222,42.9402778
dhigleey,,06,4.2333333,42.9166667
dhiigfaar,,04,2.8333333,44.1833333
dhiiktaare,,14,2.6,44.9833333
dhiinsoor,,04,2.4,42.9833333
dhiiqooley,,14,1.75,44.45
dhilaalo,,15,8.45,46.4666667
dhimbil,,08,0.2333333,42.7666667
dhinawda dhigdhigley,,11,7.3333333,49.6
dhinbi riyaale,,16,9.2666667,44.1166667
dhira doba,,11,8.7,48.85
dhisheek,,08,2.15,42.3
dhismaale,,13,2.7333333,45.65
dhisma,,08,0.8725,42.9958333
dhokaal,,08,1.0083333,42.6005556
dhokay,,08,1.6738889,42.3880556
dhoobleey,,06,2.5,42.3166667
dhooblow,,14,1.8666667,44.6333333
dhoobo,,16,10.2833333,43.2666667
dhoqor,,07,4.5333333,45.2833333
dhorzi,,03,10.4333333,51.2333333
dhoze,,06,2.8666667,41.4666667
dhubbato,,16,9.7333333,44.4666667
dhuboi,,04,2.7,42.9
dhuboy,,04,3.05,43.45
dhukheere,,14,1.1833333,44.0166667
dhukow,,14,1.7666667,44.5833333
dhulbaanta,,04,2.9333333,43.6666667
dhulgaab,,14,0.9833333,43.5333333
dhumayle,,14,2.6166667,45.1
dhumay uusle,,14,2.5666667,45.0166667
dhumey,,04,2.9666667,43.95
dhummay,,15,8.3333333,47.0666667
dhun dhutaay,,04,2.85,43.8
dhunfa,,09,-1.0833333,41.3333333
dhungaal,,16,9.6333333,43.7333333
dhungoye,,14,1.4333333,43.9333333
dhuqay,,08,1.8080556,42.3111111
dhurbo,,03,11.6166667,50.3333333
dhur cilaan,,12,10.1261111,46.3522222
dhur,,03,9.25,50.6
dhuroow,,14,1.7666667,44.7166667
dhursheen,,01,4.1166667,43.8666667
dhurwayle,,13,2.9666667,45.4666667
dhusundhus,,04,3.1833333,43.55
dhuubow,,04,2.7166667,44.0833333
dhuudo,,03,9.3333333,50.2
dhuumey,,04,2.25,44.8333333
dhuumow,,06,3.9166667,42.2833333
dhuur belle,,04,3.3666667,43.2166667
dhuusa mareeb,,05,5.5166667,46.4
dhuusamarreeb,,05,5.5166667,46.4
dibatag,,11,8.1166667,47.15
dibdabib,,04,2.8666667,43.4666667
dib dabiib,,04,2.8666667,43.4666667
dibdibib,,04,2.8666667,43.4666667
diblaay,,14,1.5166667,44.4666667
dibrio meleh,,16,10.0,43.1666667
dib ul chena,,09,-0.2333333,41.1166667
dicu,,09,0.5333333,41.25
didinchi,,03,11.4666667,49.6166667
didinki,,03,11.4666667,49.6166667
didir,,08,-1.3833333,41.4333333
didir lafcad,,08,-1.3833333,41.4333333
didir musso,,09,-1.4833333,41.5833333
diga,,14,1.85,44.6666667
digbiti,,14,2.3333333,44.8833333
digbooday,,14,2.4166667,45.0666667
dighelli,,11,7.8333333,49.4833333
digh merer,,09,0.9166667,41.1333333
digiuma,,08,1.2533333,42.5708333
diglei,,06,4.2333333,42.9166667
digley,,06,4.2333333,42.9166667
digto,,04,3.3,44.2333333
diidow,,14,2.55,45.1333333
diiga,,01,3.6666667,43.7333333
diini goobaale,,16,9.4166667,43.6
diinle maxaadi,,14,1.8666667,44.8
diinsoor,,04,2.4,42.9833333
diiqow,,04,3.2166667,43.55
dila,,16,10.3833333,43.2333333
dilduch,,09,0.5,42.6833333
dilla,,16,10.3833333,43.2333333
dinawdadigdigley,,11,7.3333333,49.6
dinlaabe,,13,3.05,45.5166667
dinlave,,13,3.05,45.5166667
dinouda digdiglei,,11,7.3333333,49.6
dinsoor,,04,2.4,42.9833333
dinsor,16149,04,2.4,42.9833333
dirbi gogesa,,16,9.75,43.5333333
dirdir muso,,09,-1.4833333,41.5833333
dirdir musso,,09,-1.4833333,41.5833333
diriale,,16,9.4,44.05
diriye,,14,1.7666667,44.4833333
dirri,,05,4.3333333,46.6166667
ditta sara,,09,-0.3166667,41.4166667
doblai,,14,1.5166667,44.4666667
dobo,,16,10.2833333,43.2666667
dobogubud,,15,8.2166667,46.65
dobo kabud,,15,8.2166667,46.65
dobo weine,,16,9.3166667,44.8666667
docol,,10,6.4333333,47.4833333
docoley,,07,3.25,45.75
dodol,,04,2.3166667,43.5666667
dodole,,04,2.3166667,43.5666667
doffe,,06,1.6833333,42.4
doganheieh,,03,10.5,50.9833333
doganhejeh,,03,10.5,50.9833333
doghei,,03,10.5666667,50.7166667
dohol iere,,10,6.4333333,47.4833333
dohollei,,13,2.3,45.35
doigab,,14,0.9833333,43.5333333
doilale,,04,2.7833333,44.15
dola,,09,-1.0166667,41.15
dol,,10,6.0166667,48.2
dol ierei,,09,-0.35,42.4
dolo,,06,4.1666667,42.0833333
dolow,,06,4.1666667,42.0833333
donca,,14,1.4666667,43.75
dondere,,13,2.8333333,45.6166667
don,,16,11.2386111,43.1233333
dongab,,14,1.9,44.9
don merer,,13,2.8833333,45.2
doobaro,,09,6.35,48.7166667
doobis,,14,1.8,44.7
dooday,,04,2.05,42.6333333
dooday,,06,3.2166667,42.9333333
dood,,14,2.75,45.1666667
doofaaro qod,,11,9.1166667,48.4166667
doog yarey,,04,2.85,44.2166667
doolaawe,,14,2.5666667,44.9666667
doola,,09,-1.0166667,41.15
doola yaabeen,,07,4.4166667,45.3333333
doolo qoyan,,07,4.4166667,45.3166667
doolow,,06,4.1666667,42.0833333
doomaar,,01,3.9666667,44.35
doomcadale,,13,2.45,45.2833333
doon aw suurre,,14,2.2,45.1166667
doon bilow,,14,1.7666667,44.45
doon buraale,,14,1.7166667,44.45
dooncadayga,,13,2.7166667,45.3333333
doondheere,,07,3.45,45.5833333
doon dheere,,07,4.4,45.3
doondheere,,13,2.6166667,45.3166667
doon dheere,,14,1.7833333,44.7166667
doon dheero,,01,4.1166667,43.9666667
doon,,16,11.2386111,43.1233333
doongaab,,10,6.1166667,47.4166667
doon idow,,14,1.7,44.4333333
doonka daafeedow,,14,1.7666667,44.6666667
doonka,,14,2.1666667,45.1833333
doon shuule,,13,2.7333333,45.6666667
doon soomaali,,07,3.1333333,45.6666667
doonwaafle,,14,2.7,44.8833333
doon weyne,,14,2.25,45.1
doon yare,,14,2.2666667,45.1166667
doora weere,,01,3.7333333,43.7833333
dooye shiidle,,04,2.7166667,44.0166667
dooy gadabay,,04,2.9833333,44.1166667
dooyo cadde,,07,3.15,45.7666667
dooy ruq,,04,2.7,44.05
doudoubassa,,16,10.8833333,43.0666667
doygaab,,14,0.9833333,43.5333333
doygab,,01,3.9833333,44.1333333
doylale,,14,1.5666667,44.0833333
drersin,,01,3.85,44.3666667
druski,,15,8.5166667,45.4666667
dubar,,15,9.8666667,45.25
dubar,,16,10.3375,45.0555556
dubato,,16,9.7333333,44.4666667
dubri,,09,-0.3166667,41.2166667
duburaha,,16,9.5833333,43.7166667
dubur,,15,9.8666667,45.25
duca degli abruzzi,,14,1.95,44.8333333
ducan udda,,14,1.3833333,44.2666667
duddumai,,14,2.5833333,44.8
duddum har,,01,4.9166667,44.55
duddumia,,04,2.8333333,44.1166667
duddumo,,14,1.0666667,43.85
duddun dheer,,13,2.8166667,45.2
dudduumo,,14,1.0666667,43.85
dudo,,03,11.05,49.1166667
dudub asa,,16,10.8833333,43.0666667
dudubassa,,16,10.8833333,43.0666667
duduble,,13,3.15,45.5333333
duduble,,14,2.3333333,44.95
dudufodlei,,07,3.1666667,44.7833333
dudumaay,,14,2.5833333,44.8
duduma,,14,1.0666667,43.85
dudumiya,,04,2.8333333,44.1166667
dudun gallo,,10,6.35,48.8666667
dudun guduud,,08,0.6544444,42.9472222
dudunle,,13,3.15,45.5333333
dudwein,,16,9.3166667,44.8666667
dudweyn,,16,9.3166667,44.8666667
dudweyne,,16,9.75,43.3666667
duggaalley,,13,2.25,45.4166667
dugiuma,,08,1.2533333,42.5708333
dugsamey,,01,3.7,43.4833333
dugsiilow,,01,3.9833333,43.9333333
dugsiilow,,14,2.6666667,44.9166667
dugs sare camuud,,16,9.95,43.2333333
duguia gussa,,08,1.1641667,42.5627778
duguia iantar,,09,1.1333333,42.5833333
dugulle,,04,2.3,44.5166667
duhur boob,,14,2.6666667,45.0833333
duhurboode,,14,2.7,45.0666667
dujuma,2432,08,1.2533333,42.5708333
dujuuma,,08,1.2533333,42.5708333
dukaanka,,04,2.75,43.8333333
dula carcaraaf,,15,8.8,46.3833333
dulga,,14,0.9833333,43.5333333
duluunka,,04,3.3,43.6166667
dumaaye,,05,3.55,46.9
dumfa,,09,-1.0833333,41.3333333
dumodle,,11,9.4166667,47.1
dumodleh,,11,9.4166667,47.1
dumo,,06,3.9166667,42.2833333
dunaati,,14,1.7,44.5333333
dungab,,10,6.1166667,47.4166667
duqiyo ereey,,08,1.1683333,42.6
duqiyo kuusow,,08,1.1641667,42.5627778
duqiyo madow,,08,1.1813889,42.5608333
duqiyo weyn,,08,1.1480556,42.6169444
durbo,,03,11.6166667,50.3333333
dur,,03,9.25,50.6
durdura,,12,11.3075,48.5872222
durdur,,12,10.2266667,47.4236111
durdureh,,12,11.3075,48.5872222
durduri,,12,11.3075,48.5872222
durdur melo,,12,10.9833333,48.7333333
dure emed,,04,2.8333333,42.9333333
durgaay,,13,2.55,45.9333333
durgale,,10,5.5833333,48.2666667
durgois,,07,3.35,45.5833333
durole,,06,3.4,42.5
durrei,,06,4.2666667,42.9166667
durruqsi,,15,8.5166667,45.4666667
durukhsi,,15,8.5166667,45.4666667
duruksi,,15,8.5166667,45.4666667
duruski,,15,8.5166667,45.4666667
dusa mareb,,05,5.5166667,46.4
dusa marreb,,05,5.5166667,46.4
dusiilow,,01,3.4666667,43.5666667
duss,,11,8.2666667,48.2833333
dusta,,04,2.9666667,43.35
duubugaas,,01,3.65,43.8166667
duud hooyo,,03,9.8833333,49.95
duudweeyn,,16,9.3166667,44.8666667
duumo,,06,3.9166667,42.2833333
duura,,04,2.9166667,44.1833333
duuray,,01,3.6833333,43.3333333
duur-cad,,15,9.0166667,44.9666667
duurey,,14,1.8166667,44.6333333
duurgale,,10,5.5833333,48.2666667
duurgoys,,07,3.35,45.5833333
edain caboba,,06,3.0166667,42.9666667
eddi gellei,,03,9.7666667,50.8
eddighelei,,03,9.7666667,50.8
eeden dheere,,04,2.85,43.5
eedin gaal benle,,04,3.0166667,43.4833333
eela rog,,04,3.15,43.9333333
eeloole,,04,2.5833333,44.8333333
eenow mideey,,14,2.5666667,44.8666667
eeriile,,14,1.3166667,44.1666667
ees,,14,1.5833333,44.1833333
eeygadhalay,,06,4.1833333,42.4666667
eeyl,,11,7.9833333,49.8166667
ega dale,,06,4.1833333,42.4666667
`eganlo,,05,4.4666667,47.6333333
`eg,,15,9.0,45.3666667
eggi,,13,3.1833333,45.5333333
egha roba,,08,1.55,41.6666667
eibecher,,13,3.4666667,46.3666667
eibscher,,13,3.4666667,46.3666667
eidar dabobe,,01,4.35,43.55
eidarr dabobe,,01,4.35,43.55
eigud,,10,6.25,48.4333333
`eik bil`ileh,,15,9.3833333,45.25
eik,,15,9.0,45.3666667
eil ad,,09,-0.2833333,42.3333333
eil,,11,7.9833333,49.8166667
einleh,,16,9.35,44.1
eiroli,,03,11.3,51.0666667
eji,,13,3.1833333,45.5333333
el abag dere,,01,3.9833333,44.35
el abar doi,,04,3.0333333,43.7
el abar dol,,04,3.0333333,43.7
el abdalla,,01,4.85,44.6
el abdallah,,01,4.85,44.6
el abgal,,03,9.5,49.0833333
`el abley,,05,4.4166667,47.3333333
el adda,,02,2.1,45.4666667
el adda,,14,1.86,45.0013889
el adde,,03,10.4166667,51.25
el adde,,07,3.2333333,44.7666667
el ad,,03,11.2833333,49.15
el ad,,07,5.1166667,45.1833333
el ad,,13,3.1,45.35
eladi mir mau,,13,2.3333333,45.3833333
el adou,,04,2.95,43.5333333
el af-ca uarallai,,03,11.0166667,50.75
el af gumasorrei,,10,6.4833333,48.7833333
el afuein,,14,1.5333333,44.5333333
el afuen,,14,1.5333333,44.5333333
el afweina,,12,9.9166667,47.25
el afwein,,12,9.9166667,47.25
el afweyne,,12,9.9166667,47.25
`elafweyn,,12,9.9166667,47.25
elahano,,09,0.7333333,43.0666667
el ahg,,03,11.45,49.65
elai,,14,1.1,43.6833333
elaio,,12,11.2455556,48.8925
elaiya,,12,11.2455556,48.8925
elalan,,09,-0.0833333,41.2833333
el ali,,07,4.2,44.9833333
el alul,,01,3.8166667,43.5333333
ela mahallim,,14,1.0,43.2333333
`el andalle,,14,0.7666667,43.6166667
el arab,,03,11.7333333,50.5666667
el aragghelo,,03,9.6,49.0833333
el arare,,03,10.75,50.3
el arar,,07,3.3833333,45.2
el arar,,10,4.8,48.15
el ararre,,03,10.75,50.3
`el `arrale,,13,2.9666667,46.55
el asculle,,13,2.6833333,46.2666667
el atful,,13,3.05,45.1333333
el audalla,,14,0.7666667,43.6166667
el au uegher,,04,3.1333333,43.6833333
el avagi,,05,3.6,46.95
el avor,,05,5.3833333,45.5833333
elayu,,12,11.2455556,48.8925
el bacari,,09,0.05,42.8333333
el baccai,,07,4.4166667,45.6166667
el badur,,10,6.4166667,49.0833333
el bahai,,07,4.8,46.15
`elbahay,,07,4.8,46.15
el bahi,,03,11.15,49.8833333
el bahi,,07,4.8,46.15
el bai,,04,2.7333333,43.2333333
el ballei,,01,4.7833333,43.5333333
el barsciagle,,13,2.4833333,46.0666667
el basciaglei,,13,2.4833333,46.0666667
el bascialeu,,06,3.6166667,42.35
elbashaqley,,13,2.4833333,46.0666667
el berdale,,04,3.2333333,43.1833333
el berde,,01,4.8333333,43.65
el berede,,01,4.8333333,43.65
el beru hagia,,06,2.75,41.0166667
el bilile,,15,9.3833333,45.25
el billich adde,,04,2.4666667,43.7666667
el bissigh adde,,04,2.4666667,43.7666667
el bogofier,,10,5.8166667,48.3666667
el borduel,,14,0.9666667,43.8666667
el buch,,14,1.4833333,44.45
el bug,,14,1.4833333,44.45
el bur,,05,4.6833333,46.6166667
el burre,,06,2.9833333,42.5833333
el cabobe,,05,4.2333333,47.7166667
el cabog,,01,4.6833333,43.5166667
el caboi,,01,3.8666667,43.7333333
el calidat,,06,3.45,42.0833333
el cardale,,14,1.0666667,43.9666667
el chebed,,11,8.8,48.8666667
el chebet,,11,8.8,48.8666667
el coholle,,05,4.85,46.5166667
el daddabo,,03,10.95,49.15
el daddavo,,03,10.95,49.15
el dafarur,,01,4.1666667,43.9833333
el dagno uein,,07,3.8166667,45.2
el dagno ven,,07,3.8166667,45.2
`el damer,,11,9.3,48.5166667
el danane,,10,6.5833333,49.1333333
el danan,,10,6.5833333,49.1333333
el danaue,,07,3.9833333,44.65
el dao,,06,3.3666667,42.0166667
el darad,,16,10.7166667,45.6
`el dared,,16,10.7166667,45.6
el dego gos,,01,4.6166667,43.4333333
el dehtal,,01,4.2,47.7
el deladoi,,04,2.2,43.0666667
el deluglu,,14,1.9166667,45.1166667
el denle,,06,2.8,42.1
el dere,,05,3.85,47.2
el dere,,07,4.3,45.5666667
el dere,,15,5.3666667,46.1833333
el dhere,,15,5.3666667,46.1833333
el dhurre,,03,11.15,49.4833333
el dibir,,03,11.7666667,51.2166667
el dinle,,07,5.4166667,45.4166667
el dinouda digdighei,,11,7.3333333,49.6
el doble,,06,4.05,42.8333333
el dofar,,03,10.6333333,49.0333333
el donfar,,03,10.6333333,49.0333333
el dontole,,01,3.8333333,43.5333333
el dubat,,03,9.5166667,49.0833333
el dudu,,06,2.6166667,41.7666667
el duhunle,,10,6.5,48.7833333
`eldur `alan,,12,10.1261111,46.3522222
el dur elan,,12,10.1261111,46.3522222
el dur,,05,5.8,47.4333333
el dur,,06,3.75,43.0833333
el durro,,03,11.15,49.4833333
el edat,,07,3.25,45.1666667
el endanane,,05,4.7666667,46.7666667
el endanane,,13,3.6166667,47.1666667
el engir,,10,6.7833333,47.95
el evedo aughesi,,04,2.65,44.1
el farroch,,01,4.1333333,43.95
el fira,,03,10.6,50.5333333
el gaimeddo,,03,10.3666667,50.9166667
el galad,,10,5.45,48.4166667
el gal,,03,11.25,51.0666667
el garab,,01,4.4,42.9833333
el garable,,05,4.1333333,47.6333333
el garap,,01,4.4,42.9833333
el garas,,01,4.15,44.2166667
el garas,,10,5.2666667,47.6
el garato,,16,9.9166667,43.9166667
el garb gellou,,06,3.6666667,42.5
el gargaro,,07,4.2833333,45.7333333
el garmet,,01,3.9833333,44.3666667
el gavoiad,,03,10.3333333,50.5666667
el gelda,,06,4.1333333,42.75
el geldes,,06,3.3666667,41.85
el gelib,,05,3.8,47.1166667
el ghan,,10,4.55,48.0
el gharum,,13,3.2,46.5833333
el ghebut,,06,3.0833333,42.6
el ghelda,,06,4.1333333,42.75
el ghescud,,09,0.2833333,43.1666667
el gilib,,05,3.8,47.1166667
el goddumei,,11,8.5333333,48.7833333
el gode,,09,0.5166667,42.9
`elgod,,07,4.6333333,46.0833333
el godgod,,06,2.8833333,41.5
el godomei,,11,8.5333333,48.7833333
el godot,,10,6.9666667,47.6166667
el godut,,06,3.0833333,42.6
el gof,,06,3.2,43.1666667
el gol,,13,3.35,46.7
el gomor,,03,11.8666667,50.95
el gomo uen,,01,4.7166667,44.7666667
el gorei,,10,5.6833333,48.4166667
el gosc,,11,7.2166667,48.85
el got,,07,4.6333333,46.0833333
el goulo,,13,3.45,47.0
el guberrei,,01,3.9666667,44.3833333
el guddo,,01,4.1166667,44.35
`el gudud,,06,3.0833333,42.6
`el gulo,,13,3.45,47.0
el gunier,,10,4.6,48.0333333
el gurgura,,06,3.35,41.9666667
el guriasamo,,03,11.2666667,49.8
el habla,,09,-1.3833333,41.65
el haghen,,03,11.65,50.4833333
el harar,,10,4.8,48.15
el hararo,,14,1.6666667,44.7
el harre,,03,9.6166667,49.0833333
el hegi,,01,3.9333333,44.0333333
el hogor,,03,11.3666667,50.9833333
el hol,,06,3.4833333,41.9333333
el hore,,14,1.0833333,44.0
el hume,,15,9.4,45.1833333
`elhur,,10,5.0069444,48.2691667
el hur,,10,5.0069444,48.2691667
el ille,,04,2.9333333,43.5
el ingirre,,10,6.7833333,47.95
el kodan,,11,8.1833333,48.2333333
el laghodeh,,12,9.6666667,48.6333333
el laghodey,,12,9.6666667,48.6333333
el lagodei,,03,9.5,49.1666667
`el lahelay,,11,9.3666667,47.15
ellahele,,04,2.5166667,42.9666667
ellahele,,11,9.3666667,47.15
el lansciunle,,09,-0.0333333,42.8833333
el las derder,,10,6.8833333,48.1166667
el laz derder,,10,6.8833333,48.1166667
el lehele digodia,,06,4.25,43.0
el lehele,,06,3.3333333,42.85
el lehelei,,04,2.5166667,42.9666667
el lehelei,,07,4.4666667,45.4333333
el liheli,,16,10.2666667,44.1
el madoba,,16,10.65,45.9
el mado,,11,8.65,48.3166667
el maduba,,16,10.65,45.9
el madu,,11,8.65,48.3166667
`el maged,,13,3.2,46.8
el mah,,03,10.2833333,50.45
`el makoile,,07,3.8,45.2166667
el marodi,,11,8.0166667,49.8
el meddo,,03,10.25,49.2166667
el medei,,05,4.1,47.6166667
el medo,,03,10.25,49.2166667
el meghet,,01,4.9166667,44.4
el meghet,,13,3.2,46.8
el mellet,,14,1.65,44.6666667
el mergis,,06,2.0,41.6
el messri,,01,3.9833333,44.6
el missarre,,04,2.5833333,43.9333333
el missauo,,04,2.5833333,43.9333333
el mocoile,,07,3.8,45.2166667
el mogor,,03,11.3666667,50.9833333
el mudan,,10,6.5833333,46.65
el mugne,,14,1.6833333,44.7333333
el munghia,,14,1.6,44.6166667
el peccolli,,10,4.5833333,48.0333333
el pecolli,,10,4.5833333,48.0333333
el raghebis,,03,10.3,50.5333333
el sai,,09,-0.1,41.8
el sceled,,04,2.4,43.0833333
el sciama,,06,2.7833333,41.0
`el shama,,06,2.7833333,41.0
el tegavei,,01,4.65,43.45
el turulloro,,01,2.1666667,43.0833333
el uaesed,,11,8.15,48.35
el uaiscet,,11,8.15,48.35
el uara,,06,3.5666667,41.65
el uaran,,06,3.2333333,42.7333333
el uared,,07,4.1833333,45.0
el uaro,,06,3.5666667,41.65
el uarot,,05,4.0666667,47.5833333
el ue-ba,,07,4.1333333,45.2166667
el uein bahado,,05,5.7833333,47.2166667
el uen bahado,,05,5.7833333,47.2166667
el uerega,,14,1.9833333,45.25
el uncut,,03,10.3333333,50.5
el uneut,,03,10.3333333,50.5
el ur,,10,5.0069444,48.2691667
`el waran,,06,3.2333333,42.7333333
ena baianle,,03,10.6833333,50.95
endichi,,03,11.7833333,50.8333333
endo iero,,10,6.2,48.6666667
en gomot,,05,6.1,47.0166667
erbare,,04,2.3666667,42.9666667
ergiegle,,01,3.5666667,43.85
ergimo,,16,9.4833333,44.2333333
erigabo,,12,10.6180556,47.37
erigavo,,12,10.6180556,47.37
erilay,,14,2.55,45.05
erir,,10,6.7166667,47.0
erjeegle,,04,2.6833333,43.65
erjegle,,01,3.5666667,43.85
er mescia,,04,2.4,43.0333333
er mescid,,04,2.4,43.0333333
esgudud,,08,1.3333333,41.4166667
esgudut,,08,1.3333333,41.4166667
etiyal,,01,4.0,44.0166667
etkiyal,,01,3.85,44.5
eygadalay,,06,4.1833333,42.4666667
eyl,18904,11,7.9666667,49.8166667
eylinta kaddo,,16,9.5,43.5166667
eynabadow,,04,3.1333333,43.5833333
faafaxhuun,,06,2.2166667,41.6166667
faafxadhuun,,06,2.2166667,41.6166667
faajir,,01,3.5,43.5666667
faaracood,,12,11.0758333,48.7402778
faarax,,01,4.1333333,43.95
faarax,,04,2.2666667,44.7166667
faarax,,09,0.15,42.7333333
faarax gololey,,13,2.4,45.35
faari baasi,,14,1.6833333,44.6
faarjarley wiila,,01,3.8833333,43.8166667
faddhi tehele,,10,5.3166667,48.2833333
fadhixum,,16,9.4166667,43.7666667
fafadun,,06,2.2166667,41.6166667
fafahdun,,06,2.2166667,41.6166667
fafodun,,06,2.2166667,41.6166667
faf raxmo,,09,0.8961111,41.9433333
fagan,,09,0.1236111,42.7130556
fagay,,09,-0.1833333,42.7166667
fahday,,16,9.4333333,43.9166667
fakey moxamed,,13,2.6166667,45.6
fakiya,,08,0.7166667,42.65
fangarar,,03,11.45,49.6666667
fanole,,08,0.7508333,42.6527778
fanoole,,08,0.7508333,42.6527778
fanoole no. 1,,08,0.7488889,42.6688889
fanoole no. 2,,08,0.5061111,42.765
fantafido,,13,2.7833333,45.15
fanuen,,06,2.8166667,42.3666667
faqayow,,14,1.7833333,44.5666667
faragh son goli,,15,9.15,45.1833333
farahgeri,,11,8.9833333,49.0
farah sangoleh,,15,9.15,45.1833333
far aqable,,01,4.35,44.7
fararali,,12,10.4166667,48.3
faraweine,,16,9.3166667,43.7333333
faraweyne,,16,9.4333333,43.7833333
farbarachi,,13,2.5,45.5
farbaraki,,13,2.5,45.5
far barako,,13,2.5,45.5
farbiito,,08,0.8872222,42.6183333
fardera,,14,1.1666667,43.95
fardhiddin,,11,8.0666667,47.9833333
fardiddin,,11,8.0666667,47.9833333
fardidin,,11,8.0666667,47.9833333
farfanqoron,,04,3.0833333,44.0833333
far ftma,,01,4.5,43.4833333
farham,,08,0.5977778,42.6966667
farhan,,08,0.5977778,42.6966667
far hid,,03,1.1,50.2
far janno,,09,0.0,42.6333333
farkeerow,,14,1.75,44.4833333
farkiero,,14,1.6666667,44.4166667
farkiyeerow,,14,1.6666667,44.4166667
farmalagial,,05,5.4333333,45.6333333
faro,,12,11.0758333,48.7402778
faroweina,,16,9.4333333,43.7833333
farsooley,,04,2.0833333,44.5333333
farta,,04,2.8833333,44.0666667
far waamo,,09,-0.05,42.5833333
far weeyn dur,,06,2.8166667,42.3666667
far weyn dur,,06,2.8166667,42.3666667
farxaan,,08,0.5977778,42.6966667
far xaano,,14,1.75,44.5333333
faylogooye,,13,2.7666667,45.6333333
fed guduud,,14,1.8166667,44.8166667
feerfeer,,07,5.1,45.15
fenole,,08,0.7508333,42.6527778
ferdadin,,11,8.0666667,47.9833333
ferdehe,,10,4.95,48.2333333
ferdi gab,,12,9.6333333,47.0333333
ferdigap,,12,9.6333333,47.0333333
ferfer,,07,5.1,45.15
ferlibah,,16,9.2666667,44.15
ferlibak,,16,9.2666667,44.15
ferlito,,08,0.8872222,42.6183333
fidlabey,,14,1.7666667,44.7833333
fido,,07,3.0833333,45.7666667
fiila,,09,-1.1666667,41.2833333
fiilley,,14,1.85,44.7833333
fiinka,,01,3.5833333,43.8166667
fiinka,,04,2.7166667,44.1
fiinka weera,,04,1.8,42.5333333
fiinka weere,,01,3.55,43.8
fiirfiirisa,,09,0.6613889,41.9102778
fikiro,,09,0.1258333,42.7191667
fila,,09,-1.1666667,41.2833333
fiqi ayuub,,15,9.9333333,46.0333333
fiqi fuliye,,12,10.0263889,47.7811111
fiqishinni,,11,9.1333333,47.5833333
flogoro,,14,1.6833333,44.4666667
fodel,,07,3.3166667,44.8666667
fooda,,16,9.85,43.4666667
foorsa,,04,1.8,42.6166667
foosi,,14,1.75,44.5666667
fort boho,,03,11.9333333,50.8833333
fuhay,,04,2.5833333,44.7833333
fulaaley,,14,2.3666667,44.9833333
fulaayka,,04,2.95,44.15
fula,,16,10.8166667,43.1333333
fulaydheer,,14,2.5833333,45.05
fulayley,,14,2.6166667,45.0333333
fuli,,11,7.5,49.3666667
fulla,,16,10.8166667,43.1333333
fungamuunyo,,08,0.3552778,42.7547222
fur fursa,,09,0.6613889,41.9102778
furuqleey,,14,1.7166667,44.4666667
furuqley,,14,2.25,44.9333333
futuug,,01,3.5666667,43.8666667
fuud dooro,,04,2.7166667,44.1333333
fuud saqaar,,04,2.8333333,44.15
fuuma,,09,-0.5333333,42.3833333
fuur,,06,2.3166667,42.2
gaabaha,,09,-0.0333333,42.7666667
gaabaney,,13,2.7333333,45.3333333
gaafaay,,13,2.85,45.5333333
gaaguura,,08,1.8677778,42.2927778
gaaguure,,08,1.9488889,42.2669444
gaalacoodday,,11,7.55,49.7166667
gaal dheere,,01,3.65,43.75
gaal dheere,,04,2.3,44.8
gaal,,09,0.0941667,42.8155556
gaal goble,,03,9.8666667,49.8
gaalgube,,14,2.2833333,45.2
gaal guuris,,04,2.9333333,44.1666667
gaalkacyo,,10,6.7833333,47.4333333
gaal looge,,04,2.9666667,43.75
gaal madoobe,,01,3.9833333,44.1833333
gaaloolow,,04,3.3,43.55
gaal somaal,,04,3.25,43.6
gaalsomale,,04,3.25,43.5833333
gaarrisa,,16,10.6333333,43.4666667
gaashaanle,,13,2.6666667,45.5
gaatir oodan,,03,11.0263889,49.9463889
gaay dhiigaale,,04,2.3666667,44.8
gaaywarrow,,14,1.7666667,44.5666667
gabaal,,04,3.3166667,43.3333333
gabaanis,,13,2.6333333,45.2666667
gaba gabo,,15,9.8,45.9
gaban hurudo,,16,9.5666667,43.7666667
gaba uein,,05,4.0166667,47.5333333
gaba uen,,05,4.0166667,47.5333333
gabiushaale,,04,2.8166667,44.25
gabri sero ali,,06,2.55,41.8666667
gabxanlow,,07,3.6333333,45.6
gacan,,16,10.0469444,44.1194444
gacan maroodi,,09,-0.8,42.0333333
gadhka carmada,,16,9.5166667,44.3
gadhyogol,,16,9.4833333,43.8666667
gadiisaay,,04,2.9166667,44.0333333
gadiisey,,04,2.9166667,44.1333333
gadka yoqol,,16,9.4833333,43.8666667
gadoon,,05,5.7,46.6666667
gadoon,,07,4.3166667,45.6166667
gaduudey,,04,1.8333333,42.5833333
gaduud,,04,2.5333333,42.8333333
gaduud,,08,1.4825,42.495
gaduud,,09,-0.0833333,42.5833333
gafar,,09,1.1,42.1333333
gafer,,09,1.1,42.1333333
gagso,,04,2.8666667,43.9833333
gahando,,05,5.9666667,47.1333333
gahodweyn,,05,4.0,47.5
gahood weeyn,,05,4.0,47.5
gahyo-odo,,11,9.3,47.4833333
gaider ai boran,,06,3.6,43.0833333
gaider ai borau,,06,3.6,43.0833333
gaidero,,10,6.75,48.3166667
gaivaro,,14,1.7666667,44.5666667
gajawa,,08,0.5422222,42.7605556
galaame,,08,0.5827778,42.6913889
galaangale,,14,2.45,45.0666667
galabuala,,09,0.1,41.9
galabwula,,09,0.1,41.9
galad,,10,5.45,48.4166667
galad ley,,09,-0.05,42.75
gal adole,,05,4.8333333,46.8
gal agarre,,05,5.5166667,47.45
galamo,,04,3.2833333,43.5833333
galangaalle,,10,7.6666667,48.0333333
galangolle,,07,4.75,46.1333333
galangulle,,10,7.6666667,48.0333333
gala `odday,,11,7.55,49.7166667
galaotei,,11,7.55,49.7166667
galboi,,04,3.0166667,43.9333333
galbooy,,14,2.4666667,44.8333333
galbot,,04,3.0166667,43.9333333
galbow,,04,3.0,43.9333333
galboy,,04,3.0166667,43.9333333
galcad,,05,4.0333333,46.6166667
gal cad,,16,9.9166667,45.05
galcaio,,10,6.7833333,47.4333333
galda,,04,3.1166667,43.45
galdhabo,,05,4.4333333,47.5166667
gale bussi,,09,0.2333333,41.4333333
gal gaafow,,05,4.0833333,46.45
galgala,,03,10.9666667,49.0833333
galgalla,,03,10.9666667,49.0833333
galgalo,,03,10.9666667,49.0833333
gal gal onlay,,04,1.9833333,42.5833333
galgalow,,04,2.8666667,44.15
gal goble,,03,9.8666667,49.8
gal goof,,13,2.8666667,45.7333333
gal gorum,,10,6.0666667,47.6833333
gal gub,,13,2.9833333,46.2833333
gal hagar,,11,7.4333333,49.25
gal hareeri,,05,4.5333333,47.15
galhareeri,,14,2.1666667,45.0833333
galhgarre,,05,5.5166667,47.45
gal hure,,14,2.1666667,45.0833333
galinsoor,,10,6.4333333,46.7
galiyo guubow,,08,0.55,42.75
galjaw,,14,1.7666667,44.4666667
galka`yo',,10,6.7833333,47.4333333
gallacai,,10,6.7833333,47.4333333
gal laghet,,06,4.2,47.1166667
galleey,,09,0.7325,42.0105556
gallei,,09,0.7325,42.0105556
gallinsor,,10,6.4333333,46.7
gallool,,04,2.6333333,43.9833333
gallou,,08,0.6119444,42.7525
gallow,,04,2.95,43.7666667
gally,,09,0.7325,42.0105556
gal madoobe,,15,9.95,45.3333333
gal madowle,,04,2.9666667,43.7666667
gal odaio,,05,4.4333333,46.7333333
galolca,,06,2.3,41.5833333
galole,,16,9.7166667,43.7
galoleh,,15,9.7833333,45.3166667
galol,,01,3.9333333,44.05
galolgo,,06,2.3,41.5833333
galoolay,,16,9.6333333,43.6833333
galool dheere,,04,2.4666667,44.8166667
galool dheer,,04,3.0166667,43.8833333
galooleey,,14,2.65,44.85
galoole,,04,2.8666667,44.0166667
galoole xasanaw danyeer,,04,2.9166667,44.1166667
galooley,,04,1.8333333,42.5833333
galooley,,15,9.7833333,45.3166667
galooley,,16,9.6833333,43.6833333
galool,,01,3.6333333,43.8333333
galool guushan,,04,2.3666667,44.7666667
galoolkaa,,14,2.6833333,45.0333333
galoolley,,15,9.4666667,44.9
galoolley,,16,9.7166667,43.7
galoollo,,04,2.65,43.9833333
galoolo heer huun,,04,3.2833333,43.5833333
galool oomane,,04,2.9666667,44.2833333
galoolow,,04,2.9833333,44.1166667
galool tuure,,04,2.9,44.0333333
galool yar,,04,2.7833333,44.1333333
galoshe,,04,3.0666667,43.55
gal shiikh,,12,10.0725,47.2122222
galweel,,04,3.25,43.65
galxagar,,11,7.4333333,49.25
galxagarre,,05,5.5166667,47.45
galxodayo,,05,4.4333333,46.7333333
gamaanya,,09,0.15,42.7333333
gamarey,,04,3.1,43.55
gamber,,04,2.9666667,43.75
gambolaio,,09,0.1697222,42.7197222
gambolayo,,09,0.1697222,42.7197222
gammedin,,03,11.2833333,50.0166667
gana weyne,,07,3.1833333,45.65
ganbar,,14,1.45,43.9833333
gandaabey,,14,1.7166667,44.7166667
gandarshe,,14,1.8333333,44.9666667
gan janaaw,,14,2.7333333,44.8
gannana,,04,2.1833333,43.35
gansagur,,09,-0.4166667,41.2833333
ganta,,04,3.35,43.6166667
gantamaa,,06,2.4166667,41.8166667
ganug,,01,3.6333333,43.85
gaolo,,11,9.0333333,48.2833333
gara`ad,,10,6.95,49.3166667
garab cadde,,07,2.9333333,45.6666667
garabcad,,12,9.9166667,47.5166667
garabis,,16,9.45,43.9666667
garable,,05,4.6833333,47.1666667
garacad,,10,6.95,49.3166667
garadac,,12,9.4833333,46.8666667
garadag,,12,9.4833333,46.8666667
garadak,,12,9.4833333,46.8666667
garadek,,12,9.4833333,46.8666667
garad,,10,6.95,49.3166667
garahadde,,10,5.5,48.6333333
garahale,,03,10.5666667,50.6333333
garahule,,03,10.5666667,50.6333333
garal-duure,,04,3.05,43.4
garangarow,,04,2.6333333,44.1166667
garan koof,,03,10.1666667,50.9
garap den,,07,4.8833333,45.45
garare,,08,1.1211111,42.6052778
garas afra iere,,05,3.8,46.7666667
garas afralere,,05,3.8,46.7666667
garas balley,,02,2.0666667,45.2666667
garas bandiiro,,14,2.35,45.0333333
garas barqo,,07,2.9166667,45.7
garas bintow,,13,2.2333333,45.4
garas buule,,14,2.6,45.05
garas buulle,,14,2.3333333,44.9
garas-ca damo,,07,3.7833333,44.6833333
garascad,,14,2.8,45.1333333
garasdeele,,13,2.3333333,45.4
garas dhaay,,14,2.45,44.85
garasey,,09,-0.4833333,41.8166667
garas,,09,-0.0166667,42.5333333
garas guudle,,14,2.7833333,45.1333333
garas harei,,14,1.2166667,43.8333333
garas herei,,14,1.2166667,43.8333333
garas jeereed,,14,1.8166667,44.5833333
garaska aw jeelle,,13,2.7666667,45.6833333
garaska shabada,,04,2.3333333,42.5666667
garasley,,13,2.6833333,45.5666667
garasley,,14,2.4166667,45.25
garas mankey,,04,2.6666667,42.8166667
garas moqorrey,,14,2.8,45.1166667
garas qalooc,,14,2.4166667,45.05
garasraadi,,14,1.55,44.5166667
garas shaare,,04,2.25,44.8166667
garas shaare,,14,2.6166667,45.15
garasuuley,,14,2.6,45.0166667
garas weyne,,01,4.2666667,43.4833333
garas weyne,,13,2.2666667,45.4166667
garas weyne,,14,0.9666667,43.7
garasweynow,,14,1.9,44.7166667
garavadde,,10,5.5,48.6333333
garba dheer,,04,2.6,44.0166667
garba gabat,,11,8.8833333,47.4
garbahaarrey,,06,3.3166667,42.2166667
garba harey,,06,3.3166667,42.2166667
garba harre,,06,3.3166667,42.2166667
garbodadar,,16,10.2375,43.6388889
garda,,10,6.95,49.3166667
gardale,,08,1.1130556,42.5947222
gardo,,03,9.5,49.1666667
garesa,,03,9.5,49.1666667
garesa,,10,5.0069444,48.2691667
garesiyaani,,07,4.3333333,45.4666667
garfaale weyne,,14,2.6333333,45.05
garfaale yarey,,14,2.6333333,45.0666667
gargaara,,16,10.3133333,43.8069444
gargaar,,13,2.7166667,45.4666667
gargarah,,16,10.3133333,43.8069444
gargorre,,03,10.4833333,50.6833333
gariiley,,14,1.8166667,44.6666667
gariire,,04,2.8666667,44.1166667
gariirow,,07,2.9166667,45.3833333
gariirra caddey,,13,2.2833333,45.4833333
gariro,,04,2.7833333,43.9333333
garisa,,16,10.6333333,43.4666667
garmagal,,04,3.2666667,43.5833333
garoe,,11,8.4,48.5
garooreey,,14,2.5666667,44.9833333
garoowe,,11,8.4,48.5
garoway,,11,8.4,48.5
garowe,49913,11,8.4,48.5
garowle,,14,1.65,44.3
garranca,,04,2.9,44.2666667
garrasleey,,09,-0.4833333,41.8166667
garrasley,,09,-0.4833333,41.8166667
garreg,,03,11.3333333,50.6166667
garriida,,04,2.8,43.9666667
garrisa,,16,10.6333333,43.4666667
garsaale gaab,,07,2.9,45.7
garsaale,,06,2.8166667,41.2666667
garsaale,,13,2.6333333,45.3833333
garsaalley,,13,2.8833333,45.4166667
garsa,,03,11.7,50.4666667
garsala avascia,,05,4.0833333,46.75
garsala,,13,2.6333333,45.3833333
garsaley,,01,3.9833333,43.2333333
garsay kuusa,,09,-0.7,41.6166667
garshiin,,17,1.7833333,44.7333333
garso,,07,3.4166667,45.6666667
garweyn,,05,4.2833333,47.2666667
gasarta,,04,3.1,43.7333333
gascianlo,,13,2.6666667,45.5
gasiile,,08,1.9411111,42.2997222
gatiitalay,,16,9.6,44.8166667
gauder fullai,,06,3.6333333,42.8333333
gau,,03,11.2427778,48.9758333
gaulo,,11,9.0333333,48.2833333
gawaan,,04,3.0666667,43.8833333
gawaan,,10,5.3133333,48.2947222
gawaanis,,14,2.8666667,45.1666667
gawaanka,,04,2.9833333,44.3166667
gawaanka,,07,3.6666667,45.5166667
gaxabdho,,05,5.9666667,47.1333333
gaywarow,,14,1.7666667,44.5666667
geba geba,,15,9.8,45.9
geba gebah,,01,3.5333333,44.05
gebbi,,08,1.3552778,42.4419444
gebia,,06,3.85,41.8333333
gebile,,16,9.7,43.6333333
gebileh,,16,9.7,43.6333333
gebilex,,16,9.7,43.6333333
gebiley,,16,9.7,43.6333333
ged abera,,16,9.5833333,43.75
gedaley,,05,5.2666667,47.9166667
ged deeble,,16,9.75,43.9833333
gedeis,,15,9.95,45.4833333
gedeys,,15,9.95,45.4833333
gedobeh,,15,8.8166667,45.1333333
geed abeerah,,16,9.5833333,43.75
geedaley,,05,5.2666667,47.9166667
geed buureed,,01,3.9333333,43.8333333
geed diqsi,,16,9.8333333,43.4166667
geedey,,04,3.4,43.5666667
geedfaqay,,14,2.25,45.3
geed ful,,08,0.8063889,42.6186111
geedgoy,,08,0.5063889,42.7391667
geedlarifay,,12,10.9666667,48.35
geedo berkaan,,13,2.8166667,45.5333333
geedweyne,,06,4.0333333,42.3
geele,,08,1.2372222,42.5605556
geelle,,14,1.8166667,44.7833333
geeri,,16,10.3697222,44.56
geesaley,,03,11.75,50.5
gees,,14,1.55,44.1666667
gefayi,,04,3.0833333,43.9333333
geida debabo,,11,8.5833333,48.3833333
geldeso,,06,3.3666667,41.85
gelgaris,,10,6.6666667,47.3333333
gelib,,08,0.4958333,42.7727778
gelib,,14,1.8,44.9166667
geli darhumo,,16,9.5,44.6833333
geli-darxumo,,16,9.5,44.6833333
gellinshr,,10,6.4333333,46.7
gellinsoor,,10,6.4333333,46.7
genale,,14,1.8,44.7
genna sabio,,14,2.2166667,45.2333333
genyu ado,,11,9.3,47.4833333
geradek,,12,9.4833333,46.8666667
gerarey,,08,1.1166667,42.5830556
gerbaghabat,,11,8.8833333,47.4
geriban,,11,7.2166667,48.85
geri,,16,10.3697222,44.56
gerih,,16,10.3697222,44.56
gerisa,,16,10.6333333,43.4666667
geroweh,,11,8.4,48.5
gersale,,13,2.6333333,45.3833333
gesareeb,,04,3.15,43.65
gesira,,14,1.7833333,44.55
getiitaley,,16,9.5,44.8666667
getitale,,16,9.6,44.8166667
geydho,,01,4.0333333,44.5333333
gharreg,,03,11.3333333,50.6166667
gheda dauho,,03,11.2666667,50.1666667
ghedalei,,05,5.2666667,47.9166667
ghedeis,,05,6.0166667,46.6833333
ghedgoi,,08,0.5063889,42.7391667
ghedgoi,,09,0.5166667,42.7333333
ghedo bercan,,13,2.8166667,45.5333333
ghed raran,,13,3.45,46.7833333
ghefai,,04,3.05,43.9
gheferso,,09,1.1,42.1333333
gheider debabo,,11,8.5833333,48.3833333
gheider moro mererti,,01,4.3833333,43.8166667
