names,population,state_code,lat,lon
acachapa,,13,13.5483333,-89.6677778
acajutla,22764,13,13.5927778,-89.8275
aceituno,,08,13.75,-88.1166667
aceituno,,12,13.4833333,-88.6833333
achichilquito,,12,13.5666667,-88.7166667
agua,,07,13.1675,-88.0313889
agua blanca,,07,13.7486111,-87.9208333
agua blanca,,08,13.8166667,-88.05
agua blanca,,10,13.9888889,-89.2880556
agua caliente,,03,14.1833333,-89.2333333
agua caliente,,05,13.8691667,-89.2577778
agua caliente,,07,13.2411111,-87.96
agua caliente,,13,13.7166667,-89.6333333
aguacatal,,03,14.3333333,-89.1166667
aguacate,,02,13.8666667,-88.6
aguacayo,,04,13.9277778,-89.0494444
aguacayo,,14,13.3333333,-88.5833333
aguachapio,,01,13.7666667,-89.9833333
agua chuca,,13,13.6491667,-89.5833333
agua escondida,,05,13.8308333,-89.3508333
agua escondida,,07,13.2975,-87.8108333
agua fria,,01,13.9016667,-90.0
agua fria,,03,14.2333333,-89.25
agua fria,,07,13.4002778,-87.9333333
agua fria,,08,13.8833333,-88.0333333
agua fria,,11,13.95,-89.5166667
agua fuerte,,12,13.4166667,-88.7333333
agua helada,,10,13.9888889,-89.2880556
agua helada,,12,13.7166667,-88.7333333
aguaje escondido,,03,14.1,-89.1666667
agua salada,,07,13.5833333,-87.8333333
agua salada,,09,13.4761111,-88.1061111
agua santa,,13,13.7,-89.75
aguas frias,,07,13.4002778,-87.9333333
agua shuca,,01,13.9166667,-89.8
agua shuca,,13,13.6491667,-89.5833333
agua zarca,,02,13.8833333,-88.65
agua zarca,,03,14.1333333,-89.2166667
agua zarca,,06,13.4,-88.8
agua zarca,,08,13.7666667,-88.0833333
agua zarca,,09,13.5333333,-88.2
aguilares,21445,10,13.9572222,-89.1897222
ahuachapan,34104,01,13.9213889,-89.845
ahuachapio,,01,13.7666667,-89.9833333
ajuluco,,04,13.8166667,-88.9333333
albornoz,,07,13.5833333,-87.95
albornoz arriba,,07,13.5833333,-87.95
albornoz de arriba,,07,13.5833333,-87.95
alcancia,,14,13.2833333,-88.4666667
aldea de la cruz,,11,13.9111111,-89.4919444
aldea del zapote,,11,14.2833333,-89.3833333
aldea de mercedes,,10,13.8,-89.2
aldea el zapote,,11,14.2833333,-89.3833333
aldea mercedes,,10,13.8,-89.2
aldea san antonio,,11,13.9833333,-89.5666667
aldea vieja,,03,14.05,-88.85
aldea zapote,,11,14.2833333,-89.3833333
aldeita,,03,14.1333333,-89.1166667
alegria,,14,13.5,-88.4833333
aleman,,13,13.6691667,-89.7230556
almendro,,13,13.7711111,-89.7016667
almohadas,,11,14.1666667,-89.45
altamiz,,09,13.3577778,-88.0972222
alto del llano,,09,13.4275,-88.1861111
alto del roble,,07,13.3241667,-87.9761111
alto el roble,,07,13.3241667,-87.9761111
alto el sitio,,03,13.9833333,-88.8833333
altomiro,,09,13.5833333,-88.1833333
altos del mora,,09,13.4116667,-88.0844444
altos del moral,,09,13.4116667,-88.0844444
alvarenga,,03,14.0,-88.8
alvares,,05,13.7333333,-89.2666667
alvarez,,05,13.7333333,-89.2666667
amapalita,,07,13.305,-87.8294444
amapalito,,07,13.305,-87.8294444
amaquilco,,05,13.5833333,-89.25
amatecampo,,06,13.4361111,-89.1347222
amate de taltapanca,,01,13.8333333,-89.7833333
amatepe,,06,13.5122222,-89.0261111
amatepeque,,10,13.6833333,-89.1666667
amatillo,,01,13.7822222,-90.1075
amatillo,,14,13.1666667,-88.2333333
amatitan abajo,,12,13.7666667,-88.7166667
amatitan,,10,13.7,-89.1
amatitan arriba,,12,13.75,-88.7333333
amaya,,09,13.5666667,-88.35
amayo,,06,13.5666667,-88.8833333
amayo,,10,13.5172222,-89.1719444
amayon,,10,13.5172222,-89.1719444
amulunco,,06,13.5666667,-88.9666667
anal abajo,,13,13.7833333,-89.7333333
anal,,13,13.8038889,-89.7311111
anal arriba,,13,13.8038889,-89.7311111
anal arriba y anal abajo,,13,13.8038889,-89.7311111
analco,,14,13.3666667,-88.3833333
analquito,,04,13.65,-88.95
anamoros,2655,07,13.7405556,-87.8736111
anchico,,09,13.4269444,-88.0608333
anchila,,14,13.2833333,-88.3333333
anguiatu abajo,,11,14.4166667,-89.4666667
anguiatu,,11,14.4166667,-89.4666667
anguiatu zapote brujo,,11,14.4166667,-89.4666667
animas abajo,,06,13.3666667,-88.8666667
animas,,04,13.7666667,-88.9666667
animas,,06,13.4166667,-88.85
animas,,08,13.6541667,-87.9927778
animas,,10,13.7988889,-89.0827778
animas,,12,13.6833333,-88.8333333
animas arriba,,06,13.4166667,-88.85
anonal,,01,13.9166667,-89.7666667
antiguo cuscatlan,33767,05,13.6730556,-89.2408333
antiguo san fernando,,03,14.3,-89.0333333
anton flores,,12,13.65,-88.8
apancoyo,,13,13.6036111,-89.6202778
apaneca,,01,13.86,-89.8011111
apapuerta,,09,13.7833333,-88.3
apastepeq,,12,13.6666667,-88.7833333
apastepeque,5785,12,13.6666667,-88.7833333
apastepeque,,14,13.5166667,-88.5
apopa,112157,10,13.8072222,-89.1791667
aposentos,,03,14.2,-89.1166667
apulo,,10,13.7066667,-89.0761111
aradillas,,12,13.7666667,-88.6333333
arambala,,08,13.9166667,-88.1333333
arcatao,,03,14.0833333,-88.75
arenales,,09,13.4333333,-88.3833333
arenero,,03,14.0,-89.0166667
argentina,,05,13.5333333,-89.5333333
armenia,14997,13,13.7436111,-89.4988889
arrozales,,14,13.4,-88.6166667
ashapuco,,01,13.95,-89.8333333
asino,,10,13.6752778,-89.1002778
astoria,,06,13.45,-89.05
asuncion amatepe,,06,13.5122222,-89.0261111
ataco,,01,13.8702778,-89.8486111
atalaya,,13,13.6,-89.8333333
ateos,,05,13.7333333,-89.4333333
atiluya,,13,13.6408333,-89.5513889
atiocoyo,,05,14.0166667,-89.2833333
atiquizaya,9477,01,13.9769444,-89.7525
ayacachapa,,13,13.5333333,-89.8
ayagualo,,05,13.6375,-89.2877778
ayuta,,11,14.0333333,-89.5833333
ayutepeque,,11,13.9444444,-89.6713889
ayutica,,11,14.0333333,-89.6166667
ayutuxtepegue,,10,13.7455556,-89.2063889
ayutuxtepeque,25426,10,13.7455556,-89.2063889
azacualpa,,01,13.7833333,-89.8833333
azacualpa,,02,13.8833333,-88.8333333
azacualpa,,03,13.9833333,-88.9833333
azacualpa,,06,13.35,-88.8333333
azacualpa,,08,13.8833333,-88.2166667
azacualpa,,10,13.5522222,-89.1741667
azacualpa,,11,14.0833333,-89.55
azacualpa,,13,13.7619444,-89.5266667
azacualpa de gualcho,,14,13.6333333,-88.45
azacualpa gualcho,,14,13.6333333,-88.45
azacualpia de gualcho,,14,13.6333333,-88.45
azacualpia de joco,,14,13.65,-88.4666667
balneario el espino,,14,13.1666667,-88.2833333
balsamar,,13,13.6833333,-89.6166667
banco,,05,13.55,-89.25
banos la toma,,05,13.85,-89.2833333
barahona,,06,13.5333333,-89.0
barahona,,07,13.4666667,-87.9166667
barra ciega,,13,13.5302778,-89.7211111
barra de santiago,,01,13.6905556,-89.9991667
barranca,,09,13.7833333,-88.4833333
barranca honda,,05,13.9013889,-89.3586111
barrancones,,07,13.4336111,-87.7908333
barra salada,,13,13.5333333,-89.7
barrie la cruz,,04,13.75,-89.05
barrio abajo,,04,13.65,-88.9333333
barrio nuevo,,12,13.4333333,-88.8
barrios,,08,13.6,-88.1166667
barrio victorias,,10,13.7166667,-89.1666667
barro de los ausoles,,01,13.9125,-89.8272222
bartolo,,03,14.0666667,-89.0166667
batres,,14,13.5166667,-88.4333333
bebedero,,13,13.7333333,-89.5833333
belen,,06,13.5666667,-89.0
belen,,09,13.7666667,-88.3166667
belen,,11,14.2833333,-89.3833333
belen guijat,,11,14.2166667,-89.4666667
beneficio curazao,,05,13.7166667,-89.4333333
beneficio el marquesado,,14,13.5,-88.45
beneficio el penon,,05,13.6,-89.3833333
beneficio la quebrada,,05,13.6833333,-89.3833333
beneficio las cruces,,11,13.9166667,-89.6333333
beneficio las quebradas,,05,13.6833333,-89.3833333
beneficio las termopilas,,05,13.55,-89.4666667
beneficio monte alegre,,11,13.9666667,-89.6166667
beneficio tacubita,,01,13.9,-89.7833333
beneficio termopilas,,05,13.55,-89.4666667
berlin,11313,14,13.5,-88.5333333
bermuda,,04,13.8713889,-89.0375
bobadilla,,07,13.3833333,-87.9333333
boca tronadora,,05,13.8294444,-89.3444444
bola de monte,,01,13.7302778,-90.0980556
bolivar,,07,13.5666667,-87.9666667
bolivar,,14,13.45,-88.6666667
bonete,,10,13.8633333,-89.2013889
boqueron,,09,13.5,-88.35
boquin,,07,13.7394444,-87.7791667
bosque,,02,13.9833333,-88.6833333
botoncillal,,05,13.7333333,-89.35
bramadero,,08,13.9,-88.0666667
buena vista abajo,,06,13.5166667,-88.8333333
buena vista arriba,,06,13.5166667,-88.85
buena vista arrinconada,,06,13.55,-88.8333333
buenavista,,03,14.1333333,-89.05
buena vista,,04,13.7166667,-89.0333333
buena vista,,05,13.7166667,-89.4833333
buenavista,,06,13.5166667,-88.8333333
buena vista,,06,13.55,-89.05
buena vista,,09,13.3938889,-88.2280556
buena vista,,10,13.7,-89.15
buena vista,,12,13.5166667,-88.7
buenos aires,,02,13.8666667,-88.8
buenos aires,,04,13.7333333,-89.0333333
buenos aires,,05,13.5327778,-89.3858333
buenos aires,,11,13.8833333,-89.6475
buenos aires,,13,13.65,-89.8833333
buenos aires,,14,13.45,-88.5833333
cabos negros,,14,13.3166667,-88.5666667
cabrera,,07,13.3188889,-88.0080556
cacahuatalejo,,08,13.6833333,-88.05
cacaopera,2528,08,13.7666667,-88.0833333
cagalero,,11,14.1666667,-89.4
calapa,,01,13.9833333,-89.9166667
calavera,,08,13.8166667,-88.0
calderas,,12,13.6833333,-88.7666667
calera,,08,13.6333333,-88.1833333
caleras,,02,13.9166667,-88.7833333
california,,14,13.3666667,-88.6666667
callejon,,10,13.75,-89.1833333
calle nueva,,09,13.3666667,-88.2833333
calle nueva,,10,13.8591667,-89.1669444
calle real,,10,13.75,-89.15
calpules,,08,13.7333333,-87.9666667
caluco,,13,13.7236111,-89.6622222
calzontes abajo,,11,13.9352778,-89.5816667
calzontes arriba,,11,13.9116667,-89.6033333
camalote,,02,13.9166667,-88.6833333
camotepeque,,10,13.8333333,-89.2
campamento de c.e.l. no. 1,,02,13.9833333,-88.7666667
campamento de c.e.l. no. 2,,02,13.9833333,-88.75
campamento guajoyo,,11,14.2166667,-89.4666667
campamento no. 1,,02,13.9833333,-88.7666667
campamento no. 2,,02,13.9833333,-88.75
campamento numero dos,,02,13.9833333,-88.75
campamento numero uno,,02,13.9833333,-88.7666667
campana,,05,13.9977778,-89.3772222
campana,,11,13.85,-89.6166667
campanario,,12,13.5,-88.8
campanera,,14,13.5333333,-88.4833333
campanero,,14,13.5333333,-88.4833333
camulian,,11,14.2833333,-89.2833333
cana brava,,10,13.65,-89.1333333
cana de tarro,,05,13.8230556,-89.4258333
canafistula,,02,13.75,-88.5833333
canaire,,07,13.6641667,-87.8202778
canales,,14,13.4333333,-88.6166667
canas dulces,,11,14.3166667,-89.3833333
canaveral,,08,13.95,-88.1833333
canaverales,,08,13.95,-88.1833333
cana verde,,08,13.95,-88.1833333
cancasque,,03,13.9833333,-88.85
candadillo,,07,13.2,-87.9333333
candelaria albornoz,,07,13.6080556,-87.9469444
candelaria,,03,13.9666667,-88.8666667
candelaria,,04,13.6833333,-88.9833333
candelaria,,06,13.6152778,-89.0933333
candelaria,,08,13.6833333,-88.0333333
candelaria,,09,13.4333333,-88.3666667
candelaria,,11,14.1166667,-89.65
candelaria,,12,13.65,-88.8166667
candelaria de la frontera,,11,14.1166667,-89.65
candelaria lempa,,12,13.7,-88.5166667
candelario,,11,14.1166667,-89.65
candelillas,,08,13.65,-88.1666667
cangrejera,,05,13.4658333,-89.1794444
cangrejera,,13,13.7266667,-89.6913889
canitas,,03,14.2333333,-89.0666667
canjales,,14,13.4333333,-88.6166667
canoas,,12,13.65,-88.6
canoguero,,07,13.1666667,-87.95
canterillas,,05,13.8963889,-89.4402778
canton aguacate,,02,13.8666667,-88.6
canton aguacayo,,04,13.9277778,-89.0494444
canton agua escondida,,07,13.2975,-87.8108333
canton agua fria,,01,13.9016667,-90.0
canton agua fria,,11,13.95,-89.5166667
canton agua santa,,13,13.7,-89.75
canton agua sarca,,02,13.8,-88.8666667
canton agua zarca,,02,13.8,-88.8666667
canton algodon,,07,13.6197222,-87.8505556
canton alvarez,,05,13.7333333,-89.2666667
canton amatepeque,,10,13.6833333,-89.1666667
canton amatillo,,07,13.6,-87.7666667
canton amatillo,,14,13.6166667,-88.4666667
canton anal,,13,13.8038889,-89.7311111
canton anchico,,09,13.4269444,-88.0608333
canton anonal,,01,13.9166667,-89.7666667
canton bonete,,10,13.8633333,-89.2013889
canton buena vista,,05,13.7,-89.2833333
canton buena vista,,10,13.7,-89.15
canton buenos aires,,13,13.8747222,-89.7525
canton camotepec,,10,13.8333333,-89.2
canton carpintero,,07,13.8666667,-87.7833333
canton caulote,,04,13.9333333,-89.0166667
canton caulote,,13,13.7422222,-89.7752778
canton caulotilla,,07,13.3783333,-88.0202778
canton caulotillo,,07,13.3783333,-88.0202778
canton chaparron,,13,13.8166667,-89.6833333
canton chayal,,01,13.9333333,-89.75
canton chiquihuat,,13,13.6677778,-89.6938889
canton chonchon,,13,13.7672222,-89.6177778
canton conacaste,,05,13.8333333,-89.4033333
canton coyolito,,13,13.6333333,-89.7833333
canton criba,,14,13.3666667,-88.65
canton cuyantepec,,02,13.8333333,-88.6166667
canton del norte,,08,13.7166667,-88.0833333
canton dos quebradas,,12,13.6166667,-88.7666667
canton eden,,13,13.65,-89.7358333
canton el achotal,,13,13.6666667,-89.5666667
canton el algodon,,07,13.6197222,-87.8505556
canton el amatal,,13,13.6333333,-89.9
canton el amatillo,,07,13.6,-87.7666667
canton el cacao,,13,13.6625,-89.6552778
canton el caulote,,04,13.9333333,-89.0166667
canton el cedro,,08,13.7666667,-87.8666667
canton el chaparron,,13,13.8166667,-89.6833333
canton el coyolar,,13,13.6333333,-89.7833333
canton el coyol,,13,13.65,-89.7975
canton el eden,,13,13.65,-89.7358333
canton el espino,,04,13.75,-89.0166667
canton el guaje,,10,13.6666667,-89.15
canton el llano,,14,13.2405556,-88.2447222
canton el marquezado,,12,13.5666667,-88.7
canton el marquezado,,14,13.5,-88.45
canton el molino,,04,13.8536111,-89.0286111
canton el morro,,13,13.6666667,-89.85
canton el nisperal,,14,13.4166667,-88.4166667
canton el palon,,09,13.5666667,-88.3666667
canton el paraiso,,01,13.9491667,-89.7619444
canton el paraiso,,14,13.35,-88.6166667
canton el pilon,,07,13.3119444,-87.9211111
canton el refugio,,01,13.8,-89.9666667
canton el rodeo,,09,13.5333333,-88.2833333
canton el rosario,,10,13.75,-89.0833333
canton el suncita,,13,13.6277778,-89.8488889
canton el taburete,,14,13.3666667,-88.5833333
canton el tigre,,01,13.9858333,-89.9111111
canton el tigre,,14,13.4833333,-88.4333333
canton el transito,,05,14.0166667,-89.3666667
canton el zarzal,,01,13.7,-89.8333333
canton espinal,,14,13.4166667,-88.4166667
canton frutilla,,08,13.7333333,-88.0333333
canton gualindo,,08,13.75,-88.1
canton guanijiquil,,07,13.8863889,-87.9125
canton honduritas,,07,13.8166667,-87.8333333
canton huertas viejas,,07,13.7666667,-87.9
canton jocomotique,,14,13.6666667,-88.5
canton la ceiba,,14,13.4666667,-88.5833333
canton la ceiba gacha,,14,13.3666667,-88.65
canton la esperanza,,01,13.9166667,-89.7333333
canton la estancia,,08,13.7833333,-88.0333333
canton la flor,,11,14.1666667,-89.6333333
canton la joya,,11,13.8577778,-89.4586111
canton la joya,,14,13.3166667,-88.4833333
canton la junta,,11,14.2333333,-89.4
canton la lucha,,06,13.4666667,-88.85
canton la montana,,14,13.45,-88.6166667
canton la nueva,,13,13.6333333,-89.7833333
canton la palma,,10,13.7213889,-89.0675
canton la reforma,,05,13.8277778,-89.425
canton las animas,,10,13.7988889,-89.0827778
canton las aradas,,11,13.9,-89.55
canton las cruces,,11,13.9138889,-89.6558333
canton las delicias,,10,13.7333333,-89.0833333
canton las flores,,10,13.7988889,-89.1316667
canton las flores,,13,13.7,-89.6166667
canton la shila,,05,13.5708333,-89.3463889
canton las hoyos,,02,13.85,-88.8
canton las lajas,,13,13.8158333,-89.5769444
canton las lomitas,,06,13.4,-88.85
canton las mesas,,05,13.9916667,-89.3305556
canton las tunas,,10,13.9377778,-89.2
canton las ventanas,,10,13.98,-89.2311111
canton la trinidad,,09,13.6166667,-88.3
canton la union,,10,13.75,-89.1
canton libertad,,11,13.9716667,-89.6844444
canton loma de ramos,,10,13.9,-89.1522222
canton los angeles,,07,13.2652778,-87.8958333
canton los hoyos,,02,13.85,-88.8
canton los laureles,,12,13.6,-88.8166667
canton los zelaya,,09,13.4166667,-88.3833333
canton lourdes,,05,13.7322222,-89.3741667
canton lucha,,06,13.4666667,-88.85
canton macance,,05,13.7811111,-89.2811111
canton marquezado,,14,13.5,-88.45
canton matasano,,10,14.0166667,-89.2166667
canton matasano,,11,13.9333333,-89.6166667
canton matazano,,10,13.7,-89.15
canton mira valles,,13,13.6041667,-89.7605556
canton mogotes,,05,13.9769444,-89.3919444
canton mojones,,07,13.6691667,-87.8719444
canton monteca,,07,13.8755556,-87.8413889
canton morro grande,,13,13.6666667,-89.85
canton nance verde,,10,13.8833333,-89.1333333
canton nueva,,10,13.8591667,-89.1669444
canton obrajuelo lempa,,12,13.5833333,-88.6666667
canton ojo de agua,,14,13.35,-88.4666667
canton palacios,,04,13.8333333,-89.0666667
canton palo galan,,14,13.3333333,-88.4166667
canton palo grande,,04,13.9166667,-89.0833333
canton palo verde,,13,13.7,-89.5833333
canton paraiso,,14,13.35,-88.6166667
canton pavana,,07,13.45,-87.8666667
canton pena blanca,,13,13.6861111,-89.5666667
canton piedra blanca,,07,13.2808333,-87.8775
canton piedra pacha,,13,13.7341667,-89.6233333
canton piedras blanca,,07,13.2808333,-87.8775
canton piedras pachas,,13,13.7341667,-89.6233333
canton pimiental,,06,13.3666667,-89.0666667
canton porrillo,,12,13.45,-88.8166667
canton portillo,,07,13.7941667,-87.86
canton potrerillos,,10,13.6166667,-89.15
canton pueblo,,07,13.8,-87.8333333
canton punta remedios,,13,13.5333333,-89.8
canton quequeisque,,05,13.7,-89.3
canton ramirez,,04,13.8666667,-89.1333333
canton rodeo,,07,13.8447222,-87.8138889
canton rodriguez,,04,13.8333333,-89.1
canton rosario arriba,,01,13.8,-89.8833333
canton rositas,,02,13.9333333,-88.6333333
canton sacamil,,10,13.8983333,-89.1969444
canton salitre,,04,13.8702778,-89.1041667
canton salitre,,10,13.8022222,-89.2538889
canton salitre,,11,14.2166667,-89.3666667
canton samuria,,14,13.2333333,-88.2833333
canton san antonio,,11,14.25,-89.4
canton san antonio grande,,10,14.05,-89.2333333
canton san carlos,,07,13.5666667,-87.8166667
canton san felipe,,08,13.6,-88.0333333
canton san jacinto,,12,13.6833333,-88.6833333
canton san jeronimo,,12,13.65,-88.8833333
canton san jose de la montana,,06,13.3,-88.8166667
canton san juan,,04,13.95,-89.0166667
canton san juan,,07,13.6480556,-87.7788889
canton san marcelino,,11,13.8333333,-89.6
canton san miguel ingenio,,11,14.3333333,-89.35
canton san nicolas,,12,13.6333333,-88.7
canton san rafael,,12,13.5833333,-88.8
canton san ramon,,13,13.7166667,-89.7333333
canton santa barbara,,14,13.3166667,-88.45
canton santa emilia,,13,13.6666667,-89.7666667
canton santa ines,,09,13.5666667,-88.2
canton santa lucia,,05,13.5833333,-89.4833333
canton santa rita,,01,13.95,-89.7666667
canton shonshon,,13,13.7672222,-89.6177778
canton tahulapa,,11,14.2666667,-89.4
canton tamarindo,,12,13.5166667,-88.6833333
canton tapachucut,,13,13.7666667,-89.6833333
canton tapaschucit,,13,13.7666667,-89.6833333
canton tempisque,,02,13.8666667,-88.6333333
canton tonala,,13,13.5977778,-89.7352778
canton topaschucit,,13,13.7666667,-89.6833333
canton trinidad,,09,13.6166667,-88.3
canton tulima,,07,13.7033333,-87.8763889
canton valle nuevo,,13,13.65,-89.8166667
canton victoria,,05,13.7158333,-89.3011111
canton volcancillo,,07,13.215,-87.9316667
canton y beneficio el penon,,05,13.6,-89.3833333
canton zarzal,,01,13.7,-89.8333333
cantora,,09,13.3766667,-88.1419444
capulin,,09,13.2844444,-88.1263889
cara,,01,13.7791667,-90.0358333
caracol,,02,13.9333333,-88.6333333
caracol,,12,13.5333333,-88.7
caragon,,07,13.3833333,-87.95
carasque,,03,14.0666667,-88.7833333
cara sucia,,01,13.7791667,-90.0358333
carbonal,,07,13.7333333,-87.9333333
caribal,,07,13.2,-87.9666667
carita palmera,,01,13.7283333,-90.0780556
carmen,,07,13.3547222,-88.0
carolina,,02,13.95,-88.8666667
carolina,,09,13.85,-88.3
carpintero,,07,13.8666667,-87.7833333
carrasco,,02,13.8666667,-88.95
carrillo,,08,13.6666667,-87.9833333
carrizal,,03,14.1833333,-88.8833333
carrizal,,08,13.95,-88.0833333
carrizal,,12,13.5833333,-88.6666667
casa blanca,,08,13.9666667,-88.1666667
casa de piedra,,10,13.65,-89.2166667
casa de teja,,11,14.35,-89.4166667
casa de tejas,,11,14.35,-89.4166667
casamulco,,13,13.8136111,-89.7225
casas de teja,,11,14.1166667,-89.6166667
casas viejas,,08,13.65,-87.9833333
casa vieja,,08,13.65,-87.9833333
caserio aceituno,,12,13.4833333,-88.6833333
caserio agua fria,,11,14.1833333,-89.4166667
caserio amatillo,,11,14.1905556,-89.6325
caserio amatitan,,10,13.7,-89.1
caserio anguiatu abajo,,11,14.4166667,-89.4666667
caserio anogado,,11,14.2333333,-89.3833333
caserio belen,,11,14.2833333,-89.3833333
caserio bosque,,02,13.9833333,-88.6833333
caserio buenos aires,,13,13.65,-89.8833333
caserio cagalero,,11,14.1666667,-89.4
caserio camones,,11,14.05,-89.5
caserio campanera,,14,13.5333333,-88.4833333
caserio canton,,11,14.2141667,-89.5541667
caserio canton el palon,,09,13.5666667,-88.3666667
caserio carrillo,,08,13.6666667,-87.9833333
caserio casa de teja,,11,14.35,-89.4166667
caserio casitas,,11,14.1666667,-89.4833333
caserio chagalapa,,01,13.8472222,-90.0411111
caserio chamoco,,12,13.6,-88.65
caserio chepe,,11,14.3666667,-89.5166667
caserio chilin,,11,14.1666667,-89.3833333
caserio chimalapa,,11,14.35,-89.45
caserio colon,,14,13.55,-88.5666667
caserio comayan,,05,13.5333333,-89.5333333
caserio comecayo,,11,14.0,-89.6
caserio cruzadilla de yaquerano,,12,13.4333333,-88.7833333
caserio cuis cuis,,11,14.1683333,-89.5936111
caserio curunco,,12,13.6,-88.65
caserio de las uvillas,,02,13.9666667,-88.6166667
caserio del lago,,11,13.8666667,-89.5
caserio el achotal,,01,13.8227778,-90.0766667
caserio el amatal,,01,13.8430556,-90.0505556
caserio el amatillo,,11,14.1905556,-89.6325
caserio el angel,,05,13.5747222,-89.5497222
caserio el arco,,01,13.8333333,-89.8833333
caserio el banco,,05,13.55,-89.25
caserio el bejuco,,10,14.0,-89.2666667
caserio el bejuco,,11,13.9333333,-89.5166667
caserio el brujo,,12,13.6166667,-88.6333333
caserio el capulin,,01,13.75,-89.9333333
caserio el carmen,,04,13.75,-89.0
caserio el carmen,,10,13.7166667,-89.2666667
caserio el carrizal,,11,14.1666667,-89.3833333
caserio el carrizal,,12,13.5833333,-88.6666667
caserio el cedro,,14,13.4833333,-88.6166667
caserio el chaguite,,01,13.9333333,-90.0
caserio el chino,,01,13.7333333,-90.05
caserio el chiste,,11,14.4,-89.5833333
caserio el chorizo,,12,13.5333333,-88.7166667
caserio el copinol,,12,13.6166667,-88.6
caserio el corozal,,14,13.5166667,-88.6333333
caserio el corral,,01,13.8,-89.9166667
caserio el coyolar,,12,13.6166667,-88.6166667
caserio el coyolar,,13,13.65,-89.7975
caserio el despoblado,,11,14.2166667,-89.4
caserio el escondido,,10,13.9833333,-89.25
caserio el guayabo,,01,13.8313889,-90.1036111
caserio el jicaro,,14,13.4166667,-88.6166667
caserio el jiote,,09,13.6666667,-88.25
caserio el jobal,,14,13.4,-88.6166667
caserio el junquillar,,12,13.6333333,-88.6666667
caserio el juron,,11,13.9833333,-89.5833333
caserio el jute,,11,14.0833333,-89.7
caserio el milagro,,11,13.9333333,-89.5166667
caserio el mogote,,11,14.1852778,-89.64
caserio el mojon,,11,14.1797222,-89.5594444
caserio el morro,,10,13.6166667,-89.1333333
caserio el nance dulce,,11,14.1752778,-89.5072222
caserio el palo negro,,11,13.8611111,-89.4855556
caserio el paste,,11,14.1333333,-89.7
caserio el pino,,11,14.1719444,-89.6505556
caserio el pinto,,11,14.3833333,-89.4833333
caserio el planon,,14,13.25,-88.3
caserio el porvenir,,01,13.7230556,-90.0597222
caserio el presidio,,13,13.5722222,-89.7172222
caserio el pulguero,,12,13.6333333,-88.6166667
caserio el pulido,,05,13.4833333,-89.2333333
caserio el rebelde,,12,13.6166667,-88.6
caserio el rodeo,,11,13.8469444,-89.4961111
caserio el rosario,,04,13.8333333,-89.0166667
caserio el sauce,,10,13.7833333,-89.1166667
caserio el sauce,,11,14.0666667,-89.5833333
caserio el socorro,,12,13.4666667,-88.7166667
caserio el tablon,,12,13.7,-88.7
caserio el tablon,,14,13.5166667,-88.5666667
caserio el tabloncito,,11,14.1,-89.5833333
caserio el talpetate,,01,13.7361111,-90.0036111
caserio el teshcal,,11,13.8166667,-89.5166667
caserio el tigre,,01,13.9833333,-89.9166667
caserio el transito,,05,13.7166667,-89.4166667
caserio el zompopo,,11,14.15,-89.45
caserio el zope,,05,13.9933333,-89.3897222
caserio galeano,,11,14.0,-89.65
caserio garita palmera,,01,13.7283333,-90.0780556
caserio guacamayo,,12,13.75,-88.7
caserio guachipilin,,08,13.65,-88.0333333
caserio guachipilin,,12,13.65,-88.6166667
caserio guayabillas,,11,14.4,-89.55
caserio guayapa arriba,,01,13.76,-89.9608333
caserio hacienda viejo,,11,14.3333333,-89.4166667
caserio hoja de sal,,14,13.2352778,-88.2108333
caserio honduritas,,11,14.1333333,-89.4166667
caserio jicaron,,10,13.9963889,-89.2552778
caserio la aldea,,04,13.8666667,-89.1166667
caserio la angostura,,09,13.7166667,-88.3
caserio la cabana,,10,14.0166667,-89.1833333
caserio la cabana,,14,13.2833333,-88.2666667
caserio la ceibita,,11,14.2666667,-89.35
caserio la chila,,05,13.5708333,-89.3463889
caserio la coruna,,11,13.8833333,-89.5666667
caserio la coyote,,11,13.8666667,-89.5166667
caserio la gloria,,11,13.95,-89.5166667
caserio la india,,12,13.55,-88.8166667
caserio la jagua,,07,13.6833333,-87.9166667
caserio la joya,,09,13.5166667,-88.0333333
caserio la joya,,11,14.1847222,-89.6527778
caserio la linea,,12,13.65,-88.6166667
caserio la majada,,11,14.2166667,-89.4
caserio la montanita,,14,13.5,-88.65
caserio la piedrona,,11,14.1816667,-89.5688889
caserio la pina,,09,13.45,-88.3833333
caserio la puerta,,13,13.7330556,-89.5322222
caserio las animas,,12,13.6833333,-88.65
caserio las aradas,,11,13.9,-89.5333333
caserio las casitas,,03,14.15,-89.3333333
caserio las cerezas,,05,13.9722222,-89.2713889
caserio las champas,,14,13.3833333,-88.6166667
caserio las conchas,,11,14.3055556,-89.5152778
caserio las delicias,,09,13.4883333,-88.1233333
caserio las flores,,11,13.95,-89.6833333
caserio las lajas,,11,14.4166667,-89.45
caserio las lajas,,12,13.65,-88.5666667
caserio las marias,,07,13.4977778,-87.9963889
caserio las marias,,09,13.4666667,-88.3833333
caserio las marias,,11,13.9166667,-89.4672222
caserio las mercedes,,01,13.8833333,-90.0
caserio las mercedes,,11,13.8833333,-89.4833333
caserio las mesas,,09,13.4972222,-88.1013889
caserio las penas,,03,14.15,-89.15
caserio las piletas,,11,14.4,-89.45
caserio las piletas,,14,13.2238889,-88.2383333
caserio las termopilas,,05,13.5616667,-89.4697222
caserio las victorias,,11,13.95,-89.7
caserio lima,,05,13.9833333,-89.3833333
caserio llanitos,,09,13.3408333,-88.1933333
caserio llano grande,,11,14.3,-89.4166667
caserio loma alta,,11,13.9666667,-89.5666667
caserio loma de paja,,01,13.8166667,-90.0166667
caserio los angeles,,11,14.21,-89.5563889
caserio los anteojos,,11,13.8833333,-89.5166667
caserio los arenales,,09,13.4333333,-88.3833333
caserio los cocos,,11,14.2208333,-89.5475
caserio los huateras,,14,13.1866667,-88.1680556
caserio los huateros,,14,13.1866667,-88.1680556
caserio los jobos,,12,13.6,-88.6
caserio los magueyes,,01,13.9333333,-89.8166667
caserio los menjivar,,03,13.9636111,-89.0027778
caserio los pinos,,11,13.8666667,-89.5166667
caserio los planes,,14,13.3833333,-88.6166667
caserio los planes de nueva granda,,09,13.5333333,-88.3166667
caserio los pozos,,14,13.3,-88.7
caserio los ranchos,,03,14.1333333,-89.3833333
caserio los ranchos,,11,14.185,-89.5011111
caserio los reyes,,08,13.6833333,-88.05
caserio los talpetates,,01,13.8666667,-90.05
caserio majoma,,11,13.9722222,-89.4205556
caserio mariona,,10,13.7777778,-89.1836111
caserio matala,,01,13.8166667,-89.8833333
caserio miravalle,,13,13.6041667,-89.7605556
caserio moncagua,,05,13.9625,-89.3822222
caserio monte cristo,,11,14.4,-89.5833333
caserio montepeque,,04,13.8713889,-89.0794444
caserio nancintepeque,,11,13.99,-89.4147222
caserio natividad,,11,14.0,-89.4666667
caserio pacun,,12,13.4,-88.7333333
caserio palomar,,12,13.5,-88.75
caserio panalito,,10,13.9763889,-89.1752778
caserio pedregal,,12,13.5833333,-88.65
caserio piedra blanca,,07,13.4808333,-87.7372222
caserio potrerito,,12,13.55,-88.8
caserio presidio,,13,13.5722222,-89.7172222
caserio primavera,,11,13.9708333,-89.5238889
caserio pueblo,,07,13.7833333,-87.7333333
caserio rio faro,,01,14.0333333,-89.8333333
caserio rio frio,,12,13.5833333,-88.7333333
caserio rio grande,,12,13.5833333,-88.75
caserio salamo,,14,13.2536111,-88.2222222
caserio san andres chota,,12,13.5166667,-88.7166667
caserio san antonio,,12,13.4833333,-88.7333333
caserio san antonio,,14,13.6333333,-88.4166667
caserio san antonio silva,,09,13.3938889,-88.0302778
caserio san benito,,14,13.6,-88.5666667
caserio san carlos,,12,13.3833333,-88.75
caserio san diego,,05,13.4844444,-89.245
caserio san felipe,,12,13.6333333,-88.6833333
caserio san francisco,,09,13.6166667,-88.3666667
caserio san jacinto,,11,13.9736111,-89.4747222
caserio san jacinto,,12,13.55,-88.75
caserio san jeronimo,,10,13.9236111,-89.1891667
caserio san jeronimo,,11,14.3833333,-89.5333333
caserio san jorge,,09,13.6833333,-88.3833333
caserio san jorge y mazatepeque,,09,13.6833333,-88.3833333
caserio san jose,,12,13.7166667,-88.7333333
caserio san jose los pinalitos,,11,14.05,-89.6666667
caserio san juan buena vista,,01,14.0166667,-89.7333333
caserio san lorenzo,,14,13.4833333,-88.55
caserio san luis,,11,14.05,-89.6833333
caserio san luis cienaga,,11,14.1788889,-89.6366667
caserio san marcos,,01,13.7830556,-90.1163889
caserio san miguelito,,11,13.9858333,-89.4483333
caserio san nicolas,,12,13.6333333,-88.7
caserio san pedro,,12,13.6666667,-88.6666667
caserio san sebastian,,01,14.0166667,-89.7333333
caserio santa cruz,,05,13.4833333,-89.2
caserio santa cruz,,11,14.35,-89.4833333
caserio santa elena,,01,13.8055556,-90.0280556
caserio santa elena,,11,14.15,-89.4833333
caserio santa ines,,11,14.3666667,-89.5666667
caserio santa lucia,,05,13.5833333,-89.4833333
caserio santa lucia,,14,13.2833333,-88.55
caserio santa rita,,11,14.3166667,-89.4
caserio santa rosa,,12,13.7166667,-88.6833333
caserio sauce,,10,13.7108333,-89.0441667
caserios el salitre,,03,14.1666667,-89.1333333
caserios los mangos,,13,13.7833333,-89.5333333
caserio sunquenque,,12,13.5166667,-88.6833333
caserio tempisque,,14,13.6166667,-88.55
caserio tenango,,04,13.8833333,-89.0166667
caserio valeriana,,11,14.4,-89.5
caserio valle nuevo,,10,14.05,-89.2
caserio valle nuevo,,13,13.8433333,-89.6983333
caserio venecia,,11,13.9555556,-89.44
caserio veracruz,,05,13.8041667,-89.4333333
caserio zapote,,01,13.7044444,-90.0236111
caserio zapua,,01,13.8063889,-89.8613889
casitas,,11,14.1666667,-89.4833333
catal,,02,13.95,-88.5166667
caulote,,04,13.9333333,-89.0166667
caulote,,13,13.7422222,-89.7752778
cauta abajo,,01,13.7333333,-89.8666667
cauta arriba,,01,13.7594444,-89.8663889
cedros,,08,13.7666667,-87.8666667
ceiba de guadalupe,,05,13.6833333,-89.25
ceiba del charco,,13,13.7333333,-89.6333333
ceiba gacha,,14,13.3666667,-88.65
ceibillas,,07,13.4647222,-87.9422222
ceibios,,07,13.4647222,-87.9422222
ceibita,,11,14.2666667,-89.35
centeno,,07,13.4597222,-88.0
cerco de piedra,,05,13.4833333,-89.2
cerco de piedra,,07,13.3997222,-87.9019444
cerco de piedras,,07,13.3997222,-87.9019444
cerritos,,08,13.9,-88.2
cerro alto,,13,13.7,-89.6333333
cerro blanco,,07,13.3986111,-87.9625
cerro bonito,,09,13.4463889,-88.0911111
cerro colorado,,02,13.7833333,-88.8833333
cerro coyol,,08,13.8166667,-88.15
cerro de amatepeque,,10,13.6833333,-89.1666667
cerro de las flores,,13,13.7,-89.6166667
cerro de san pedro,,12,13.7666667,-88.75
cerro el jiote,,07,13.3166667,-87.9333333
cerro el nanzal,,14,13.3833333,-88.45
cerro grande,,03,14.0833333,-88.7833333
cerro grande,,12,13.6666667,-88.8333333
cerro pando,,08,13.8333333,-88.1166667
cerro pelon,,07,13.6011111,-87.8419444
cerros de san pedro,,12,13.7666667,-88.75
chagalapa,,01,13.8472222,-90.0411111
chaguitillo,,07,13.5508333,-87.8897222
chaguiton,,11,14.2166667,-89.3166667
chalatenanga,,03,14.0333333,-88.9333333
chalatenango,19366,03,14.0333333,-88.9333333
chalchuapa,32282,11,13.9866667,-89.6811111
chaltepe,,10,13.6472222,-89.1522222
chaltipa,,10,13.6386111,-89.1030556
chamalistagua,,02,13.95,-88.85
chambala,,09,13.45,-88.3333333
chambalo,,09,13.45,-88.3333333
chamoco,,12,13.6,-88.6333333
chancala,,10,13.7605556,-89.2119444
chancuyo,,01,13.9333333,-89.8666667
chancuyo,,06,13.5333333,-88.9833333
changallo,,10,13.6691667,-89.1177778
chanmico,,05,13.7872222,-89.3563889
chantusnene,,05,13.8866667,-89.3827778
chaparral,,08,13.7,-88.1333333
chaparrastique,,09,13.4283333,-88.2272222
chaparro,,07,13.7333333,-87.7833333
chapelcoro,,02,13.8,-88.6166667
chapelpique,,09,13.6333333,-88.2666667
chapeltique,3159,09,13.6333333,-88.2666667
chapina,,13,13.6925,-89.6813889
charlaca,,09,13.75,-88.35
chayal,,01,13.9333333,-89.75
chepe,,11,14.3666667,-89.5166667
chiapas,,03,14.0333333,-88.8833333
chicunhuexo,,03,14.1333333,-89.3
chilagual,,07,13.3166667,-87.8666667
chilahual,,07,13.3166667,-87.8666667
chilama,,07,13.8166667,-87.9166667
chilamatal,,05,13.8402778,-89.4472222
chilamate,,03,14.1,-89.0
chilamate,,06,13.55,-89.1333333
chilamate,,07,13.8166667,-87.9166667
chilamate,,09,13.6833333,-88.4
chilamate,,11,14.1333333,-89.6166667
chilamates,,03,14.05,-89.2166667
chilanga,,08,13.7166667,-88.1166667
chilanguera,,09,13.3036111,-88.1716667
chilata,,13,13.6752778,-89.5322222
chilcuyo,,11,14.0666667,-89.5333333
chilin,,03,14.1166667,-89.3666667
chilin,,11,14.1666667,-89.3833333
chilincito,,03,14.1166667,-89.3666667
chiltiupan,,05,13.5905556,-89.4688889
chimalapa,,11,14.35,-89.45
chimamas,,01,14.0,-89.8833333
chinamas,,01,14.0,-89.8833333
chinameca,8646,09,13.5,-88.35
chinanes,,01,14.0,-89.8833333
chipilapa,,01,13.9286111,-89.7905556
chiquihuat,,13,13.6677778,-89.6938889
chiragual,,07,13.3166667,-87.8666667
chiricana,,09,13.3333333,-88.05
chirilagua,6393,09,13.2202778,-88.1386111
chocoaique,,02,13.95,-88.6333333
chorrera del guayabo,,02,13.9833333,-88.75
chorro abajo,,13,13.75,-89.6666667
chorro arriba,,13,13.7666667,-89.65
chorro blanco,,03,14.25,-88.9833333
chucumba,,11,14.3333333,-89.5
chucuyo,,09,13.4486111,-88.1122222
chucuyo,,12,13.6166667,-88.75
chunte,,02,13.9166667,-88.5833333
chupadero,,03,14.2333333,-88.9833333
cimarron,,02,13.9833333,-88.6666667
cimarron,,03,14.2166667,-89.3
cimarron,,12,13.6166667,-88.5833333
cincuya,,07,13.35,-87.9166667
cinquera,,02,13.8833333,-88.9666667
ciricuario,,07,13.5,-87.9833333
citala,,03,14.3666667,-89.2166667
citila,,03,14.3666667,-89.2166667
ciudad arce,10095,05,13.8402778,-89.4472222
ciudad barrios,8491,09,13.7666667,-88.2666667
ciudad de nueva san salvador,,05,13.6769444,-89.2797222
ciudad de sonsonate,,13,13.7188889,-89.7241667
club atami,,05,13.4986111,-89.4197222
club salinitas,,13,13.5330556,-89.8191667
coatepeque,5773,11,13.9286111,-89.5041667
cofradia,,07,13.3975,-88.0211111
cofradia nueva,,07,13.3975,-88.0211111
cojutepeque,48414,04,13.7166667,-88.9333333
colapa,,01,13.9833333,-89.9166667
colima,,04,14.05,-89.1333333
colon,,05,13.7266667,-89.3688889
colon,1895,14,13.55,-88.5666667
colonia america,,10,13.6833333,-89.1833333
colonia belen,,09,13.4769444,-88.1680556
colonia buenos aires,,13,13.65,-89.8833333
colonia carrillo,,09,13.4547222,-88.1458333
colonia ciudad jardin,,09,13.4775,-88.1880556
colonia conde,,09,13.4838889,-88.1875
colonia del milagro,,10,13.6666667,-89.1833333
colonia dolores,,10,13.6833333,-89.2
colonia el angel,,11,13.9466667,-89.3369444
colonia el milagro,,10,13.6666667,-89.1833333
colonia el pedrerito,,09,13.4572222,-88.1686111
colonia escalon,,10,13.7,-89.2333333
colonia gavidia,,09,13.4869444,-88.1716667
colonia guzman,,09,13.4586111,-88.1766667
colonia hirlemann,,09,13.4891667,-88.1908333
colonia joya de ceren,,05,13.8194444,-89.3636111
colonia la ceiba,,11,13.9394444,-89.3322222
colonia las delicias,,05,13.6833333,-89.3166667
colonia las victorias,,10,13.7166667,-89.1666667
colonia los andes,,10,13.6666667,-89.1833333
colonia los angeles,,09,13.4519444,-88.1616667
colonia milagro de la paz,,09,13.4688889,-88.1905556
colonia monserrate,,10,13.6833333,-89.2166667
colonia morataya,,09,13.4841667,-88.1663889
colonia nombre de jesus,,09,13.4855556,-88.1566667
colonia palmira,,05,13.8294444,-89.2772222
colonia panamericana,,09,13.4636111,-88.1738889
colonia san benito,,10,13.7,-89.25
colonia san jose,,09,13.4677778,-88.1652778
colonia san judas,,05,13.8272222,-89.2697222
colonia santa julia,,09,13.4638889,-88.1827778
colonia sitio del nino,,05,13.7863889,-89.3727778
colonia zamoran,,09,13.4947222,-88.1686111
colonia zapata,,09,13.4830556,-88.1630556
comacaran,,09,13.5333333,-88.0666667
comalapa,,03,14.1333333,-88.95
comalapa,,06,13.5011111,-89.0758333
comalapa,,13,13.7,-89.65
comapa,,01,13.9833333,-89.7166667
comasagua,,05,13.6391667,-89.3783333
comaylan,,05,13.5333333,-89.5333333
comecayo,,11,14.0,-89.6
conacastal,,09,13.4333333,-88.3
conacaste,,03,14.0833333,-88.8666667
conacaste,,05,13.775,-89.3291667
conacaste,,06,13.6666667,-88.9
conacaste,,10,13.8047222,-89.2377778
conacaste,,11,13.9458333,-89.5252778
conacaste herrado,,13,13.6666667,-89.7333333
conaguero,,07,13.1666667,-87.95
concepcion batres,3286,14,13.35,-88.3666667
concepcion canas,,12,13.6666667,-88.85
concepcion,,01,13.8169444,-89.7916667
concepcion,,02,13.8666667,-88.8666667
concepcion,,03,13.9833333,-88.8
concepcion,,04,13.7833333,-88.9333333
concepcion,,06,13.6333333,-88.9333333
concepcion,,09,13.5666667,-88.3833333
concepcion,,11,13.9738889,-89.4913889
concepcion,,14,13.5166667,-88.5333333
concepcion corozalito,,09,13.6,-88.1333333
concepcion de ataco,7797,01,13.8702778,-89.8486111
concepcion de oriente,,07,13.7913889,-87.7166667
concepcion jalponga,,06,13.4833333,-88.9333333
concepcion los planes,,06,13.5833333,-89.1
concepcion lourdes,,06,13.6333333,-88.9833333
concepcion quezaltepeque,,03,14.0833333,-88.95
conchagua,3034,07,13.3077778,-87.8647222
conchaguita,,07,13.2391667,-87.7588889
conchaguita,,09,13.1666667,-88.1166667
condadillo,,07,13.2,-87.9333333
condadillo,,14,13.6166667,-88.5333333
consolacion,,04,13.9825,-89.0777778
consolacion,,10,13.9811111,-89.2669444
consuelo,,09,13.3569444,-88.1327778
copalchan,,04,13.85,-88.9666667
copalio,,03,14.0,-88.7833333
copantios,,03,14.3666667,-89.1166667
copapayo,,04,13.9333333,-88.9666667
copapayo,,05,13.7519444,-89.4711111
copetillos,,07,13.6966667,-87.9369444
copinolapa,,02,13.9,-88.7333333
copinol,,04,13.75,-88.8833333
copinol,,12,13.6166667,-88.6
coquiama,,13,13.6333333,-89.65
coralito,,08,13.8166667,-87.95
cordoncillo,,07,13.4666667,-87.9833333
cordoncillo,,09,13.7,-88.4
corinto,3160,08,13.8108333,-87.9713889
corlantique,,09,13.7333333,-88.5166667
corozal,,04,14.0,-89.0666667
corozal,,13,13.5461111,-89.63
corral de mulas,,14,13.2166667,-88.5666667
corral de piedras,,02,13.8666667,-88.7666667
corral falso,,03,13.95,-88.8833333
corralito,,07,13.8333333,-87.8666667
corralito,,08,13.8166667,-87.95
corral viejo,,04,13.8,-88.9666667
costa rica,,11,14.15,-89.4666667
coyolar,,03,14.1,-88.85
coyote,,07,13.6166667,-87.8
coyotera,,01,13.9666667,-89.8166667
coyotera,,09,13.7166667,-88.3
cruzadilla,,12,13.4333333,-88.7833333
cruzadilla de san juan,,14,13.3666667,-88.6166667
cruzadilla de vaqueranos,,12,13.4333333,-88.7833333
cruz del llano,,02,13.8166667,-88.8666667
cruz grande,,13,13.7666667,-89.6666667
cruz verde,,09,13.35,-88.2833333
cruz verde,,13,13.6,-89.7333333
cuajinique,,09,13.7166667,-88.3833333
cuapa,,10,13.6666667,-89.1466667
cucurucho,,09,13.85,-88.4666667
cuervo abajo,,05,13.6166667,-89.45
cuervo arriba,,05,13.6333333,-89.4666667
cuesta de la marina,,03,14.0,-88.9833333
cuesta de marina,,03,14.0,-88.9833333
cuevas,,07,13.8,-87.75
cuevitas,,03,14.2,-88.9666667
cuisnahuat,,13,13.6366667,-89.6036111
cujuapa,,04,13.7,-88.9833333
cujucullo,,11,14.0833333,-89.5
cujucuyo,,11,14.0833333,-89.5
cumaro,,08,13.9166667,-88.1166667
cuntan,,13,13.7508333,-89.6336111
cupatacho,,13,13.6666667,-89.8166667
cupinco,,06,13.55,-89.1
cuquinca,,08,13.8622222,-87.9875
curaren,,02,13.8,-88.5833333
curazao,,05,13.7166667,-89.4333333
cururo,,08,13.9166667,-88.15
cusamaluco,,13,13.8136111,-89.7225
cuscatancingo,44368,10,13.7361111,-89.1813889
cutumay camones,,11,14.05,-89.5
cutumayo,,12,13.65,-88.75
cuyagualo,,05,13.7166667,-89.3833333
cuyagualo,,13,13.7636111,-89.6286111
cuyanausul,,01,13.9338889,-89.7738889
cuyantepec,,02,13.8333333,-88.6166667
cuyantepeque,,02,13.8333333,-88.6166667
cuyuapa abajo,,13,13.7072222,-89.7683333
cuyuapa,,13,13.7713889,-89.7725
cuyucuyo,,11,14.0833333,-89.5
cuyuiscat,,11,14.25,-89.35
cuyultitan,,06,13.5486111,-89.0977778
de bobadilla,,07,13.3833333,-87.9333333
delgado,71593,10,13.7241667,-89.1702778
delicias de concepcion,,06,13.5,-88.9
delicias de concepcion,,08,13.7833333,-88.1333333
delicias,,04,13.7166667,-88.9833333
delicias,,09,13.7666667,-88.3833333
delicias del norte,,10,13.7333333,-89.2166667
desvio san francisco,,01,13.8069444,-90.0525
divisadero,,08,13.6,-88.05
dolores apulo,,10,13.7066667,-89.0761111
dolores,,02,13.7833333,-88.5666667
dolores,,10,13.6833333,-89.2
dos quebradas,,12,13.6166667,-88.7666667
dulce nombre de maria,,03,14.15,-89.0166667
dulce nombre,,01,13.9888889,-89.8377778
dulce nombre,,02,13.9333333,-88.95
dulce nombre,,03,14.15,-89.0166667
dulce nombre,,06,13.5183333,-89.0463889
dulce nombre,,11,14.4,-89.5166667
el aceituno,,08,13.75,-88.1166667
el aceituno,,14,13.5833333,-88.4166667
el achiotal,,06,13.4063889,-89.0302778
el achiotal,,07,13.2977778,-88.0013889
el achiotal,,13,13.6666667,-89.5666667
el achiote,,08,13.7666667,-88.0666667
el achotal,,01,13.8227778,-90.0766667
el achotal,,06,13.4063889,-89.0302778
el achotal,,13,13.6666667,-89.5666667
el achote,,08,13.7666667,-88.0666667
el aguacate,,02,13.8666667,-88.6
el aguacate,,08,14.0166667,-88.1833333
el agua helada,,10,13.9888889,-89.2880556
el agua salada,,09,13.4761111,-88.1061111
el ahogado,,11,14.2333333,-89.3833333
el alambre,,14,13.2316667,-88.1927778
el albornoz,,07,13.5833333,-87.95
el algodon,,07,13.6197222,-87.8505556
el almendro,,13,13.75,-89.7166667
el almidon,,09,13.2158333,-88.0994444
el alto,,07,13.4333333,-87.9166667
el amatal,,01,13.8430556,-90.0505556
el amatal,,06,13.3833333,-88.9666667
el amatal,,11,14.35,-89.55
el amatal,,13,13.6333333,-89.9
el amate,,02,13.8333333,-88.7333333
el amate,,07,13.2202778,-88.0197222
el amate,,09,13.3833333,-88.2322222
el amate,,12,13.4333333,-88.8
el amate,,14,13.5,-88.4
el amatillo,,01,13.7822222,-90.1075
el amatillo,,07,13.3166667,-87.9666667
el amatillo,,09,13.7833333,-88.5
el amatillo,,11,14.1905556,-89.6325
el amatillo,,14,13.1666667,-88.2333333
el amaton,,14,13.5,-88.4166667
el angel,,05,13.5747222,-89.5497222
el angel,,06,13.55,-89.0166667
el angel,,10,13.8,-89.2
el angel talcualhuya,,05,13.9413889,-89.3505556
el angel talcualuya,,05,13.9413889,-89.3505556
el anogado,,11,14.2333333,-89.3833333
el anonal,,01,13.9166667,-89.7666667
el apintal,,08,13.6666667,-88.0
el aquino,,14,13.2833333,-88.2666667
el arado,,11,13.9333333,-89.7166667
el arco,,01,13.8333333,-89.8833333
el arco,,12,13.55,-88.7833333
el arco,,14,13.1666667,-88.3166667
el arenal,,10,13.7666667,-89.1833333
el arenal,,13,13.8325,-89.6838889
el avillal,,09,13.4255556,-88.1322222
el bajio,,09,13.1941667,-88.1361111
el balsamar,,13,13.6833333,-89.6166667
el banadero,,02,13.8666667,-88.6666667
el barillo,,05,13.615,-89.2872222
el barrancon,,08,14.0,-88.1
el barro,,01,13.9125,-89.8272222
el bartolo,,07,13.2108333,-88.0108333
el bebedero,,13,13.7266667,-89.5805556
el bejuco,,10,14.0,-89.2666667
el bejuco,,11,13.9333333,-89.5166667
el bonete,,10,13.8633333,-89.2013889
el borbollon,,07,13.1980556,-88.0438889
el borbollon,,09,13.3508333,-88.2477778
el bosque,,02,13.9833333,-88.6833333
el bosque,,14,13.2594444,-88.2191667
el botoncillal,,05,13.7333333,-89.35
el botoncillo,,01,13.7397222,-90.1213889
el bramadero,,08,13.9,-88.0666667
el brazo,,09,13.3444444,-88.2144444
el brujo,,11,14.45,-89.4
el brujo,,12,13.6166667,-88.6333333
el cacao,,02,13.9,-88.95
el cacao,,07,13.2388889,-87.8525
el cacao,,10,13.7,-89.1666667
el cacao,,11,14.0833333,-89.7166667
el cacao,,13,13.6625,-89.6552778
el cacao,,14,13.2666667,-88.2666667
el cagalero,,11,14.1666667,-89.4
el caguamo,,07,13.3161111,-87.7438889
el caimito,,09,13.2255556,-88.1466667
el callejon,,06,13.5166667,-88.8166667
el callejon,,10,13.75,-89.1833333
el calvario,,04,13.7833333,-88.9166667
el camalote,,01,13.7647222,-90.0266667
el camalote,,02,13.9166667,-88.6833333
el cambio,,05,13.8252778,-89.2547222
el cambio,,11,13.8319444,-89.4702778
el canal,,14,13.3166667,-88.3
el canelo,,13,13.8166667,-89.7166667
el cangrejillo,,07,13.3241667,-88.0280556
el capitan,,07,13.4666667,-87.95
el capulin,,01,13.75,-89.9333333
el capulin,,05,13.7166667,-89.3666667
el capulin,,07,13.4,-87.7166667
el capulin,,08,13.9166667,-88.0833333
el capulin,,09,13.2844444,-88.1263889
el capulin,,11,14.3333333,-89.4333333
el caracol,,02,13.9333333,-88.6333333
el caracol,,12,13.4833333,-88.8
el caragon,,07,13.3833333,-87.95
el caragual,,14,13.6,-88.4833333
el carao,,07,13.2141667,-88.0833333
el carao,,09,13.3230556,-88.1441667
el carao,,12,13.5166667,-88.7833333
el carbonal,,07,13.7333333,-87.9333333
el carbon,,08,13.6833333,-88.2333333
el carmelo,,14,13.2619444,-88.2430556
el carmen,,01,13.7833333,-89.8333333
el carmen,,02,13.8833333,-88.7666667
el carmen,,03,14.3666667,-89.1833333
el carmen,,04,13.7166667,-88.9
el carmen,,05,13.77,-89.3383333
el carmen,,06,13.4961111,-89.0380556
el carmen,,07,13.3547222,-88.0
el carmen,,10,13.6333333,-89.1333333
el carmen,,11,14.0,-89.5
el carmen,,12,13.6666667,-88.8666667
el carmen,,14,13.4333333,-88.65
el carpintero,,07,13.8666667,-87.7833333
el carretero,,09,13.2880556,-88.0475
el carrizal,,02,13.8333333,-88.6
el carrizal,,03,14.1833333,-88.8833333
el carrizal,,04,13.7,-88.95
el carrizal,,08,13.7333333,-88.0166667
el carrizal,,10,13.5666667,-89.2
el carrizal,,11,14.1666667,-89.3833333
el carrizal,,13,13.7333333,-89.7333333
el carrizal,,14,13.3333333,-88.6
el carrizo,,09,13.7166667,-89.4666667
el carrizo,,12,13.5833333,-88.6666667
el casco,,09,13.4372222,-88.2286111
el castano,,01,13.7605556,-90.1
el castano,,09,13.3044444,-88.1302778
el castano,,13,13.6833333,-89.6333333
el castano,,14,13.4166667,-88.6833333
el castillo,,02,13.8,-88.5833333
el castillo,,05,13.9111111,-89.4397222
el caulote,,04,13.9333333,-89.0166667
el caulote,,13,13.7422222,-89.7752778
el caulote,,14,13.5833333,-88.5
el caulotillo,,07,13.225,-88.0588889
el cedral,,08,14.05,-88.1166667
el cedral,,09,13.2708333,-88.1016667
el cedro,,08,13.7666667,-87.8666667
el cedro,,10,13.6208333,-89.2211111
el cedro,,14,13.4833333,-88.6166667
el centeno,,07,13.4597222,-88.0
el centro,,03,14.3833333,-89.1
el centro,,04,13.7333333,-88.9666667
el cerrito,,05,13.8202778,-89.2688889
el cerrito,,13,13.7580556,-89.7361111
el cerrito,,14,13.3833333,-88.45
el cerro,,05,13.9455556,-89.4786111
el cerro,,06,13.5166667,-89.0166667
el cerro,,08,13.8333333,-88.25
el cerro,,09,13.55,-88.25
el cerro,,11,13.9386111,-89.4641667
el cerro,,13,13.7125,-89.5216667
el cerron,,03,14.2166667,-89.1
el chaguite,,01,13.7333333,-89.9
el chaguite,,14,13.5,-88.3666667
el chaguiton,,03,14.4,-89.3
el chaguiton,,11,14.3833333,-89.3333333
el chahuite,,01,13.9333333,-90.0
el chaparral,,02,13.95,-88.5333333
el chaparral,,08,13.7,-88.1333333
el chaparral,,09,13.7666667,-88.35
el chaparro,,07,13.7333333,-87.7833333
el chaparron,,13,13.8166667,-89.6833333
el chapernal,,14,13.1802778,-88.15
el chaperno,,06,13.6333333,-88.9
el chayal,,01,13.9333333,-89.75
el chayal,,09,13.2836111,-88.1144444
el chichipate,,07,13.225,-88.0730556
el chichipate,,14,13.2288889,-88.1733333
el chilamatal,,05,13.8402778,-89.4472222
el chilamate,,03,14.1,-89.0
el chilamate,,06,13.55,-89.1333333
el chilamate,,07,13.8166667,-87.9166667
el chilamate,,09,13.6833333,-88.4
el chilar,,05,13.8266667,-89.3522222
el chilar,,09,13.2780556,-88.1644444
el chile,,06,13.5833333,-88.8833333
el chile,,07,13.3538889,-88.0094444
el chile,,14,13.2166667,-88.45
el chilin,,11,14.1666667,-89.3833333
el chilinto,,03,14.1166667,-89.3666667
el chingaste,,09,13.3333333,-88.3166667
el chino,,01,13.7333333,-90.05
el chiquirin,,09,13.3705556,-88.2333333
el chirizo,,01,13.8,-89.8333333
el chiste,,11,14.4,-89.5833333
el chorizo,,09,13.2580556,-88.0947222
el chorizo,,12,13.5333333,-88.7166667
el chorreron,,05,13.8344444,-89.3525
el chunte,,02,13.9166667,-88.5833333
el chupadero,,03,14.2333333,-88.9833333
el cicahuital,,03,14.0,-88.8333333
el cimarron,,02,13.9833333,-88.6666667
el cimarron,,05,13.5333333,-89.2963889
el cimarron,,12,13.6166667,-88.5833333
el cipres,,07,13.2411111,-87.9072222
el cipres,,09,13.4166667,-88.2188889
el cipres,,10,13.65,-89.15
el ciricuario,,07,13.5,-87.9833333
el cirigual,,08,13.7166667,-88.2666667
el cobanal,,05,13.7166667,-89.3333333
el cobanito,,03,14.0833333,-89.1166667
el cobano,,11,14.2333333,-89.4333333
el cocal,,06,13.3833333,-89.05
el coco,,01,13.7580556,-90.0383333
el coco,,02,13.9,-88.9166667
el coco,,11,14.0833333,-89.7166667
el coco,,14,13.5,-88.45
el colorado,,09,13.55,-88.0666667
el colorado,,14,13.2713889,-88.2402778
el comun,,03,14.2,-89.0333333
el conacastal,,05,13.775,-89.3291667
el conacaste,,01,14.05,-89.8
el conacaste,,03,14.0833333,-88.8666667
el conacaste,,05,13.6125,-89.3513889
el conacaste,,06,13.6666667,-88.9
el conacaste,,09,13.7166667,-88.45
el conacaste,,10,13.8047222,-89.2377778
el condadillo,,07,13.2,-87.9333333
el conde,,09,13.35,-88.2333333
el congo,8906,11,13.9088889,-89.4958333
el consuelo,,09,13.3569444,-88.1327778
el copalio,,07,13.4333333,-87.9333333
el copinol,,04,13.75,-88.8833333
el copinol,,06,13.5166667,-88.8333333
el corazal,,14,13.5166667,-88.6333333
el cordoncillo,,07,13.4666667,-87.9833333
el corosal,,13,13.5461111,-89.63
el corozal,,04,14.0,-89.0666667
el corozal,,09,13.6,-88.1333333
el corozal,,13,13.5461111,-89.63
el corozal,,14,13.5166667,-88.6333333
el corozo,,01,13.8019444,-90.0116667
el corozo,,14,13.45,-88.5833333
el corral,,01,13.8,-89.9166667
el corralito,,07,13.8333333,-87.8666667
el cortez,,01,13.7333333,-89.8166667
el coyolar,,03,14.1,-88.85
el coyolar,,09,13.2680556,-88.1072222
el coyolar,,12,13.6166667,-88.6166667
el coyol,,13,13.6333333,-89.7833333
el coyolito,,07,13.2541667,-88.0041667
el coyolito,,12,13.5833333,-88.8166667
el criba,,09,13.2530556,-88.1775
el cristo,,11,13.8833333,-89.6
el cuco,,09,13.1666667,-88.1166667
el cucurucho,,09,13.85,-88.4666667
el cuervo,,05,13.6166667,-89.4333333
el cuje,,11,13.9833333,-89.6666667
el curunco,,12,13.6,-88.65
el cusumuluco,,13,13.8136111,-89.7225
el cutal,,08,13.7333333,-88.2166667
el cuyal,,08,13.7333333,-88.2166667
el delirio,,09,13.33,-88.1513889
el delirio,,14,13.3833333,-88.5166667
el derrumbado,,07,13.8166667,-87.9
el desague,,07,13.55,-87.8666667
el desparrame,,14,13.3,-88.4166667
el desparramo,,14,13.3,-88.4166667
el despoblado,,06,13.3666667,-88.8333333
el despoblado,,11,14.2166667,-89.4
el diamante,,01,13.7813889,-89.9025
el divisadero,,07,13.5327778,-87.85
el divisadero,,08,13.6,-88.05
el divisadero,,10,13.6,-89.1666667
el dorado,,03,14.05,-89.0
el durazneno,,01,13.95,-90.0
el duraznillo,,11,13.95,-89.6833333
el durazno,,01,13.8,-89.8166667
el durazno,,11,13.95,-89.6833333
el eden,,13,13.65,-89.7358333
el encantado,,14,13.2838889,-88.2458333
el encumbrado,,03,14.2333333,-89.25
el escalon,,01,13.7333333,-89.8333333
el escarbadero,,09,13.6666667,-88.4166667
el escobal,,06,13.35,-88.9333333
el escondido,,10,13.9833333,-89.25
el escorpion,,08,13.8,-87.95
el espinal,,04,13.75,-88.8666667
el espinal,,05,13.8538889,-89.4233333
el espino abajo,,06,13.5,-88.8666667
el espino arriba,,06,13.5166667,-88.8666667
el espino,,01,13.9475,-89.8638889
el espino,,04,13.75,-89.0166667
el espino,,05,13.6833333,-89.25
el espino,,06,13.65,-88.9
el espino,,07,13.3083333,-88.0055556
el espino,,09,13.3138889,-88.095
el espino,,14,13.1666667,-88.2833333
el espiritu santo,,09,13.75,-88.4166667
el espiritu santo,,14,13.25,-88.6
el faro,,05,13.5916667,-89.3569444
el faro,,07,13.2916667,-87.8372222
el filo,,12,13.5166667,-88.6833333
el flor,,13,13.5833333,-89.8
el fraile,,06,13.3666667,-89.0166667
el garrote,,09,13.335,-88.2075
el gavilan,,03,14.05,-89.4166667
el gavilan,,07,13.3433333,-87.9625
el gigante,,08,13.65,-88.0
el golandrino,,01,13.8613889,-90.0102778
el golfo,,06,13.4333333,-88.9166667
el gramal,,03,14.0,-88.9166667
el guaje,,10,13.6666667,-89.15
el guajiniquil,,07,13.8863889,-87.9125
el guamo,,05,13.7,-89.5
el guapinol,,08,13.8,-88.05
el guasimo,,07,13.35,-87.95
el guatalon,,08,14.0333333,-88.1333333
el guayabillo,,12,13.75,-88.7
el guayabito,,09,13.55,-88.3333333
el guayabito,,14,13.6333333,-88.4833333
el guayabo,,01,13.8313889,-90.1036111
el guayabo,,03,14.05,-89.4333333
el guayabo,,07,13.8,-87.7333333
el guayabo,,10,13.6333333,-89.2
el guayabo,,12,13.6833333,-88.7666667
el guayabo,,13,13.6927778,-89.7183333
el guaycume,,09,13.2327778,-88.1816667
el guiliguistal,,09,13.4852778,-88.045
el guiliguiste,,02,13.85,-88.95
el guilihuiste,,02,13.85,-88.95
el guineo,,02,13.8833333,-88.7
el guineo,,03,14.0333333,-89.4333333
el guineo,,11,13.8833333,-89.5
el guiscoyolito,,09,13.85,-88.3833333
el guisnay,,01,13.8044444,-90.0402778
el gumeo,,02,13.8833333,-88.7
el havilla,,09,13.55,-88.1666667
el havillal,,09,13.4255556,-88.1322222
el herrado,,13,13.6666667,-89.7333333
el higueron,,07,13.2666667,-87.9666667
el hondable,,08,13.8622222,-87.9875
el hormiguero,,09,13.5333333,-88.05
el hotel,,09,13.6,-88.3166667
el huatalon,,08,14.0333333,-88.1333333
el huiscoyolate,,13,13.7411111,-89.6925
el huiscoyol,,01,13.8430556,-90.0333333
el huiscoyol,,02,13.9166667,-88.9333333
el huiscoyol,,09,13.2633333,-88.1908333
el huiscoyolito,,09,13.85,-88.3833333
el imposible,,01,13.8666667,-89.9833333
el irayol,,02,13.9,-88.6166667
el iscatal,,02,13.8333333,-88.7333333
el izcatal,,02,13.8333333,-88.7333333
el izotal,,03,14.2666667,-89.1
el jabali,,05,13.7644444,-89.3025
el jabalincito,,05,13.7583333,-89.3436111
el jaguey,,07,13.1666667,-87.9166667
el jicaral,,01,14.05,-89.8166667
el jicaral,,09,13.5,-88.0333333
el jicarillo,,02,13.95,-88.5333333
el jicarito,,07,13.2097222,-88.0655556
el jicarito,,14,13.2408333,-88.2252778
el jicaro,,01,13.9,-89.95
el jicaro,,02,13.8166667,-88.65
el jicaro,,05,13.87,-89.3133333
el jicaro,,07,13.3458333,-87.9438889
el jicaro,,08,13.9,-88.2166667
el jicaro,,09,13.3644444,-88.225
el jicaro,,14,13.2166667,-88.2833333
el jicaron,,10,13.9963889,-89.2552778
el jicaron,,14,13.2166667,-88.2833333
el jiote,,07,13.3166667,-87.9333333
el jiote,,09,13.2066667,-88.1463889
el jobal,,14,13.25,-88.6166667
el jobito,,02,13.8333333,-88.6833333
el jobo,,01,13.9658333,-89.7833333
el jobo,,02,13.85,-88.6833333
el jobo,,09,13.2211111,-88.1536111
el jobo,,14,13.1955556,-88.2108333
el joco,,14,13.6833333,-88.4666667
el jocomontique,,14,13.6666667,-88.5
el jocotal,,02,13.9333333,-88.95
el jocote dulce,,09,13.4666667,-88.35
el jocote,,02,13.8,-88.5333333
el jocote,,05,13.9144444,-89.2811111
el jocote,,09,13.4666667,-88.3
el jocote,,14,13.45,-88.6
el jocotillo,,01,13.8725,-90.0763889
el jocotillo,,03,14.1,-88.9833333
el jocotillo,,14,13.5666667,-88.4666667
el julupe,,05,13.5294444,-89.4627778
el junquillal,,12,13.6333333,-88.6666667
el junquillo,,01,13.9888889,-89.8377778
el junquillo,,02,13.85,-88.7333333
el junquillo,,08,13.8333333,-88.0833333
el junquillo,,09,13.8166667,-88.35
el juron,,11,13.9833333,-89.5833333
el jutal,,14,13.2788889,-88.2444444
el jute,,09,13.4419444,-88.1513889
el jute,,11,14.0833333,-89.7
el jutillo,,10,13.5833333,-89.2166667
el jutio,,10,13.5833333,-89.2166667
el lagartero,,07,13.5333333,-87.8333333
el lago,,11,13.8666667,-89.5
el lajero,,07,13.45,-87.8333333
el lazareto,,06,13.6,-88.95
el leon,,08,13.8333333,-88.0333333
el libano,,04,13.95,-89.15
el ligano,,04,13.95,-89.15
el limar,,06,13.6333333,-89.0666667
el limo,,01,13.8666667,-89.8833333
el limo,,02,13.9833333,-88.6
el limo,,11,14.3666667,-89.3666667
el limon,,01,13.8666667,-89.8833333
el limon,,02,13.95,-88.8333333
el limon,,03,14.05,-89.0
el limon,,04,13.7666667,-88.9833333
el limon,,05,13.7166667,-89.4
el limon,,08,13.7,-88.1666667
el limon,,10,13.7225,-89.1325
el limon,,12,13.65,-88.8833333
el limon,,14,13.25,-88.4166667
el llano,,03,13.9666667,-88.9833333
el llano,,04,13.8166667,-88.9666667
el llano,,06,13.3833333,-88.9666667
el llano,,14,13.2405556,-88.2447222
el majagual,,05,13.4941667,-89.3680556
el majahual,,05,13.4941667,-89.3680556
el malpaso,,11,14.3833333,-89.5
el maneadero,,06,13.5333333,-88.8333333
el manguito,,02,13.95,-88.8166667
el manguito,,05,13.7,-89.3166667
el manguito,,09,13.3133333,-88.1066667
el manzanillo,,09,13.4647222,-88.0519444
el maranon,,07,13.1802778,-88.0255556
el marillo,,14,13.3166667,-88.7333333
el marquesado,,12,13.5666667,-88.7
el marquesado,,14,13.5,-88.45
el marquezado,,12,13.5666667,-88.7
el marquezado,,14,13.5,-88.45
el martillo,,01,13.8766667,-90.0580556
el matazano,,03,14.0,-88.95
el matazano,,05,13.6166667,-89.2833333
el matazano,,10,13.7,-89.15
el matazano,,11,13.9333333,-89.6166667
el matazano,,12,13.5666667,-88.7166667
el matazano,,13,13.8033333,-89.7791667
el mestizo,,02,13.9166667,-88.8333333
el mico,,10,13.9,-89.1666667
el milagro,,10,13.6666667,-89.1833333
el milagro,,11,13.9333333,-89.5166667
el mogote,,11,14.1852778,-89.64
el mogotillo,,07,13.4352778,-87.8861111
el mojon,,01,13.9666667,-89.85
el mojon,,03,14.0166667,-88.8666667
el mojon,,05,13.6666667,-89.5
el mojon,,11,14.1797222,-89.5594444
el mojon,,13,13.7333333,-89.7
el molino,,01,13.8833333,-89.85
el molino,,04,13.8536111,-89.0286111
el molino,,07,13.7480556,-87.7544444
el monarca,,13,13.8166667,-89.75
el monito,,14,13.2313889,-88.2366667
el mono,,09,13.3927778,-88.1369444
el mono,,14,13.2088889,-88.2416667
el moral,,09,13.3825,-88.1083333
el morro,,03,14.15,-88.95
el morro,,10,13.6166667,-89.1333333
el mostacillar,,09,13.29,-88.1286111
el mozote,,08,13.9,-88.1166667
el mundo nuevo,,14,13.3,-88.4666667
el nacaspilo,,02,13.8166667,-88.5833333
el nance dulce,,11,14.1752778,-89.5072222
el nance,,01,13.7333333,-89.9833333
el nance,,07,13.5333333,-87.8333333
el nance,,08,13.7833333,-88.1
el nancito,,09,13.5666667,-88.3333333
el nanzal,,14,13.3833333,-88.45
el naranjito,,01,13.8486111,-89.8686111
el naranjito,,14,13.2005556,-88.2436111
el naranjo,,01,13.7716667,-90.1011111
el naranjo,,07,13.5,-87.9
el naranjo,,14,13.1844444,-88.2433333
el nazareno,,11,14.0166667,-89.7
el negro,,07,13.85,-87.9166667
el nino,,09,13.4275,-88.2005556
el nisperal,,03,14.1666667,-89.2666667
el nisperal,,14,13.4166667,-88.4166667
el nispero,,01,13.8652778,-89.8986111
el nispero,,02,13.9833333,-88.6833333
el nispero,,05,13.5333333,-89.55
el nispero,,09,13.2466667,-88.1913889
el nispero,,14,13.4166667,-88.4166667
el norte,,08,13.7166667,-88.0833333
el obrajito,,03,14.1166667,-89.3
el obrajuelo,,03,14.1333333,-89.2166667
el obrajuelo,,14,13.3166667,-88.3833333
el obrajuelo lempa,,12,13.5833333,-88.6666667
el ocotal,,03,14.2,-88.9833333
el ocote,,07,13.8333333,-87.7833333
el ocre,,07,13.25,-87.8666667
el ojeo,,09,13.7666667,-88.4833333
el ojo de agua,,14,13.35,-88.4666667
el ojushte,,02,13.9166667,-88.6666667
el ojushte,,14,13.6166667,-88.4833333
el ojuste,,14,13.6166667,-88.4833333
el pacun,,09,13.4822222,-88.1427778
el pacun,,12,13.4,-88.7333333
el paisnal,1641,10,13.9736111,-89.2186111
el pajal,,06,13.5333333,-88.9
el pajarito,,09,13.2844444,-88.0480556
el palmar,,05,13.5333333,-89.4166667
el palmital,,14,13.4,-88.5
el palmo,,01,13.8833333,-89.95
el palmo,,14,13.4333333,-88.5666667
el palomar,,02,13.9833333,-88.5833333
el palomar,,05,13.5166667,-89.25
el palomar,,12,13.5166667,-88.75
el palo negro,,11,13.8611111,-89.4855556
el palon,,09,13.5666667,-88.3666667
el palon,,14,13.6,-88.4333333
el palo verde,,01,13.8666667,-89.8
el panal,,03,14.3,-89.2166667
el panal,,11,14.3666667,-89.45
el papalon,,02,13.9666667,-88.5833333
el papalon,,09,13.4508333,-88.1358333
el papaturral,,05,14.05,-89.3166667
el papayal,,06,13.4333333,-88.9
el paraiso,,01,13.9491667,-89.7619444
el paraiso,,03,14.1,-89.0666667
el paraiso,,04,13.7666667,-89.0333333
el paraiso,,08,14.0333333,-88.2
el paraiso,,11,14.1333333,-89.5833333
el paraiso,,12,13.7333333,-88.8
el paraiso,,13,13.6166667,-89.5666667
el paraiso,,14,13.35,-88.6166667
el paredon,,06,13.5166667,-89.05
el paste,,11,14.1333333,-89.7
el pastor,,07,13.4561111,-88.0283333
el paxte,,11,14.1333333,-89.7
el pedernal,,08,13.7333333,-88.1
el pedregal,,06,13.4511111,-89.0233333
el pedregal,,12,13.5833333,-88.65
el peinado,,09,13.2661111,-88.1119444
el penon,,05,13.6,-89.3833333
el penon,,07,13.6166667,-87.7833333
el penon,,08,13.7,-87.9833333
el pepenance,,01,13.9666667,-89.7333333
el pepeto,,02,13.8166667,-88.6333333
el pepeto,,03,14.1,-88.9666667
el pepeto,,04,13.85,-88.9833333
el pepeto,,10,13.6591667,-89.1675
el perical,,06,13.55,-88.8333333
el perical,,07,13.4833333,-87.85
el petatero,,07,13.22,-88.0391667
el pezate,,11,13.8577778,-89.4894444
el pezote,,11,13.8577778,-89.4894444
el picacho,,07,13.6,-87.8333333
el picacho,,08,13.9333333,-88.25
el picacho,,09,13.8,-88.3166667
el piche,,07,13.2947222,-87.9913889
el pichito,,07,13.2833333,-88.0
el pichon,,07,13.2833333,-88.0
el pico,,12,13.5166667,-88.6833333
el pilon,,07,13.3119444,-87.9211111
el pimiental,,06,13.3666667,-89.0666667
el pinal,,05,13.6166667,-89.45
el pinito,,11,14.3833333,-89.4833333
el pino,,11,14.1719444,-89.6505556
el pinto,,11,14.3833333,-89.4833333
el pital,,01,13.8547222,-90.0708333
el pital,,03,13.95,-88.9666667
el planon,,07,13.2455556,-88.0263889
el planon,,14,13.25,-88.3
el platanar,,02,13.8833333,-88.8833333
el platanar,,04,13.9452778,-89.0627778
el platanar,,09,13.5833333,-88.3
el playon,,11,14.3833333,-89.55
el playon,,12,13.4333333,-88.75
el polvo,,07,13.5333333,-87.8333333
el porfiado,,06,13.3666667,-89.0
el porrillo,,12,13.45,-88.8166667
el portezuelo de la canada,,11,14.2025,-89.6244444
el portezuelo,,03,14.15,-89.2666667
el portezuelo,,11,13.9833333,-89.5833333
el portillito,,14,13.2683333,-88.2491667
el portillo del ujushte,,07,13.2666667,-87.95
el portillo,,01,14.0333333,-89.7833333
el portillo,,03,14.1166667,-88.8333333
el portillo,,05,13.9477778,-89.3633333
el portillo,,07,13.2833333,-87.95
el portillo,,09,13.3,-88.1619444
el portzuelo,,01,13.9166667,-89.7166667
el porvenir aguacayo,,12,13.7333333,-88.8333333
el porvenir,,01,13.7230556,-90.0597222
el porvenir,,06,13.3902778,-89.0561111
el porvenir,,09,13.6833333,-88.2833333
el porvenir,,10,13.6333333,-89.15
el porvenir,,11,13.85,-89.5333333
el porvenir,,12,13.7333333,-88.8333333
el porvenir,,14,13.3333333,-88.3333333
el porvenir jocotillo,,11,13.9333333,-89.6833333
el potosi,,11,13.9363889,-89.4752778
el potrerillo,,10,13.6166667,-89.15
el potrero,,02,13.8166667,-88.6666667
el poy,,03,14.3666667,-89.2166667
el pozo,,07,13.4666667,-87.8833333
el pozon,,14,13.45,-88.4666667
el presidio,,13,13.5722222,-89.7172222
el progreso,,05,13.7383333,-89.2694444
el progreso,,08,13.8833333,-88.2333333
el progreso,,09,13.3816667,-88.1716667
el progreso,,14,13.2663889,-88.2325
el pueblo de santo domingo de guzman,,13,13.715,-89.7983333
el puente,,05,13.8327778,-89.2855556
el puente,,06,13.5166667,-88.8166667
el puente,,13,13.8166667,-89.75
el pulguero,,12,13.6333333,-88.6166667
el pulido,,05,13.4833333,-89.2333333
el puntito,,11,14.35,-89.55
el quebracho,,09,13.8,-88.3833333
el quebracho,,14,13.5333333,-88.4833333
el quequeishque,,05,13.7,-89.3
el quequeisque,,05,13.7,-89.3
el ranchador,,11,14.0166667,-89.6
el rebalse,,07,13.5011111,-87.8669444
el rebalse,,09,13.4330556,-88.1163889
el rebelde,,12,13.6166667,-88.6
el refugio,,01,13.8,-89.9666667
el refugio,,12,13.7166667,-88.85
el regadio,,05,13.5333333,-89.45
el resbaladero,,11,13.9866667,-89.4394444
el rincon,,02,13.7833333,-88.8833333
el rincon,,07,13.7166667,-87.8
el rincon,,08,13.8833333,-88.1333333
el rincon,,11,13.9844444,-89.3302778
el roblar,,03,14.3,-89.0333333
el roblar,,04,13.91,-89.0697222
el roble,,01,13.9833333,-89.8166667
el roble,,04,13.91,-89.0697222
el roble,,06,13.6,-88.9166667
el roble,,07,13.3241667,-87.9761111
el roble,,09,13.2105556,-88.1191667
el roblito,,03,14.2833333,-89.2333333
el rodeo,,01,13.9416667,-89.9425
el rodeo,,04,13.8,-89.0166667
el rodeo,,07,13.8447222,-87.8138889
el rodeo,,08,13.6833333,-88.1666667
el rodeo,,09,13.5333333,-88.2833333
el rodeo,,11,13.8469444,-89.4961111
el rodeo,,14,13.3333333,-88.4666667
el roquinte,,14,13.3166667,-88.5666667
el rosario,,01,13.75,-89.8833333
el rosario,,03,14.1166667,-88.95
el rosario,,04,13.6833333,-88.9833333
el rosario,,05,13.6408333,-89.3525
el rosario,5620,06,13.4977778,-89.0297222
el rosario,,07,13.5666667,-87.8
el rosario,,08,13.5666667,-88.0833333
el rosario,,10,13.75,-89.0833333
el rosario,,11,13.9602778,-89.4594444
el rosario,,12,13.7333333,-88.6166667
el rosario,,13,13.7730556,-89.4905556
el rosario tablon,,04,13.8166667,-88.95
el rotillo,,08,13.75,-88.0
el rucio,,09,13.2397222,-88.1066667
el sacamil,,05,13.6977778,-89.4883333
el sacazil,,05,13.6333333,-89.3166667
el saco,,07,13.55,-87.8833333
el sacramento,,01,13.8533333,-90.0552778
el saitillal,,01,13.8833333,-89.8166667
el salamar,,03,14.0166667,-89.0
el salamar,,09,13.4908333,-88.0747222
el salamo,,13,13.6819444,-89.8175
el salamo,,14,13.2536111,-88.2222222
el salitre,,03,14.0166667,-88.9166667
el salitre,,04,13.8702778,-89.1041667
el salitre,,10,13.8022222,-89.2538889
el salitre,,11,14.2166667,-89.3666667
el salto,,02,13.9666667,-88.65
el salto,,06,13.5666667,-88.8833333
el salto,,09,13.3272222,-88.1638889
el salto,,14,13.5166667,-88.45
el salto san jose,,06,13.5666667,-88.8833333
el salvador,,07,13.2030556,-87.7019444
el saso,,09,13.4163889,-88.1052778
el sauce,,06,13.45,-88.95
el sauce,,07,13.6688889,-87.8005556
el sauce,,10,13.7108333,-89.0441667
el sauce,,11,14.0666667,-89.5833333
el sauce,,13,13.7,-89.55
el semillero,,14,13.55,-88.4166667
el senor,,05,13.8269444,-89.2777778
el shiste,,11,14.4,-89.5833333
el sicahuital,,03,14.0,-88.8333333
el sicahuite,,03,14.1166667,-88.9166667
el sinai,,11,13.95,-89.5666667
el sincuyo,,01,13.8822222,-89.9458333
el siricuario,,07,13.5,-87.9833333
el sisimitepet,,13,13.75,-89.7166667
el sitio de los nejapas,,05,13.8919444,-89.2727778
el sitio de santa lucia,,14,13.2833333,-88.55
el sitio,,01,13.7666667,-89.9333333
el sitio,,03,13.95,-88.9833333
el sitio,,09,13.5,-88.2166667
el sitio,,11,13.9986111,-89.4497222
el sitio,,14,13.65,-88.4833333
el social,,08,13.9666667,-88.1333333
el socorro,,06,13.4833333,-88.8333333
el socorro,,07,13.4741667,-88.0169444
el socorro,,12,13.4666667,-88.7166667
el sombrerito,,07,13.5263889,-87.8913889
el suncita,,13,13.6277778,-89.8488889
el sunza,,01,13.9077778,-90.0047222
el sunza,,13,13.7547222,-89.5602778
el sunzal,,05,13.5,-89.3833333
el tablazo,,05,14.05,-89.3166667
el tablon,,01,14.05,-89.8
el tablon,,02,13.8166667,-88.65
el tablon,,03,14.0833333,-89.0666667
el tablon,,04,13.9833333,-89.0333333
el tablon,,05,13.5333333,-89.3666667
el tablon,,07,13.25,-87.9833333
el tablon,,08,13.7333333,-88.0
el tablon,,09,13.2566667,-88.1977778
el tablon,,10,13.9780556,-89.2583333
el tablon,,11,14.1711111,-89.5833333
el tablon,,12,13.7,-88.7
el tablon,,14,13.3833333,-88.5666667
el talpetate,,01,13.7361111,-90.0036111
el talpetate,,07,13.5666667,-87.8333333
el talpetate,,09,13.3230556,-88.1352778
el talpetate,,14,13.3333333,-88.4833333
el talquezal,,09,13.2794444,-88.1194444
el tamarindito,,07,13.4666667,-87.8833333
el tamarindo,,07,13.1838889,-87.9208333
el tamarindo,,12,13.5166667,-88.6833333
el tamboral,,01,13.8722222,-90.07
el tamboral,,09,13.2858333,-88.1633333
el tambor,,08,13.8166667,-88.0333333
el tanque,,11,14.1,-89.7166667
el tapechame,,06,13.5333333,-88.8833333
el tapesco,,09,13.4383333,-88.1413889
el tecolote,,05,13.6,-89.4666667
el tecomatal,,09,13.3711111,-88.1452778
el tecomatal,,14,13.6333333,-88.5166667
el tegual,,07,13.55,-87.8666667
el tejar,,07,13.3275,-88.0036111
el tejar,,10,13.6833333,-89.1833333
el telpetate,,01,13.8669444,-90.055
el tempiscal,,09,13.1830556,-88.1308333
el tempisque,,02,13.8666667,-88.6333333
el tempisque,,14,13.6166667,-88.55
el terrerito,,07,13.7488889,-87.8394444
el terrero,,03,14.2166667,-89.05
el terrero,,07,13.3986111,-87.9625
el tesoro,,11,14.0333333,-89.65
el tiangue,,14,13.2713889,-88.2244444
el tigre,,01,13.9833333,-89.9166667
el tigre,,03,14.1666667,-89.1833333
el tigre,,14,13.4833333,-88.4333333
el tinteral,,05,13.8505556,-89.4691667
el tinteral,,11,13.8277778,-89.4672222
el tizate,,07,13.4808333,-87.9658333
el tizate,,08,13.9166667,-88.05
el tizatillo,,07,13.4808333,-87.9658333
el torrero,,07,13.7488889,-87.8394444
el tortuguero,,01,13.9166667,-89.75
el tortuguero,,12,13.7166667,-88.65
el transito,,02,13.9,-88.95
el transito,,03,14.15,-89.1
el transito,,05,13.7166667,-89.4166667
el transito,,06,13.6333333,-88.9333333
el transito,,07,13.5333333,-87.9666667
el transito,9486,09,13.35,-88.35
el transito,,10,13.7166667,-89.1333333
el trapichon,,04,13.9833333,-89.1333333
el trilladero,,14,13.55,-88.5
el trillo,,14,13.3166667,-88.45
el triunfo,,04,13.8166667,-89.0333333
el triunfo,,05,13.5833333,-89.3166667
el triunfo,,08,13.65,-88.0833333
el triunfo,,12,13.3833333,-88.7333333
el triunfo,,13,13.6833333,-89.55
el triunfo,,14,13.5666667,-88.4333333
el tronadero,,14,13.55,-88.5
el tronador,,10,13.9552778,-89.2438889
el tronconal,,01,13.8686111,-89.8344444
el tule,,02,13.9166667,-88.95
el tuno,,07,13.4747222,-88.0052778
el ujushtal,,01,13.8536111,-90.0675
el ujushte,,14,13.35,-88.4333333
el valle grande,,08,13.8166667,-88.25
el volcancillo,,07,13.215,-87.9316667
el volcancillo,,08,13.8833333,-88.1666667
el volcancillo,,09,13.8166667,-88.2833333
el volcan,,02,13.9,-88.6833333
el volcan,,08,13.7333333,-88.2166667
el volcan,,09,13.4666667,-88.2666667
el volcan,,14,13.4333333,-88.4166667
el yurique,,03,14.1,-88.8333333
el zacamil,,03,14.0666667,-88.7833333
el zacamil,,05,13.6977778,-89.4883333
el zacamil,,10,13.7333333,-89.2166667
el zacamil,,11,14.0833333,-89.65
el zacatal,,11,13.8833333,-89.4833333
el zacatoso,,14,13.2683333,-88.2152778
el zamoran,,09,13.5,-88.1833333
el zamoran,,14,13.3333333,-88.7
el zapatero,,07,13.5333333,-87.7833333
el zapotal,,03,14.1166667,-88.8666667
el zapotal,,07,13.2886111,-88.0291667
el zapotal,,08,13.8666667,-88.0833333
el zapotal,,09,13.3661111,-88.1213889
el zapote,,01,13.7044444,-90.0236111
el zapote,,02,13.8666667,-88.9333333
el zapote,,03,14.0333333,-88.7833333
el zapote,,04,13.9455556,-89.0983333
el zapote,,05,13.9175,-89.4466667
el zapote,,06,13.3,-88.9166667
el zapote,,07,13.5333333,-87.9166667
el zapote,,09,13.5666667,-88.2333333
el zapote,,10,13.75,-89.2166667
el zapote,,11,14.2833333,-89.3833333
el zapote,,13,13.7263889,-89.6288889
el zapote,,14,13.1966667,-88.1786111
el zapotillo,,11,14.1666667,-89.4
el zarzal,,01,13.7,-89.8333333
el zarzal,,09,13.4002778,-88.0469444
el zarzalito,,13,13.7025,-89.8136111
el zarzel,,01,13.7,-89.8333333
el zompopo,,11,14.15,-89.45
el zonte,,05,13.5,-89.4333333
el zope,,02,13.95,-88.6
el zope,,05,13.9933333,-89.3897222
el zope,,13,13.6877778,-89.8002778
el zorral,,09,13.2372222,-88.1247222
el zungano,,14,13.25,-88.2227778
el zunza,,13,13.7547222,-89.5602778
el zunzal,,05,13.5,-89.3833333
el zurron,,02,13.8333333,-88.9333333
encumbrado,,03,14.2333333,-89.25
entre rios,,05,13.7447222,-89.4088889
eramon,,03,14.0333333,-88.75
ereguayquin,,14,13.35,-88.3833333
escalante,,03,14.0,-88.7166667
escalon,,10,13.7,-89.2333333
escarbadero,,09,13.6666667,-88.4166667
escondido,,10,13.9833333,-89.25
espino abajo,,06,13.5,-88.8666667
espino arriba,,06,13.5166667,-88.8666667
espiritu santo,,09,13.75,-88.4166667
esquipulas,,11,13.9975,-89.4375
estanzuelas,,03,14.1333333,-89.0833333
estanzuelas,,04,13.9166667,-89.05
estanzuelas,,14,13.65,-88.5
eucalipto,,14,13.4,-88.65
eugenio,,13,13.7166667,-89.5166667
faya,,01,13.7386111,-90.0047222
finca agua shuca,,01,13.9166667,-89.8
finca barrios,,12,13.6,-88.8166667
finca buenavista,,05,13.7,-89.2833333
finca campana,,11,13.8666667,-89.61
finca el carmen,,01,13.8666667,-89.85
finca el carmen,,04,13.75,-89.0
finca el chorro,,11,13.8844444,-89.4458333
finca el espino,,05,13.6833333,-89.25
finca el pinalito,,11,14.05,-89.5666667
finca el ranchon,,05,13.6166667,-89.3666667
finca el sinai,,11,13.95,-89.5666667
finca flor amarilla,,11,13.9316667,-89.5672222
finca la angostura,,08,13.7833333,-88.2333333
finca la cruz,,06,13.6333333,-89.0666667
finca la marina,,05,13.65,-89.4666667
finca la placita,,09,13.4666667,-88.2833333
finca las canoas,,01,13.8166667,-89.8666667
finca las cruces,,05,13.8638889,-89.4394444
finca las mercedes,,05,13.6833333,-89.4833333
finca las mercedes,,11,13.8833333,-89.4833333
finca las mercedes,,13,13.7166667,-89.5666667
finca las tinieblas,,05,13.6666667,-89.4833333
finca las victorias,,11,13.95,-89.7
finca linda vista,,13,13.5666667,-89.6166667
finca los pinos,,11,13.8666667,-89.5166667
finca miramar,,14,13.45,-88.4333333
finca monarca,,13,13.8166667,-89.75
finca san antonio,,01,13.85,-89.8833333
finca san cayetano,,13,13.8,-89.5333333
finca san jose,,01,13.8833333,-89.8166667
finca san jose,,11,13.8666667,-89.5166667
finca san luis,,01,13.95,-89.8166667
finca santa elena,,05,13.6666667,-89.2666667
finca suchinango,,10,13.785,-89.2375
finca venecia,,10,13.7166667,-89.15
finca venecia,,11,13.9555556,-89.44
finca victoria,,04,13.85,-89.1
finca y beneficio el espino,,05,13.6833333,-89.25
flamenco,,08,13.6166667,-88.0
flor amarilla abajo,,11,13.9316667,-89.5672222
flor amarilla,,11,13.9316667,-89.5672222
flor del muerto,,08,13.8,-88.0833333
flor muerta,,08,13.8,-88.0833333
frutilla,,08,13.7333333,-88.0333333
gabilan,,07,13.3433333,-87.9625
galeano,,11,14.0,-89.65
galera quemada,,10,13.8452778,-89.2330556
galingagua,,14,13.45,-88.5833333
garita palmera,,01,13.7283333,-90.0780556
gavilan,,07,13.3433333,-87.9625
gigante,,08,13.65,-88.0
gilovasco,,02,13.85,-88.85
giron,,05,13.8722222,-89.2569444
gotera,16154,08,13.7,-88.1
granada,,11,14.0166667,-89.5666667
guacamaya,,08,13.8666667,-88.1166667
guacamaya,,09,13.5,-88.1
guacamaya,,13,13.7847222,-89.7527778
guacamayo,,07,13.8833333,-87.9333333
guacamayo,,12,13.75,-88.7
guacamayo,,13,13.7847222,-89.7527778
guachipilin,,03,14.1666667,-88.9666667
guachipilin,,08,13.65,-88.0333333
guachipilin,,11,13.9166667,-89.6833333
guachipilin,,12,13.65,-88.6166667
guachua,,14,13.2666667,-88.3166667
guacotecti,,02,13.8666667,-88.65
guacuco,,09,13.4258333,-88.075
guadalupe,,04,13.8833333,-89.0
guadalupe,,05,13.5333333,-89.3
guadalupe,,07,13.5722222,-87.9661111
guadalupe,,09,13.2452778,-88.1805556
guadalupe,,10,13.65,-89.2
guadalupe,,12,13.6166667,-88.8833333
guadalupe la zorra,,06,13.35,-88.8833333
guajiniquil,,07,13.8863889,-87.9125
guajiniquil,,09,13.7166667,-88.3833333
guajoyo,,12,13.4833333,-88.7166667
gualache,,14,13.4166667,-88.5
gualcho,,03,14.3833333,-89.2166667
gualchua,,14,13.2666667,-88.3166667
gualcimaca,,03,14.05,-88.7333333
gualindo abajo,,08,13.75,-88.1
gualindo centro,,08,13.75,-88.0833333
gualindo,,08,13.75,-88.0833333
gualococti,,08,13.8166667,-88.2166667
gualora,,14,13.2438889,-88.2322222
gualosito,,09,13.2163889,-88.0852778
gualpiapur,,07,13.25,-87.8666667
gualpirque,,07,13.25,-87.8666667
gualuca,,09,13.3466667,-88.2130556
guanacastal,,07,13.2741667,-88.0333333
guanacaste,,09,13.75,-88.2833333
guanaste,,09,13.75,-88.2833333
guanijiquil,,07,13.8863889,-87.9125
guapa,,10,13.6666667,-89.1466667
guapinol,,08,13.8,-88.05
guaripe,,07,13.7811111,-87.7647222
guarjila,,03,14.0166667,-88.8833333
guarnecia,,11,14.1,-89.4333333
guarumal,,08,13.7166667,-88.1833333
guarute,,07,13.1794444,-88.0172222
guasapa,,10,13.8769444,-89.1730556
guascota,,01,14.0166667,-89.8
guascotia,,01,14.0166667,-89.8
guatajiagua,5273,08,13.6666667,-88.2
guatinluca,,09,13.7166667,-88.4
guatinlucas,,09,13.7166667,-88.4
guatinuco,,09,13.7166667,-88.4
guayabillas,,11,14.4,-89.55
guayabito,,14,13.6333333,-88.4833333
guayabo,,07,13.8,-87.7333333
guayaltepec,,01,13.9275,-89.8894444
guayaltepe,,01,13.9275,-89.8894444
guayapa abajo,,01,13.7177778,-89.9697222
guayapa arriba,,01,13.76,-89.9608333
guayapa,,01,13.76,-89.9608333
guayape,,01,13.76,-89.9608333
guaymango,1517,01,13.7502778,-89.8422222
guaymoco,,13,13.7436111,-89.4988889
guazacapan,,14,13.2455556,-88.2472222
guazapa,9217,10,13.8769444,-89.1730556
guchipilin,,08,13.8166667,-88.05
gueripe,,07,13.7811111,-87.7647222
guerrero,,07,13.1741667,-87.7108333
guiliguiste,,02,13.85,-88.95
guiliguiste,,08,13.8,-88.1666667
guilihuiste,,02,13.85,-88.95
guineo,,11,13.8833333,-89.5
guiscoyol,,02,13.95,-88.7333333
guisiltepeque,,04,13.8,-89.0
guisquil,,07,13.3497222,-87.865
gutierrez,,03,14.1333333,-89.0166667
hachadura,,01,13.8441667,-90.0922222
hacienda achacualpa,,13,13.7619444,-89.5266667
hacienda agua fuerte,,12,13.4166667,-88.7333333
hacienda amatitan arriba,,12,13.75,-88.7166667
hacienda amatitan,,12,13.75,-88.7166667
hacienda america,,04,13.8666667,-89.0333333
hacienda astoria,,06,13.45,-89.05
hacienda atalaya,,13,13.6,-89.8333333
hacienda atiocoyo,,05,14.0166667,-89.3
hacienda ayuta,,11,14.0333333,-89.5833333
hacienda azacualpa,,13,13.7619444,-89.5266667
hacienda barrios,,12,13.6,-88.8166667
hacienda bermuda,,04,13.8713889,-89.0375
hacienda bolivar,,14,13.45,-88.6666667
hacienda bonete,,10,13.8633333,-89.2013889
hacienda buena vista,,04,13.7166667,-89.0333333
hacienda california,,14,13.3666667,-88.6666667
hacienda cangrejera,,05,13.4658333,-89.1794444
hacienda cantora,,09,13.3766667,-88.1419444
hacienda casa mota,,09,13.325,-88.2111111
hacienda catarina,,01,13.7166667,-89.9833333
hacienda chaguantique,,14,13.3,-88.5666667
hacienda chahuantique,,14,13.3,-88.5666667
hacienda chamoco,,12,13.6,-88.65
hacienda chepona,,14,13.1833333,-88.35
hacienda chilanguera,,09,13.3036111,-88.1716667
hacienda colapa,,01,14.0,-89.9333333
hacienda colima,,04,14.05,-89.1333333
hacienda colina,,04,14.05,-89.1333333
hacienda comalapa,,13,13.7,-89.65
hacienda concepcion,,04,13.95,-89.0333333
hacienda consolacion,,10,13.9811111,-89.2669444
hacienda copapayo,,04,13.9333333,-88.9666667
hacienda corlantique,,09,13.7333333,-88.5166667
hacienda corral de mulas,,14,13.2166667,-88.5666667
hacienda cuyagualo,,05,13.7333333,-89.3666667
hacienda danta,,01,13.75,-90.0833333
hacienda el banco,,05,13.55,-89.25
hacienda el bebedero,,13,13.7333333,-89.5833333
hacienda el cacao,,13,13.6666667,-89.65
hacienda el canal,,14,13.3166667,-88.3
hacienda el chaguite,,01,13.7333333,-89.9
hacienda el chino,,01,13.7333333,-90.05
hacienda el congo,,11,13.85,-89.5333333
hacienda el cortijo,,09,13.3313889,-88.1741667
hacienda el coyol,,13,13.6333333,-89.7833333
hacienda el dorado,,03,14.05,-89.0
hacienda el fraile,,06,13.3666667,-89.0166667
hacienda el icacal,,07,13.1672222,-88.0255556
hacienda el imposible,,01,13.8666667,-89.9833333
hacienda el jobal,,14,13.25,-88.6166667
hacienda el jocote,,05,13.9144444,-89.2811111
hacienda el lavadero,,07,13.1911111,-88.0175
hacienda el marquezado,,14,13.5,-88.45
hacienda el mico,,10,13.9,-89.1666667
hacienda el palmar,,05,13.55,-89.4166667
hacienda el paraiso,,09,13.495,-88.2416667
hacienda el platanar,,04,13.9452778,-89.0627778
hacienda el playon,,12,13.4333333,-88.75
hacienda el progreso,,05,13.7383333,-89.2694444
hacienda el rosario,,13,13.7730556,-89.4905556
hacienda el salto,,01,13.7833333,-89.9166667
hacienda el sitio,,01,13.7666667,-89.9333333
hacienda el trapchon,,04,13.9833333,-89.1333333
hacienda el triunfo,,12,13.3833333,-88.7333333
hacienda el zope,,13,13.6833333,-89.8
hacienda finca el zunza,,13,13.7547222,-89.5602778
hacienda grande,,03,14.0,-89.0166667
hacienda guajoyo,,12,13.4833333,-88.7166667
hacienda guarnecia,,11,14.1,-89.4333333
hacienda,,03,14.0666667,-88.85
hacienda ingeniero el zunza,,13,13.7547222,-89.5602778
hacienda jalponga,,06,13.4666667,-88.9333333
hacienda jiboa,,03,14.05,-89.2166667
hacienda jocote,,05,13.9144444,-89.2811111
hacienda la alcancia,,14,13.2833333,-88.4666667
hacienda la asuncion,,04,13.9666667,-89.1166667
hacienda la barra,,11,14.2908333,-89.5438889
hacienda la bolsona,,13,13.65,-89.7166667
hacienda la cabana,,10,14.0166667,-89.1833333
hacienda la calzada,,06,13.3166667,-88.9
hacienda la cangrejera,,05,13.4658333,-89.1794444
hacienda la canoa,,09,13.3327778,-88.1658333
hacienda la canoa,,14,13.3,-88.7666667
hacienda la carrera,,14,13.3,-88.5
hacienda la catarina,,01,13.7166667,-89.9833333
hacienda la chepona,,14,13.1833333,-88.35
hacienda la concordia,,14,13.3333333,-88.55
hacienda la cruz,,09,13.4886111,-88.2408333
hacienda la danta,,01,13.75,-90.0833333
hacienda la estancia,,09,13.5666667,-88.2666667
hacienda la finca,,04,13.9666667,-89.0833333
hacienda la florida,,11,14.1333333,-89.4666667
hacienda laguna,,14,13.3333333,-88.4166667
hacienda la hulera,,14,13.3666667,-88.4833333
hacienda la isla,,05,13.8491667,-89.3397222
hacienda la joya,,12,13.6166667,-88.75
hacienda la joya,,13,13.7666667,-89.5833333
hacienda la laguna,,14,13.3333333,-88.4166667
hacienda la normandia,,14,13.35,-88.6333333
hacienda la palestina,,09,13.6166667,-88.3333333
hacienda la poza,,14,13.3333333,-88.5
hacienda la puebla,,05,13.9097222,-89.3125
hacienda las americas,,04,13.8666667,-89.0333333
hacienda las canoas,,01,13.8166667,-89.8666667
hacienda las flores,,05,13.9375,-89.2875
hacienda las mesas,,11,14.15,-89.4666667
hacienda las mezas,,11,14.15,-89.4666667
hacienda la soledad,,11,14.3180556,-89.5305556
hacienda las palmeras,,09,13.6166667,-88.35
hacienda las piletas,,11,14.4,-89.45
hacienda las trancas,,03,14.0833333,-89.3
hacienda limones,,14,13.65,-88.4166667
hacienda lisandro cruz,,07,13.65,-87.9
hacienda lomachata,,04,13.8833333,-89.1
hacienda los angeles,,11,14.2166667,-89.5666667
hacienda los apoyos,,11,14.0333333,-89.45
hacienda los jobos,,03,14.0833333,-89.4166667
hacienda los lagartos,,13,13.7333333,-89.5666667
hacienda los limones,,06,13.4333333,-88.95
hacienda los limones,,14,13.65,-88.4166667
hacienda los mangos,,10,13.9666667,-89.2
hacienda los moreno,,07,13.1855556,-88.0552778
hacienda los naranjos,,02,13.85,-88.8333333
hacienda los romero,,07,13.1925,-88.0522222
hacienda machotique,,14,13.5666667,-88.6
hacienda madresal,,14,13.2166667,-88.5333333
hacienda marillo,,14,13.3166667,-88.7333333
hacienda marquezado,,14,13.5,-88.45
hacienda marranitos,,06,13.3666667,-88.8
hacienda masatepeque,,04,13.9666667,-89.1
hacienda mechotique,,14,13.5666667,-88.6
hacienda melara,,05,13.4833333,-89.2166667
hacienda monares,,07,13.1833333,-87.9833333
hacienda montepeque,,04,13.8713889,-89.0794444
hacienda monte velmo,,11,13.8313889,-89.5486111
hacienda nahualapa,,06,13.4666667,-89.0
hacienda natividad,,10,13.9936111,-89.2766667
hacienda normandia,,14,13.35,-88.6333333
hacienda nueva de chilanguera,,09,13.3,-88.1833333
hacienda nueva,,05,13.7333333,-89.4
hacienda nueva,,09,13.3088889,-88.1719444
hacienda nueva,,14,13.3,-88.35
hacienda obrajuelo,,14,13.3166667,-88.3833333
hacienda ojo de agua,,13,13.5833333,-89.7
hacienda ojos de agua,,13,13.5833333,-89.7
hacienda ostua,,11,14.3252778,-89.5502778
hacienda palestina,,09,13.6166667,-88.3333333
hacienda palmera,,09,13.6166667,-88.35
hacienda palmira,,10,13.8666667,-89.1666667
hacienda paredes,,06,13.45,-88.8333333
hacienda parras lempa,,12,13.6166667,-88.6166667
hacienda petacones,,09,13.7166667,-88.5
hacienda piletas,,14,13.5166667,-88.65
hacienda pishishapa,,10,13.9605556,-89.1747222
hacienda plan de la laguna,,05,13.6666667,-89.2666667
hacienda primavera,,04,13.85,-89.05
hacienda puerto caballo,,14,13.1833333,-88.2833333
hacienda puertona,,12,13.5666667,-88.6833333
hacienda san antonio,,05,13.7122222,-89.4916667
hacienda san antonio,,13,13.6,-89.8
hacienda san antonio,,14,13.2666667,-88.3333333
hacienda san benito,,05,13.5666667,-89.4
hacienda san carlos,,07,13.35,-87.9
hacienda san cayetano,,07,13.3666667,-87.9
hacienda san cayetano,,11,14.0333333,-89.5166667
hacienda san diego,,10,14.0,-89.1666667
hacienda san diego,,11,14.3,-89.4666667
hacienda san felipe,,05,13.8497222,-89.3788889
hacienda san felipe,,06,13.4333333,-89.0166667
hacienda san felipe,,14,13.2666667,-88.3333333
hacienda san francisco,,11,14.2,-89.5
hacienda san isidro,,01,13.95,-89.9
hacienda san isidro,,05,14.0333333,-89.3666667
hacienda san isidro,,11,14.25,-89.45
hacienda san isidro,,13,13.7875,-89.5588889
hacienda san jose arrazola,,10,13.8166667,-89.1333333
hacienda san jose,,06,13.4166667,-89.05
hacienda san jose,,09,13.3086111,-88.1863889
hacienda san jose,,10,13.8166667,-89.1333333
hacienda san jose,,14,13.2333333,-88.3166667
hacienda san juan buena vista,,05,13.9291667,-89.3894444
hacienda san juan del gozo,,14,13.2666667,-88.7333333
hacienda san juan,,14,13.3666667,-88.6166667
hacienda san lorenzo,,05,13.8625,-89.3366667
hacienda san lucas,,04,13.9452778,-89.1586111
hacienda san luis,,01,13.9666667,-89.8833333
hacienda san marcos,,08,13.6333333,-88.1166667
hacienda san mariano,,14,13.4166667,-88.45
hacienda san pedro,,13,13.6333333,-89.8166667
hacienda san pedro,,14,13.3,-88.3833333
hacienda san rafael,,10,14.05,-89.1833333
hacienda san ramon,,07,13.1841667,-88.0872222
hacienda san ramon,,10,13.5641667,-89.1955556
hacienda san roman,,07,13.1841667,-88.0872222
hacienda santa adela,,11,14.0333333,-89.6
hacienda santa ana,,14,13.55,-88.5166667
hacienda santa anita,,14,13.55,-88.5166667
hacienda santa barbara,,03,14.0666667,-89.1
hacienda santa barbara,,10,13.8366667,-89.1527778
hacienda santa clara,,06,13.4572222,-89.0980556
hacienda santa clara,,13,13.6666667,-89.75
hacienda santa elena,,03,14.05,-89.2166667
hacienda santa emilia,,06,13.4,-89.0166667
hacienda santa emilia,,13,13.6666667,-89.7666667
hacienda santa gertrudis,,11,14.0166667,-89.5
hacienda santa rosa calapa,,01,14.0,-89.9333333
hacienda santa rosa,,03,14.0666667,-89.2666667
hacienda santa rosa,,06,13.4333333,-89.0166667
hacienda santa rosa,,11,13.8666667,-89.5833333
hacienda santo tomas,,06,13.4805556,-89.12
hacienda segura,,05,13.9333333,-89.2333333
hacienda singuil,,11,14.0666667,-89.6333333
hacienda tamera,,09,13.5833333,-88.2666667
hacienda tangolona,,09,13.5833333,-88.25
hacienda taquillo,,05,13.5166667,-89.4833333
hacienda taquio,,05,13.5166667,-89.4833333
hacienda tepiagua,,03,14.05,-89.2833333
hacienda tierra blanca,,09,13.2605556,-88.0594444
hacienda tilapa,,03,14.1,-89.0
hacienda tongolona,,09,13.5833333,-88.25
hacienda trapichon,,04,13.9833333,-89.1333333
hacienda tutultepeque,,10,13.8938889,-89.2233333
hacienda vieja chilanguera,,09,13.2913889,-88.1725
hacienda vieja,,03,14.0333333,-88.8333333
hacienda vieja,,06,13.35,-88.8333333
hacienda vieja,,08,13.7,-88.0833333
hacienda vieja,,11,14.3333333,-89.4166667
hacienda yayantique,,14,13.3,-88.5666667
hacienda zamoran,,14,13.3333333,-88.7
hacienda zanoran,,14,13.3333333,-88.7
hacienda zapotitan,,05,13.8047222,-89.4488889
haciendita,,04,13.9666667,-89.1166667
hatillos,,07,13.55,-87.9666667
hato de los reyes,,06,13.4166667,-88.85
hato nuevo,,07,13.4672222,-87.8577778
hato nuevo,,09,13.5166667,-88.15
hatos de los reyes,,06,13.4166667,-88.85
hatos de reyes,,06,13.4166667,-88.85
higueral,,03,14.25,-89.0833333
higueras,,07,13.7833333,-87.9166667
hilobasco,,02,13.85,-88.85
hiscoyol,,02,13.95,-88.7333333
hoja de sal,,14,13.2352778,-88.2108333
hojas de sal,,14,13.2352778,-88.2108333
hondable,,08,13.8622222,-87.9875
honduritas,,07,13.8166667,-87.8333333
honduritas,,11,14.1333333,-89.4166667
horconcillos,,03,14.15,-88.8
horcones,,07,13.5569444,-87.7905556
hormiguero,,09,13.5333333,-88.05
hualama,,09,13.6,-88.2666667
hualazo,,09,13.2094444,-88.0961111
hualoso,,09,13.2094444,-88.0961111
huertas viejas,,07,13.7666667,-87.9
huilihuiste,,02,13.85,-88.95
huilihuiste,,08,13.8,-88.1666667
huiscoyo,,02,13.9166667,-88.9333333
huiscoyolate,,13,13.7411111,-89.6925
huiscoyol,,02,13.9166667,-88.9333333
huisiltepeque,,04,13.8,-89.0
huiziltepeque,,04,13.8,-89.0
huizitepeque,,04,13.8,-89.0
huizucar,,03,14.0833333,-88.8166667
huizucar,,05,13.5894444,-89.2383333
hule chacho,,14,13.3666667,-88.5333333
ichanguezo,,04,13.9,-89.0666667
ichanqueso,,04,13.9,-89.0666667
ichanquezo,,04,13.9,-89.0666667
iglesia vieja,,14,13.2833333,-88.45
ilobasco,,02,13.85,-88.85
ilopango,38889,10,13.7016667,-89.1094444
ilquilisco,,14,13.3166667,-88.5833333
india,,12,13.55,-88.8166667
ingeniero san andres,,05,13.8183333,-89.4044444
ingenio el angel,,10,13.8,-89.2
ingenio la fincona,,13,13.6833333,-89.7333333
ingenio omoa,,11,14.0,-89.6333333
ingenio prusia,,10,13.7,-89.1333333
ingenio san andres,,05,13.8166667,-89.4
ingenio talcualuya,,05,13.9413889,-89.3505556
intipuca,3540,07,13.1969444,-88.0544444
iravol,,01,13.7877778,-90.0122222
iscatal,,02,13.8333333,-88.7333333
ishuatan,,13,13.61,-89.5852778
isla del cerro,,13,13.8427778,-89.5602778
isla de mendez,,14,13.2333333,-88.7
isleta,,14,13.6,-88.4333333
istagapan,,01,13.7,-89.85
istagua,,04,13.8013889,-89.0363889
istepeque,,12,13.65,-88.8166667
ixtepeque,,12,13.65,-88.8166667
izalco,19198,13,13.7447222,-89.6730556
izcanales,,12,13.7,-88.85
izcaquilio,,01,13.9833333,-89.75
izcatal,,02,13.8333333,-88.7333333
jabali,,05,13.7647222,-89.3186111
jabalinon,,05,13.7719444,-89.3369444
jaguatalla,,03,14.0833333,-88.8333333
jaguataya,,03,14.0833333,-88.8333333
jalacatal,,09,13.495,-88.2208333
jalponga,,06,13.4666667,-88.9333333
jalponguita,,06,13.5,-88.9666667
jayaque,,05,13.6733333,-89.4397222
jayuca,,03,14.1166667,-89.2666667
jayuca,,06,13.4963889,-89.1333333
jeronimo,,10,13.9236111,-89.1891667
jerusalen,,06,13.65,-88.9
jiboa,,04,13.75,-88.8833333
jicalapa,,05,13.5527778,-89.5066667
jicaras,,07,13.6,-87.8666667
jicaras largas,,07,13.6,-87.8666667
jicaro,,02,13.95,-88.5333333
jicaro,,05,13.87,-89.3133333
jicaro,,08,13.9,-88.2166667
jinuco,,04,13.7166667,-88.95
jiquilisco,9129,14,13.3166667,-88.5833333
jiron,,05,13.8722222,-89.2569444
joateca,,08,13.9,-88.05
jobal arrozales,,14,13.4,-88.6166667
jocoaitique,,08,13.8833333,-88.1333333
joco,,14,13.6833333,-88.4666667
jocomontique,,14,13.6666667,-88.5
joconcota,,09,13.3086111,-88.1508333
jocoro,4298,08,13.6166667,-88.0166667
jocotan,,03,14.3,-89.0833333
jocote dulce,,09,13.4666667,-88.35
jocotillo,,03,14.1,-88.9833333
jocotillo,,14,13.5666667,-88.4666667
jose gualozo,,09,13.2094444,-88.0961111
jose luna,,06,13.4166667,-89.05
joval,,14,13.4,-88.6166667
joya ancha abajo,,14,13.4166667,-88.4166667
joya ancha arriba,,14,13.4166667,-88.4
joya ancha,,14,13.4166667,-88.4166667
joya de ceren,,05,13.8238889,-89.3583333
joya de ceren,,13,13.7547222,-89.5861111
joya del maguey,,11,13.8916667,-89.2847222
joya del matazano,,08,13.75,-88.2
joya del monte grande,,08,13.65,-88.15
joya del pilar,,14,13.3666667,-88.55
joya del platanar,,01,13.95,-89.7166667
joya del zapote,,01,13.95,-89.75
joya del zapotillo,,09,13.7833333,-88.4166667
joya de monte grande,,08,13.65,-88.15
joya de munguia,,12,13.6,-88.8666667
joya de ventura,,09,13.4166667,-88.3666667
joya el zapote,,01,13.95,-89.75
joya galana,,10,13.8166667,-89.2
joya giron,,06,13.6,-89.15
joya grande,,09,13.7,-88.3
joya grande,,10,13.65,-89.1
joya,,09,13.5166667,-88.0333333
joyas de giron,,06,13.6,-89.15
joyas de monte grande,,08,13.65,-88.15
joya verde,,05,13.5333333,-89.5
juan higinio,,05,13.6613889,-89.4736111
juan higinjo,,05,13.6613889,-89.4736111
juan yanez,,09,13.4591667,-88.065
juayua,9936,13,13.8413889,-89.7455556
jucuapa,10601,14,13.5166667,-88.3833333
jucuaran,1643,14,13.2538889,-88.2477778
jujutla,2022,01,13.7869444,-89.8572222
julupe,,05,13.5294444,-89.4627778
junquillar,,12,13.6333333,-88.6666667
junquillo,,08,13.8333333,-88.0833333
junquillo,,11,13.9036111,-89.4858333
jutiapa,,02,13.8833333,-88.9
jutillo,,10,13.5833333,-89.2166667
la agencia,,07,13.1980556,-88.0438889
la alcancia,,14,13.2833333,-88.4666667
la aldea,,03,14.1333333,-89.1166667
la aldea,,04,13.8666667,-89.1166667
la america,,04,13.8666667,-89.0333333
la anchila,,14,13.2833333,-88.3333333
la angostura,,01,13.9255556,-90.01
la angostura,,05,13.7416667,-89.3311111
la angostura,,08,13.7166667,-88.1666667
la angostura,,09,13.7166667,-88.3
la anona,,06,13.3666667,-88.95
la arenera,,09,13.4263889,-88.1197222
la argentina,,05,13.5333333,-89.5333333
la arrinconada,,08,13.7833333,-88.0166667
la asuncion,,04,13.9666667,-89.1166667
la barahona,,07,13.4666667,-87.9166667
la barca,,14,13.6,-88.5666667
la barra,,11,14.2908333,-89.5438889
la basa,,06,13.55,-89.0833333
la baza,,06,13.55,-89.0833333
la bermuda,,02,13.9333333,-88.6333333
la bermuda,,04,13.8713889,-89.0375
la bocana,,07,13.1666667,-88.0666667
la bolsa,,09,13.3438889,-88.0713889
la bolsa,,11,14.25,-89.4
la bolsona,,13,13.65,-89.7166667
labranza,,08,13.7166667,-88.0
la brena,,14,13.3833333,-88.5333333
la cabana,,01,13.9088889,-90.0341667
la cabana,,08,13.5666667,-88.1166667
la cabana,,10,13.7833333,-89.15
la cabana,,14,13.2833333,-88.2666667
la calavera,,08,13.6333333,-87.9833333
la calera,,02,13.95,-88.7333333
la calera,,08,13.6333333,-88.1833333
la calzada,,06,13.3333333,-88.9
la canada,,02,13.9333333,-88.6
la canada,,03,14.1,-88.7333333
la canada,,07,13.2413889,-88.0677778
la canada,,08,13.5666667,-88.1166667
la canada,,09,13.2444444,-88.1386111
la canada,,11,14.4,-89.55
la candelilla,,08,13.65,-88.1666667
la cangrejera,,05,13.4658333,-89.1794444
la cangrejera,,13,13.7266667,-89.6913889
la canoa,,09,13.3327778,-88.1658333
la canoa,,14,13.3,-88.7666667
la cantarera,,07,13.6333333,-87.8166667
la carbonera,,06,13.5833333,-88.9
la carbonera,,12,13.6166667,-88.8833333
la caridad,,14,13.6,-88.3833333
la carrera,,14,13.3,-88.5
la casona,,09,13.3452778,-88.0552778
la catarina,,01,13.7166667,-89.9833333
la cebadilla,,09,13.2297222,-88.165
la ceiba de agua,,09,13.4041667,-88.1172222
la ceiba de guadalupe,,05,13.6833333,-89.25
la ceiba,,01,13.8283333,-90.0427778
la ceiba,,03,14.0833333,-88.8833333
la ceiba,,05,13.6833333,-89.25
la ceiba,,07,13.4333333,-87.75
la ceiba,,09,13.2652778,-88.1686111
la ceiba,,14,13.3166667,-88.4
la ceibita,,09,13.4077778,-88.1441667
la ceibita,,11,14.2666667,-89.35
la chacara,,09,13.85,-88.3166667
la chacra,,07,13.55,-87.9
la chacra,,09,13.85,-88.3166667
la chapina,,13,13.6925,-89.6813889
la chepona,,14,13.1833333,-88.35
la chila,,05,13.5708333,-89.3463889
la china,,09,13.2708333,-88.1619444
la chiricana,,09,13.3333333,-88.05
la chorrera del guayabo,,02,13.9833333,-88.75
la chorrera,,07,13.6061111,-87.9083333
la cienaga,,11,14.1788889,-89.6366667
la ciudad de nueva san salvador,,05,13.6769444,-89.2797222
la cofradia,,07,13.3975,-88.0211111
la colonia,,09,13.2277778,-88.1330556
la comunidad,,06,13.5833333,-88.95
la concepcion,,01,13.8,-89.8166667
la concepcion,,09,13.5666667,-88.3833333
la concordia,,14,13.3333333,-88.55
la constancia,,14,13.35,-88.4166667
la coruna,,11,13.8833333,-89.5666667
la costanera,,14,13.35,-88.4166667
la coyota,,11,13.8666667,-89.5166667
la coyotera,,01,13.9666667,-89.8166667
la coyotera,,09,13.7166667,-88.3
la criba,,11,14.1,-89.6833333
la cruces,,14,13.4,-88.4
la cruzadilla de san juan,,14,13.3666667,-88.6166667
la cruzadilla,,09,13.385,-88.2244444
la cruz del mojon,,06,13.5166667,-88.9666667
la cruz grande,,13,13.7666667,-89.6666667
la cruz,,02,13.8666667,-88.9666667
la cruz,,04,13.75,-89.05
la cruz,,06,13.5833333,-88.9833333
la cruz,,09,13.4758333,-88.2044444
la cruz,,11,13.9111111,-89.4919444
la cruz,,12,13.7,-88.8166667
la cruz,,14,13.2447222,-88.2241667
la cruz verde,,11,13.9833333,-89.5166667
la cuchilla,,01,13.8111111,-90.0530556
la cuchilla,,03,14.1666667,-88.9333333
la cuchilla,,05,13.8272222,-89.4241667
la cuchilla,,08,13.8,-88.1166667
la cuchilla,,10,13.6333333,-89.1
la cuesta,,09,13.4469444,-88.1866667
la cuestona,,03,14.3833333,-89.2666667
la cumbre,,03,14.15,-88.9833333
la cumbre,,05,13.6613889,-89.4736111
la cumbre,,09,13.3222222,-88.1527778
la danta,,01,13.75,-90.0833333
la danta,,11,14.1666667,-89.6166667
la danta,,14,13.3166667,-88.3666667
la dubona,,02,13.8166667,-88.55
la ensenada,,13,13.6702778,-89.6152778
la ermita,,02,13.8333333,-88.9
la ermita,,08,13.8666667,-88.0
la escondida,,09,13.4833333,-88.1441667
la escopeta,,02,13.9333333,-88.95
la esmeralda,,06,13.4333333,-89.1166667
la esperanza,,01,13.7833333,-89.8333333
la esperanza,,04,13.8080556,-89.005
la esperanza,,05,13.8280556,-89.4441667
la esperanza,,06,13.5905556,-89.1197222
la esperanza,,09,13.4925,-88.0661111
la esperanza,,12,13.5333333,-88.7833333
la estancia,,08,13.7833333,-88.0333333
la estancia,,09,13.5666667,-88.2666667
la estancia,,11,14.1666667,-89.55
la estrechura,,09,13.2933333,-88.07
la fincona,,13,13.6833333,-89.7333333
la florida,,10,13.9491667,-89.215
la florida,,11,14.1333333,-89.4666667
la flor,,09,13.2766667,-88.1216667
la flor,,10,13.7333333,-89.05
la flor,,11,14.1666667,-89.6333333
la fragua,,09,13.5333333,-88.3
la frutilla,,08,13.7333333,-88.0333333
la fuente,,10,13.7444444,-89.1077778
la fuente,,13,13.86,-89.7527778
la galera,,08,14.0333333,-88.0833333
la gallina,,09,13.4675,-88.1347222
la gallinera,,07,13.3188889,-87.6438889
la garita,,07,13.5666667,-87.8166667
lagartero,,07,13.5333333,-87.8333333
la gloria,,07,13.4094444,-88.0197222
la gloria,,09,13.3908333,-88.1344444
la gloria,,11,13.95,-89.5166667
lagnetas,,11,14.25,-89.35
la granadilla,,03,14.35,-89.0833333
la guacamaya,,13,13.7847222,-89.7527778
la guascota,,01,14.0166667,-89.8
la guayabilla,,12,13.75,-88.7
laguna,,08,13.8666667,-87.95
laguna seca,,03,14.1333333,-89.3333333
laguneta,,05,13.9411111,-89.3936111
laguneta,,07,13.35,-87.9666667
lagunetas,,03,14.0333333,-89.4333333
lagunetas,,07,13.35,-87.9666667
lagunetas,,11,14.35,-89.3
lagunita,,03,14.0333333,-88.85
la hachadura,,01,13.8441667,-90.0922222
la hacienda,,07,13.65,-87.9
la haciendita,,04,13.9666667,-89.1166667
la herradura,,06,13.35,-88.95
la hulera,,14,13.3666667,-88.4833333
la india,,12,13.55,-88.8166667
la isla,,05,13.8491667,-89.3397222
la isla,,09,13.2947222,-88.0683333
la isla,,11,14.2333333,-89.3666667
la isleta,,06,13.3833333,-88.8166667
la isleta,,08,13.7333333,-88.2166667
la jabilla,,05,13.7,-89.4666667
la jagua,,07,13.6833333,-87.9166667
la jagua,,08,13.6,-88.1
lajas y canoas,,12,13.65,-88.6
la javia,,05,13.7,-89.4666667
lajitas,,07,13.8913889,-87.8188889
lajitas,,08,13.7333333,-88.1333333
la joya del pilar,,14,13.3666667,-88.55
la joya,,02,13.9333333,-88.55
la joya,,05,13.8827778,-89.2986111
la joya,,06,13.5166667,-88.8166667
la joya,,07,13.4672222,-88.0338889
la joya,,08,13.7,-87.9666667
la joya,,09,13.4363889,-88.1847222
la joya,,11,13.8577778,-89.4586111
la joya,,12,13.6166667,-88.7333333
la joya,,13,13.7666667,-89.5833333
la joya,,14,13.3166667,-88.4833333
la joya redonda,,07,13.3,-87.9
la joyita,,05,13.8311111,-89.4472222
la junta,,03,14.1166667,-88.9666667
la labor,,05,13.7,-89.4166667
la labor,,12,13.75,-88.85
la labranza,,08,13.7166667,-88.0
la laguna,,03,14.0666667,-88.8833333
la laguna,,05,13.6666667,-89.25
la laguna,,08,13.8666667,-87.95
la laguna,,09,13.8333333,-88.3833333
