names,population,state_code,lat,lon
`aawinah,,62,32.0533333,12.5697222
ab'ar as sababil,,61,32.8513889,13.4419444
abu ar rish,,51,32.7288889,12.5016667
abu ghaylan,,03,32.2666667,13.0166667
abu `isa,,53,32.7527778,12.6302778
abu kammash,,51,33.0747222,11.7355556
abu njaym,,58,30.5833333,15.4
abu nujaym,,58,30.5833333,15.4
abuqrin,,58,31.45,15.25
abu qurayn,,58,31.45,15.25
abu salim,,61,32.85,13.1666667
abu zayyan,,57,32.0997222,12.9786111
abu ziyyan,,57,32.0997222,12.9786111
abyar as sababil,,61,32.8513889,13.4419444
acroma,,42,32.0333333,23.6833333
ad dafiniyah,,58,32.4166667,14.8
ad dafniyah,,58,32.4166667,14.8
ad dawun,,41,32.4333333,13.4666667
ad dayasir,,57,32.1455556,12.9872222
ad dirsiyah,,09,32.7166667,20.95
ad duwaysah,,13,27.5166667,13.95
adiri,,13,27.5,13.2666667
adjadabia,,47,30.7591667,20.2230556
adri,,13,27.5,13.2666667
aea,,61,32.8925,13.18
agar,,13,27.5333333,14.15
agedabia,,47,30.7591667,20.2230556
agelat,,51,32.7569444,12.3761111
aggar,,30,25.9633333,13.5313889
agheila,,47,30.2666667,19.2
ahl al wadi,,62,32.005,12.4713889
ahqaf al jabbarat,,49,32.6872222,21.9102778
ahqaf al jabhiyah,,49,32.7241667,21.7213889
ahqaf al jabhiyh,,49,32.7241667,21.7213889
ahqaf ar ruzat,,36,32.8316667,21.9044444
`a'ilat lamwis,,43,32.1333333,20.2333333
ain ghezaia,,56,31.9041667,10.8141667
ain mara,,11,32.75,22.3833333
ain zara,,61,32.8133333,13.2697222
ajdabiya,134357,47,30.7591667,20.2230556
ajdabiyah,,47,30.7591667,20.2230556
`akramah,,42,32.0333333,23.6833333
al a`aqib,,57,32.1286111,12.9452778
alabia,,02,32.1833333,20.6
al abraq,,11,32.7858333,21.995
al abyad,,52,26.75,14.0166667
al abyar,,02,32.1833333,20.6
al `adam,,42,31.8636111,23.9252778
al `adm,,42,31.8636111,23.9252778
al `ajaylat,,51,32.7569444,12.3761111
al `akarit,,50,32.6011111,13.9133333
al `alawinah,,62,32.0533333,12.5697222
al `amamirah,,50,32.4547222,14.1069444
al `aquriyah,,43,32.5333333,20.5666667
al asabi`ah,,57,32.0333333,12.8666667
al ashhab,,42,31.8833333,24.65
al `assah,,06,32.8333333,11.6333333
al aswaq,,58,32.35,15.1333333
al athrun,,11,32.8666667,22.2833333
al-atrun,,11,32.8666667,22.2833333
al `awaynat,,08,21.5666667,24.8333333
al awaynat,,30,25.7891667,10.5508333
al awiliah al sharqiyah,,09,32.5666667,21.0333333
al `aziziyah,,03,32.5319444,13.0175
alba,,11,32.8833333,22.2
al badr,,30,26.1333333,14.8833333
al-baida,,04,32.7663889,21.7416667
al bakhabikhah,,62,32.0669444,12.5461111
al bakki,,30,24.8516667,14.52
al barahimah,,24,31.9333333,12.1833333
al bardi,,42,31.7666667,25.0833333
al bardiyah,,42,31.7666667,25.1
al barkat,,30,24.8722222,10.1794444
al bayatinah,,62,32.0341667,12.5263889
al bayda',,04,32.7663889,21.7416667
al baydan,,30,25.8380556,14.2130556
al bayyadah,,48,32.5636111,21.2488889
al birkah,,30,24.8722222,10.1794444
al birkah,,54,32.1,20.0833333
al biyatinah,,62,32.0341667,12.5263889
al bu'ayrat,,58,31.4,15.7333333
al budayr,,30,26.1333333,14.8833333
al buhur,,62,32.0544444,12.5619444
al burayqah,,47,30.4166667,19.5786111
al burdi,,42,31.7666667,25.0833333
al dayasir,,57,32.1455556,12.9872222
al fa'idiyah,,49,32.6905556,21.9075
al fajir,,11,32.8833333,22.2
al fatih,,61,32.8322222,13.2533333
al fawadil,,62,32.0088889,12.3044444
al fawatir,,45,32.45,14.5666667
al fawatir,,50,32.5686111,13.9186111
al fayasilah,,56,31.8569444,11.7647222
al fayidiyah,,49,32.6905556,21.9075
al-foqaha',,05,27.8333333,16.35
al fujayj,,52,26.55,13.2333333
al fuqaha',,05,27.8333333,16.35
al fuqaha',,18,31.7833333,14.05
al fuqar,,52,26.5666667,13.1666667
al furnaj,,61,32.8322222,13.2533333
al fuwayhat,,54,32.0833333,20.1
al ghaddarah,,54,31.8077778,20.0583333
al ghazzabiyah,,31,32.0166667,10.8333333
al ghiran,,58,32.35,15.0333333
al ghuraybat,,52,26.6,13.5666667
al ghurayfah,,52,26.55,13.0833333
al ghut,,58,32.3833333,15.1166667
al gubbah,,11,32.7666667,22.25
al habarah,,58,32.3666667,15.15
al hadari`ah,,58,32.0166667,15.1833333
al hajarah,,57,32.1202778,12.9677778
al halamah,,59,31.7558333,14.0180556
al hamidiyah,,61,32.8844444,13.3908333
al hamra',,52,26.7166667,13.9
al haniyah,,49,32.8411111,21.5208333
al hanshir,,61,32.8994444,13.2375
al harabah,,56,31.7738889,11.5436111
al harah,,53,32.7630556,12.715
al haraibah,,56,31.7738889,11.5436111
al harayibah,,56,31.7738889,11.5436111
al hashiyah al hamra',,53,32.7305556,12.5647222
al hatiyah,,52,26.55,12.95
al hawamid,,56,31.9752778,11.1622222
al hawwari,,08,24.3166667,23.1666667
al hayshah,,58,31.65,15.2833333
al himadah,,09,32.4166667,20.6166667
al hinshir,,61,32.8994444,13.2375
al hiri,,25,29.05,21.5166667
al hishah,,58,31.65,15.2833333
al hurshah,,53,32.7647222,12.6738889
al huwayjat,,45,32.3666667,14.5833333
al `izziyat,,55,32.25,20.0666667
al ja`afirah,,57,32.15,13.2833333
al jadid,,34,27.05,14.4
al jaghbub,,42,29.75,24.5166667
al jamil,,51,32.8516667,12.0541667
al jawahiliyah,,57,32.2080556,13.0375
al jawahiliyyah,,57,32.2080556,13.0375
al jawf,,08,24.2,23.3
al jawsh,,31,32.0,11.6666667
al jawsh al kabir,,56,31.9955556,11.6569444
al jawsh as saghir,,56,31.9941667,11.6694444
al-jof,,08,24.2,23.3
al juhaysh,,57,32.1375,12.6541667
al jum`ah,,45,32.4666667,14.4666667
al jumayl,,51,32.8516667,12.0541667
al kararim,,58,32.4,15.0666667
al karmah,,54,31.9747222,19.9836111
al kashalifab,,57,32.1197222,13.0258333
al kashalifah,,57,32.1197222,13.0258333
al katrun,,30,24.9513889,14.6486111
al khadra',,41,32.45,13.7666667
al khala'ifah,,62,32.01,12.4783333
al khara'iq,,52,26.55,13.1833333
al khazur,,62,32.0933333,12.6263889
al khirbah,,56,31.8419444,11.1497222
al khirbah,,62,31.8877778,11.8986111
al khums,,50,32.65,14.2666667
al kufrah,,08,24.1666667,23.25
al kulaybah,,57,32.0475,13.0038889
al kumayshat,,57,32.1427778,13.1063889
al kurrathiyah,,50,32.6177778,13.9019444
al kurumah,,62,31.8636111,11.8883333
al kussabat,,50,32.5833333,14.0411111
al-kuwaifia,,34,32.2,20.1833333
al kuwayfiyah,,34,32.2,20.1833333
al la`aqib,,62,32.0677778,12.6763889
al labbah,,25,29.0333333,21.5666667
al labrag,,11,32.7858333,21.995
al labraq,,11,32.7858333,21.995
al lamamish,,57,32.1769444,13.0777778
al lazraq,,11,32.7858333,21.995
al mabni,,43,32.4333333,20.45
al magasibah al bahriyah,,58,32.3666667,15.1
al magharibah,,57,32.0869444,12.9730556
al maghasil,,50,32.5775,14.1736111
al magrun,,54,31.4416667,20.1580556
al mahjub,,58,32.4333333,14.9833333
al mahruqah,,13,27.4833333,14.0166667
al majabirah,,56,31.86,11.1591667
al makili,,11,32.1666667,22.2833333
al malaqi,,30,23.3333333,15.5
al mallahah al bahriyah,,29,30.6833333,12.0666667
al mallahah al gharbiyah,,29,30.45,11.9333333
al ma`murah,,53,32.7191667,12.8569444
al ma`murah,,62,32.0283333,12.5730556
al manasir,,57,32.1613889,12.8316667
al maqarin,,54,32.15,20.1333333
al maqasibah al bahriyah,,58,32.3666667,15.1
al maqasibah al qibliyah,,58,32.35,15.1
al maqawibah,,58,32.4,15.1166667
al maqrun,,54,31.4416667,20.1580556
al marj,,09,32.5,20.8333333
al mashashitah,,53,32.7986111,13.0
al mashwashin,,62,32.0611111,12.53
al mashwushin,,62,32.0611111,12.53
al masil,,09,32.2666667,20.9666667
al masufiyin,,57,32.0575,12.9911111
al masufiyun,,57,32.0575,12.9911111
al mawahi,,25,29.4833333,22.4833333
al mayah,,53,32.8019444,12.8791667
al mayamin,,57,32.2333333,13.0538889
al milaytaniyah,,43,32.3666667,20.6333333
al-msufiyin,,57,32.0575,12.9911111
al mukhayli,,11,32.15,22.2
al mutrad,,53,32.7616667,12.6158333
al muttrad,,53,32.7616667,12.6158333
al qabil,,57,32.1947222,13.0269444
al qaddahiyah,,58,31.3666667,15.2333333
al qadhadhimah,,54,31.6333333,20.1333333
al qahasat,,57,32.1166667,13.0166667
al qal`ah,,62,32.0480556,12.5611111
al qalil,,50,32.5825,13.99
al qanafidh,,62,31.8419444,11.8319444
al qaradin,,62,32.0638889,12.545
al qa`rah,,42,31.9541667,24.2008333
al qaraya,,52,26.5333333,13.3666667
al qardabah,,42,32.15,23.4833333
al qaryah al gharbiyah,,29,30.4166667,13.4166667
al qaryah ash sharqiyah,,29,30.4,13.6
al qaryat al gharbiyah,,29,30.4166667,13.4166667
al qaryat ash sharqiyah,,29,30.4,13.6
al qarzi§abah,,42,32.15,23.4833333
al qasabat,,50,32.5833333,14.0411111
al qasi`ah,,41,32.4833333,13.95
al qassiya,,41,32.4833333,13.95
al qat`,,62,31.8711111,11.8941667
al qatrun,,30,24.9513889,14.6486111
al qawarishah,,54,32.0333333,20.0666667
al qawasim,,57,32.1836111,13.0566667
al qawati,,57,32.0988889,12.6722222
al qayqab,,11,32.7333333,22.0166667
al qubbah,,11,32.7666667,22.25
al quradiyin,,62,32.0638889,12.545
al qurdah,,13,27.4833333,14.0166667
al qusay`ah,,41,32.4833333,13.95
al qusayr,,24,31.9666667,12.0166667
al qusayr,,62,32.0719444,12.5436111
al qusbat,,50,32.5833333,14.0411111
al `ubayyat,,57,32.0830556,12.6952778
al `ujaylat,,51,32.7569444,12.3761111
al `uqaybah,,62,32.0,12.3
al `uqaylah,,47,30.2666667,19.2
al `urban,,57,32.1666667,13.15
al `urqub,,62,31.95,12.2166667
al `urubah,,54,32.1166667,20.0666667
al `uwayliyah ash sharqiyah,,09,32.5666667,21.0333333
al `uwaynat,,08,21.5666667,24.8333333
al `uwaynat,,30,25.7891667,10.5508333
al wa`diyah,,57,32.2202778,13.0827778
al wati'ah,,06,32.4666667,11.7666667
al watiyah,,06,32.4666667,11.7666667
al watyah,,06,32.4666667,11.7666667
al wigh,,30,24.2702778,14.9755556
al wuqayyat,,45,32.4166667,14.5833333
al wyg,,30,24.2702778,14.9755556
al ya`aqib,,57,32.1286111,12.9452778
ambayyah,,41,32.4166667,13.55
amhayyah,,41,32.4166667,13.55
amzir,,57,32.0694444,12.6941667
anabucis,,47,30.2666667,19.2
anay,,23,24.1166667,11.3666667
anmara mudr,,11,32.75,22.3833333
an nadwah,,62,31.8786111,11.8961111
an nakhlayn,,57,32.2022222,13.0433333
an naqur,,57,32.0461111,12.6572222
an nasariya,,03,32.6327778,12.8736111
an nasiriyah,,03,32.6327778,12.8736111
an nawfaliyah,,19,30.7833333,17.8333333
an nawwaqiyah,,54,31.9280556,20.1683333
an nufaliyah,,19,30.7833333,17.8333333
an nusf,,13,27.5333333,14.2
antalat,,54,31.1355556,20.6011111
antipyrgos,,42,32.0836111,23.9763889
antipyrgus,,42,32.0836111,23.9763889
anzu,,57,32.0530556,12.6644444
aouinet,,30,25.7891667,10.5508333
apollonia,,36,32.8966667,21.9630556
apollonie,,36,32.8966667,21.9630556
appolonia,,36,32.8966667,21.9630556
aqar,,13,27.5333333,14.15
aqar `atabah,,30,25.9833333,13.5
`aqqar,,30,25.9633333,13.5313889
ar rabitah al garbiyah,,57,32.1575,12.8422222
ar rabitah al gharbiyah,,57,32.1575,12.8422222
ar rabitah,,62,32.2333333,12.5666667
ar rabitah ash sharqiyah,,57,32.1741667,12.8638889
ar rahbah,,57,32.25,13.0333333
ar raheba,,52,26.6,13.5666667
ar rahibat,,62,31.7572222,11.87
ar rajabat,,58,32.35,15.1
ar rajmah,,02,32.0666667,20.35
ar rajubat,,58,32.35,15.1
ar raqabah,,52,26.6333333,13.6333333
ar rayayinah,,62,32.0038889,12.3422222
ar ruhabat,,62,31.7572222,11.87
ar ruhaybat,,62,31.7572222,11.87
ar ruhaybiyat,,62,31.7572222,11.87
ar rujban,,62,31.95,12.1666667
ar rumiyah,,62,32.0166667,12.5166667
asabaa,,57,32.0333333,12.8666667
asbi`ah,,03,32.5166667,13.1666667
ashkada,,13,27.55,14.4666667
ashkida,,13,27.55,14.4666667
ashkidah,,13,27.55,14.4666667
ashkudah,,13,27.55,14.4666667
ash saqarinah,,62,32.0727778,12.5233333
ash sha`afiyin,,50,32.5922222,13.8697222
ash shabari,,24,31.9666667,12.0166667
ash shabbri,,24,31.9666667,12.0166667
ash sha`biniyah,,62,31.95,12.2333333
ash shaqarinah,,62,32.0727778,12.5233333
ash shaqqi,,24,32.0,12.0833333
ash sharsharah,,41,32.4666667,13.6166667
ash sha`wah,,56,30.9833333,10.55
ash shawashinah,,47,29.1716667,21.2941667
ash shawati,,58,32.3833333,15.1666667
ash shaykh bu `ujaylah,,51,32.7338889,12.395
ash shi`afiyin,,50,32.5922222,13.8697222
ash shi`afiyun,,50,32.5733333,13.8811111
ash shi`taf,,57,32.0780556,13.02
ash shiyab,,62,31.8816667,11.7947222
ash shurayf,,29,29.9833333,14.2666667
ash shurraf,,25,29.05,21.5166667
ash shurraf,,27,32.5833333,13.95
ash shuruf,,27,32.5833333,13.95
ash-shuwairif,,29,29.9833333,14.2666667
ash shuwati,,58,32.3833333,15.1666667
ash shuwayrif,,29,29.9833333,14.2666667
as sabiri,,54,32.1333333,20.0666667
as sabiriyah,,53,32.7283333,12.6411111
as saddadah,,18,31.4833333,14.75
as safsaf,,36,32.7802778,21.95
as salahat,,57,32.1272222,13.1
as salamat,,62,31.8780556,11.7783333
as salihat,,57,32.1272222,13.1
as saq`abi,,54,32.1666667,20.1333333
as saqa'if,,57,32.1508333,13.0288889
as sawadinah,,57,32.0333333,12.6666667
as sawa`idiyah,,57,32.2202778,13.0827778
as sawani,,03,32.7166667,13.0666667
as sha`biniyah,,62,31.95,12.2333333
as shetat,,30,26.05,13.65
as shiyab,,62,31.8816667,11.7947222
as sidadah,,18,31.4833333,14.75
as sidrah,,19,30.65,18.3666667
as snudi,,52,26.6333333,13.65
as subaytat,,30,26.05,13.65
as sultan,,60,31.1177778,17.1475
asyadi al `amariyin,,61,32.6566667,13.8313889
at taban,,04,32.2,21.5333333
at tahimi,,55,32.3333333,23.0666667
at taj,,08,24.2166667,23.3
at tala'i`iyah,,57,32.0380556,12.8819444
at talayi`iyah,,57,32.0380556,12.8819444
at tallab,,08,24.0166667,23.1666667
at tamimi,,55,32.3333333,23.0666667
at tanahma,,52,26.6,13.6333333
at tanahmu,,52,26.6,13.6333333
at taribjah,,54,31.8833333,19.95
at tuwaybiyah,,53,32.7694444,12.8488889
augila,,47,29.1080556,21.2869444
awbari,42975,52,26.5833333,12.7666667
awjilah,6610,47,29.1080556,21.2869444
awlad `abd ad da'im,,62,31.95,12.25
awlad `abd al `aziz `inan,,62,32.0036111,12.315
awlad `abd al jalil,,24,31.95,12.1333333
awlad `abd allah,,62,32.0505556,12.5705556
awlad `abd al mawla,,62,32.0838889,12.6311111
awlad abu ras,,57,32.1847222,13.0713889
awlad abu salamah,,57,32.25,13.0333333
awlad abu slamah,,57,32.25,13.0333333
awlad abu suhayyirah,,53,32.7666667,12.75
awlad `ali,,57,32.1591667,13.0041667
awlad `ali,,62,32.0152778,12.3738889
awlad `ali bu al qasim,,62,32.0458333,12.5744444
awlad `atiyah,,24,31.9333333,12.1666667
awlad `azzam,,57,32.1461111,13.0038889
awlad badr,,24,32.0166667,11.9666667
awlad bin ahmad,,61,32.8333333,13.1166667
awlad bin ya`qub,,57,32.1530556,12.9916667
awlad bu jadid,,62,31.8747222,11.8866667
awlad bu ra's,,57,32.1847222,13.0713889
awlad hamad,,62,32.0352778,12.5227778
awlad hamid,,62,31.95,12.2333333
awlad `inan,,24,31.9833333,12.15
awlad `isa,,24,31.9333333,12.2333333
awlad `isa,,57,32.0758333,12.6894444
awlad jabir,,24,31.95,12.15
awlad jarbu`,,57,32.1791667,13.0858333
awlad khalaf allah,,62,32.0383333,12.5169444
awlad khalifah,,62,31.95,12.25
awlad madif,,57,32.1741667,12.8638889
awlad mahmud,,56,31.8325,11.0466667
awlad mansur,,57,32.2063889,13.0483333
awlad mansur,,62,32.0061111,12.4758333
awlad mas`ud,,24,31.9666667,12.1166667
awlad mudif,,57,32.1741667,12.8638889
awlad mudrif,,57,32.1741667,12.8638889
awlad mushad,,57,32.0877778,12.8975
awlad qalasi,,57,32.0791667,12.6891667
awlad rayyan,,62,31.9833333,12.3
awlad sa`id,,57,32.0825,12.6694444
awlad sa`id,,62,32.0566667,12.5144444
awlad salim,,57,32.2091667,13.0483333
awlad sidi khalifah,,62,31.95,12.2333333
awlad si khalifah,,62,31.95,12.2333333
awlad tallis,,59,31.8011111,14.0711111
awlad `umar,,57,32.1311111,12.6341667
awlad yahya,,62,32.0175,12.52
awlad yusuf,,62,32.0705556,12.6819444
`ayn al ghazaya,,56,31.9041667,10.8141667
`ayn ghazayah,,56,31.9041667,10.8141667
`ayn marrah,,11,32.75,22.3833333
`ayn zarah,,61,32.8133333,13.2697222
azizia,,03,32.5319444,13.0175
az zahra',,53,32.6833333,12.8666667
az zamamiqah,,57,32.2480556,13.0369444
az zantam,,24,31.9333333,12.2333333
az zarqan,,30,25.9758333,13.795
az zarruq,,58,32.3666667,15.15
az zawiyah al bayda',,04,32.7663889,21.7416667
az zawiyah al fa'idiyah,,49,32.6905556,21.9075
az zawiyah al gherbiyah,,53,32.7480556,12.7230556
az zawiyah,,42,31.9833333,24.6666667
az zawiyah,,53,32.7480556,12.7230556
az zawiyyah,,57,32.1086111,13.0222222
az zaytunah,,30,25.95,14.5333333
az zighan,,34,27.35,14.9
az zintan,,24,31.9333333,12.2333333
az zurayq,,58,32.4333333,14.9
az zurqan,,62,32.0155556,12.5091667
az zuwaytinah,,47,30.9538889,20.1216667
az zuwayyah,,57,32.1086111,13.0222222
bab `akkarah,,61,32.8725,13.1755556
bab al `aziziyah,,61,32.875,13.175
bab `aziziyah,,61,32.875,13.175
bab gargaresh,,61,32.8819444,13.155
bab najura,,61,32.8891667,13.2283333
bab qaraqarish,,61,32.8819444,13.155
bab qarqarish,,61,32.8819444,13.155
bab taguira,,61,32.8891667,13.2283333
bab tajura',,61,32.8891667,13.2283333
baderten,,57,32.1661111,13.0472222
badr,,31,32.0166667,11.5
baida,,04,32.7663889,21.7416667
balagrae,,04,32.7663889,21.7416667
baldat ad duwayb,,24,31.9333333,12.2333333
baldat al kurumah,,62,31.8636111,11.8883333
baldat al qawasim,,62,31.85,12.2166667
baldat al `umyan,,62,31.9166667,12.2166667
baldat al `uqaybah,,62,32.0,12.3
baldat at fawadil,,62,32.0088889,12.3044444
baldat awlad `ali,,62,32.0152778,12.3738889
baldat awlad milad,,62,31.9333333,12.2166667
baldat daraj,,56,30.1675,10.4566667
baldat diqqi,,56,31.9461111,11.6697222
baldat jarjin,,56,31.8816667,11.6052778
baldat jurayjin,,56,31.8816667,11.6052778
baldat qawasim,,62,31.85,12.2166667
baldat raqraq,,62,31.925,11.9605556
baldat tuqtah,,56,30.1913889,10.4472222
baldat `uqaybah,,62,32.0,12.3
balis,,04,32.7663889,21.7416667
bamba,,55,32.4,23.1333333
banghazi,,54,32.1166667,20.0666667
bani hasan,,50,32.6841667,14.1341667
bani layth,,50,32.5691667,14.0152778
bani muslim,,50,32.605,14.0383333
baninah,,54,32.0833333,20.2666667
bani walid,46350,18,31.7666667,13.9833333
bani wazir,,57,32.0858333,12.9847222
bani yakhif,,57,32.2327778,13.01
bani yakhlaf,,50,32.6277778,14.0269444
bani yakhlaf,,57,32.2327778,13.01
bani yakhlif,,57,32.2327778,13.01
baqalah,,56,31.8527778,11.5866667
baqqalah,,56,31.8527778,11.5866667
baracca,,09,32.5,20.7
barashin,,57,32.1408333,13.0197222
bardia,,42,31.7666667,25.1
bardiyah,9149,42,31.7666667,25.1
barka,,54,32.1,20.0833333
barqawi,,13,27.55,14.25
barqin,,13,27.5166667,13.7333333
battah,,48,32.6577778,21.1091667
bayda,,04,32.7663889,21.7416667
bazimah,,08,24.9166667,22.0333333
beda,,04,32.7663889,21.7416667
bedan,,30,25.8380556,14.2130556
beggala,,56,31.8527778,11.5866667
beida,,04,32.7663889,21.7416667
belascehar,,61,32.8833333,13.3166667
bengasi,,54,32.1166667,20.0666667
bengazi,,54,32.1166667,20.0666667
benghasi,,54,32.1166667,20.0666667
benghazi,650629,54,32.1166667,20.0666667
ben iaagub,,57,32.1530556,12.9916667
beni hasan,,50,32.6841667,14.1341667
beni hsan,,50,32.6841667,14.1341667
beni iechlef,,50,32.6277778,14.0269444
beni iechlef,,57,32.2327778,13.01
beni let,,50,32.5691667,14.0152778
beni mislim,,50,32.605,14.0383333
benina,,54,32.0833333,20.2666667
beni ulid,,18,31.7666667,13.9833333
beni uzir,,57,32.0858333,12.9847222
ben mahanna,,57,32.1616667,13.1025
berdj,,56,30.1675,10.4566667
berenice,,54,32.1166667,20.0666667
bergaui,,13,27.55,14.25
berghin,,13,27.5166667,13.7333333
berka,,54,32.1,20.0833333
berta,,11,32.7666667,22.25
bghighila,,56,31.8619444,11.5863889
bianchi,,53,32.6833333,12.8666667
billashhir,,61,32.8833333,13.3166667
bin ghashir,,61,32.6877778,13.1738889
binghazi,,54,32.1166667,20.0666667
bin jawwad,,19,30.7833333,18.0666667
bin quwad,,19,30.7833333,18.0666667
bint baya,,52,26.6333333,13.6666667
bin yahya,,57,32.1280556,13.0066667
bi'r abu al ghurab,,29,30.6333333,13.6
birak,,13,27.5333333,14.2833333
bi'r al ashhab,,42,31.9166667,24.7
bi'r al ghanam,,62,32.3130556,12.5713889
bi'r ash shuwayrif,,29,29.9833333,14.2666667
bi'r `ayyad,,62,32.1305556,12.4636111
bi'r bin ghunaymah,,47,31.1833333,21.8833333
bi'r dufan,,18,31.9666667,14.6
bir el-ghnem,,62,32.3130556,12.5713889
bir esc-sciueref,,29,29.9833333,14.2666667
bir ghnem,,62,32.3130556,12.5713889
bishr,,47,30.3,19.2166667
bordi sleman,,42,31.7666667,25.1
borgo corradini,,50,32.7002778,14.0444444
borgo tazzoli,,41,32.3355556,13.4788889
borgo torelli,,09,32.4833333,21.1208333
borium,,54,31.9747222,19.9836111
brach,,13,27.5333333,14.2833333
brech,,52,26.55,13.15
breviglieri,,41,32.45,13.7666667
bu aiad,,57,32.1238889,12.97
bu al ashhar,,61,32.8833333,13.3166667
bu ath thamir,,11,32.7833333,22.3
bu at tamir,,11,32.7833333,22.3
bu'ayrat al hasun,,58,31.4,15.7333333
bu chemmasc,,51,33.0747222,11.7355556
buerat al-hsun,,58,31.4,15.7333333
buerat,,58,31.4,15.7333333
buerat el-hsun,,58,31.4,15.7333333
bu ghaylan,,57,32.2727778,13.0255556
bu gheilan,,57,32.2727778,13.0255556
bugrein,,58,31.45,15.25
bu gren,,58,31.45,15.25
bu isa,,53,32.7527778,12.6302778
bu jabalayn,,24,31.9666667,12.0166667
bu kammash,,51,33.0747222,11.7355556
bu kemmesh,,51,33.0747222,11.7355556
bulis abu ghaylah,,57,32.2727778,13.0255556
bu maryam,,02,32.1333333,20.5
bu ngem,,58,30.5833333,15.4
bu nujaym,,58,30.5833333,15.4
buqayqilah,,56,31.8619444,11.5863889
bu rawiyyah,,58,32.3833333,14.9333333
burayk,,52,26.55,13.15
bu rueia,,58,32.3833333,14.9333333
busetta,,61,32.8997222,13.2194444
bu sittah,,61,32.8997222,13.2194444
buslim,,61,32.85,13.1666667
buwayrat al hasun,,58,31.4,15.7333333
bu zaian,,57,32.0997222,12.9786111
bu zayyan,,57,32.0997222,12.9786111
bu zeian,,57,32.0997222,12.9786111
cabao,,56,31.8444444,11.3397222
caf el-gebeihia,,49,32.7241667,21.7213889
caf meias,,49,32.7222222,21.7027778
caminus,,54,31.6602778,20.0155556
cammun,,57,32.1375,13.0338889
carcura,,54,31.4272222,20.0327778
carmet decheilalla,,54,31.9747222,19.9836111
castel benito,,61,32.6877778,13.1738889
castelverde,,10,32.75,13.7166667
chadra,,04,32.55,21.7833333
chalfun,,50,32.6055556,13.9688889
chersa,,55,32.85,22.4166667
chicla,,57,32.0833333,12.7
chlef,,52,26.7,13.8666667
cirene,,36,32.8277778,21.8622222
coefia,,34,32.2,20.1833333
concessione catarella,,41,32.4666667,13.7166667
corradini,,50,32.7002778,14.0444444
crispi,,58,32.25,15.0833333
curni eberbeidiaa,,30,23.3666667,15.4
curni ebredaa,,30,23.3666667,15.4
cussabat,,50,32.5833333,14.0411111
cyrene,,36,32.8277778,21.8622222
dabdab,,13,27.5666667,14.4166667
dahman,,51,32.7858333,12.5152778
dakakin hamid,,54,32.1333333,20.0833333
dakakin humayd,,54,32.1333333,20.0833333
d'annuinzio,,48,32.5636111,21.2488889
dannun,,57,32.1119444,12.9369444
d'annunzio,,48,32.5636111,21.2488889
daqqi,,56,31.9461111,11.6697222
dara geddaim,,53,32.78,12.7827778
daraj,,56,30.1675,10.4566667
dar al kish,,54,32.1,20.0666667
dar el-kish,,54,32.1,20.0666667
darnah,78782,55,32.765,22.6391667
darnis,,55,32.765,22.6391667
daryanah,,43,32.35,20.3166667
dashrah,,31,31.8666667,11.7833333
debdeb,,13,27.5666667,14.4166667
degghi,,56,31.9461111,11.6697222
de martino,,49,32.6905556,21.9075
dennun,,57,32.1119444,12.9369444
derg,,56,30.1675,10.4566667
derj,,56,30.1675,10.4566667
derna,,55,32.765,22.6391667
dirj,,56,30.1675,10.4566667
djemmari,,62,31.94,11.9980556
djennaouen,,24,31.9666667,12.0166667
dlem,,30,25.9430556,14.0666667
drepanun,,54,31.4272222,20.0327778
driana,,43,32.35,20.3166667
driyanah,,43,32.35,20.3166667
duesa,,13,27.5166667,13.95
dugial,,30,26.0833333,13.6666667
dujal,,30,26.0833333,13.6666667
dulaym,,30,25.9430556,14.0666667
dusein,,62,31.8669444,11.8244444
dushin,,62,31.8669444,11.8244444
ea,,61,32.8925,13.18
ed-dacachin,,54,32.1333333,20.0833333
ed-dachla,,61,32.8844444,13.3908333
ed diasir,,57,32.1455556,12.9872222
ed-dtasir,,57,32.1455556,12.9872222
ed-duesa,,13,27.5166667,13.95
ederi,,13,27.5,13.2666667
edri,,13,27.5,13.2666667
ein mara,,11,32.75,22.3833333
el aaghib,,57,32.1286111,12.9452778
el-aauati,,57,32.0988889,12.6722222
el abiad,,52,26.75,14.0166667
el abiar,,02,32.1833333,20.6
el-abragh,,11,32.7858333,21.995
el-acarit,,50,32.6011111,13.9133333
el adem,,42,31.8636111,23.9252778
el agelat,,51,32.7569444,12.3761111
el-agheiba,,62,32.0,12.3
el agheila,,47,30.2666667,19.2
el-aghiba,,62,32.0,12.3
el-aghib,,57,32.1286111,12.9452778
el ajelat,,51,32.7569444,12.3761111
el-amian,,62,31.9166667,12.2166667
el-asabaa,,57,32.0333333,12.8666667
el assa,,06,32.8333333,11.6333333
el-asuach,,58,32.35,15.1333333
el asuagh,,58,32.35,15.1333333
el atrun,,11,32.8666667,22.2833333
el-auenat,,30,25.7891667,10.5508333
el azizia,,03,32.5319444,13.0175
el bacchi,,30,24.8516667,14.52
elbarcat,,30,24.8722222,10.1794444
el barka,,30,24.8722222,10.1794444
el bder,,30,26.1333333,14.8833333
el bedan,,30,25.8380556,14.2130556
el beida,,04,32.7663889,21.7416667
el berca,,54,32.1,20.0833333
el-brahma,,24,31.9333333,12.1833333
el-brahma,,62,32.0227778,12.5052778
el-brega,,47,30.4166667,19.5786111
el-buerat,,41,32.4333333,13.6333333
el-caraigh,,52,26.55,13.1833333
el charaigh,,52,26.55,13.1833333
el chebir,,30,25.3222222,16.7152778
el-chebir,,56,31.9955556,11.6569444
el-cherba,,56,31.8419444,11.1497222
el-cherba,,62,31.8877778,11.8986111
el-chlaifa,,62,32.01,12.4783333
el choms,,50,32.65,14.2666667
el-chzur,,62,32.0933333,12.6263889
el-cmesciat,,57,32.1427778,13.1063889
el-coefia,,34,32.2,20.1833333
el-corratia,,50,32.6177778,13.9019444
el-croma,,62,31.8636111,11.8883333
el-culeba,,57,32.0475,13.0038889
el-fager,,11,32.8833333,22.2
el-faidia,,49,32.6905556,21.9075
el faldia,,49,32.6905556,21.9075
el-fgeg,,52,26.55,13.2333333
el-fiasla,,56,31.8569444,11.7647222
el fogaha,,05,27.8333333,16.35
el-fogar,,52,26.5666667,13.1666667
el fogha,,18,31.7833333,14.05
el-fuadel,,62,32.0088889,12.3044444
el-fuatir,,45,32.45,14.5666667
el-fuatir,,50,32.5686111,13.9186111
el-fuehat,,54,32.0833333,20.1
el fueihat,,54,32.0833333,20.1
el-gahasat,,57,32.1166667,13.0166667
el-gataa,,62,31.8711111,11.8941667
el gata,,62,31.8711111,11.8941667
el gatrun,,30,24.9513889,14.6486111
el-gedid,,34,27.0333333,14.4333333
el-gehesc,,57,32.1375,12.6541667
el-gemil,,51,32.8516667,12.0541667
el ghadenia,,58,31.3666667,15.2333333
el gheddahia,,58,31.3666667,15.2333333
el-ghegab,,11,32.7333333,22.0166667
el-gheraia,,52,26.5333333,13.3666667
el-gheran,,58,32.35,15.0333333
el gherba,,62,31.8877778,11.8986111
el-gheria el-garbia,,29,30.4166667,13.4166667
el gheria esc-scerghia,,29,30.4,13.6
el gheriat esc scerghia,,29,30.4,13.6
el ghiran,,58,32.35,15.0333333
el-ghlil,,50,32.5825,13.99
el-ghnafid,,62,31.8419444,11.8319444
el giaafra,,57,32.15,13.2833333
el-giagbub,,42,29.75,24.5166667
el-giof,,08,24.2,23.3
el giumaa,,45,32.4666667,14.4666667
el-glil,,50,32.5825,13.99
el-goradiin,,62,32.0638889,12.545
el-goradun,,62,32.0638889,12.545
el-gorda,,13,27.4833333,14.0166667
el gordah,,13,27.4833333,14.0166667
el-gotta,,13,27.5333333,13.8166667
el-greibat,,52,26.6,13.5666667
el gsir,,24,31.9666667,12.0166667
el gsir,,62,32.0933333,12.6263889
el-guarscia,,54,32.0333333,20.0666667
el-guasem,,57,32.1836111,13.0566667
el guasem,,62,31.85,12.2166667
el-gubba,,11,32.7666667,22.25
el-gusbat,,50,32.5833333,14.0411111
el-habara,,58,32.3666667,15.15
el hagera,,57,32.1202778,12.9677778
el hamra,,52,26.7166667,13.9
el-hania,,49,32.8411111,21.5208333
el haouamed,,56,31.8325,11.0466667
el-haraba,,56,31.7738889,11.5436111
el-hara,,53,32.7630556,12.715
el-hatia,,52,26.55,12.95
el-helma,,59,31.7558333,14.0180556
el hescia,,58,31.65,15.2833333
el-hiri,,25,29.05,21.5166667
el hissa,,58,31.65,15.2833333
el-iaaghub,,57,32.1286111,12.9452778
el-iagghib,,57,32.1286111,12.9452778
el-lamamisc,,57,32.1769444,13.0777778
el-lebba,,25,29.0333333,21.5666667
el-maamura,,62,32.0283333,12.5730556
el-maaniin,,62,32.0686111,12.5480556
el-magarba,,57,32.0869444,12.9730556
el-magarba,,58,32.4,15.1166667
el-magasba,,58,32.3666667,15.0833333
el-magauba,,58,32.4,15.1166667
el-magiabra,,56,31.86,11.1591667
el magrun,,54,31.4416667,20.1580556
el maharuga,,13,27.4833333,14.0166667
el-masciasta,,53,32.7986111,13.0
el-mebni,,43,32.4333333,20.45
el-mechili,,11,32.1666667,22.2833333
el-melachi,,30,23.3333333,15.5
el-melaghi,,30,23.3333333,15.5
el merj,,09,32.5,20.8333333
el-miamin,,57,32.2333333,13.0538889
el-msufiin,,57,32.0575,12.9911111
el-msufun,,57,32.0575,12.9911111
el-mugarba,,57,32.0869444,12.9730556
el shawashna,,47,29.1716667,21.2941667
el-ubberat,,41,32.4333333,13.6333333
emi madema,,30,23.75,15.3
en nauaghia,,54,31.9280556,20.1683333
en nauuaghia,,54,31.9280556,20.1683333
en-nedua,,62,31.8786111,11.8961111
en-nofilia,,19,30.7833333,17.8333333
en-nuss,,13,27.5333333,14.2
enzu,,57,32.0530556,12.6644444
`eoj wahs,,08,22.2833333,19.7666667
er rabta el garbia,,57,32.1575,12.8422222
er-rabta esc-scerghia,,57,32.1741667,12.8638889
er-raedat,,58,32.3666667,15.1666667
er-rahba,,57,32.25,13.0333333
er raheba,,52,26.6,13.5666667
er regema,,02,32.0666667,20.35
er-regima,,02,32.0666667,20.35
er rehibat,,62,31.7572222,11.87
er-reihibat,,62,31.7572222,11.87
er rejima,,02,32.0666667,20.35
er-riaina,,62,32.0038889,12.3422222
er-rumia,,62,32.0166667,12.5166667
esc'chida,,13,27.55,14.4666667
esc-scech bu agela,,51,32.7338889,12.395
esc-sceiab,,62,31.8816667,11.7947222
esc scerruf,,25,29.05,21.5166667
esc-sciaafiin,,50,32.5733333,13.8811111
esc-sciaafun,,50,32.5733333,13.8811111
esc-sciaatan,,57,32.0780556,13.02
esc-sciaaua,,56,30.9833333,10.55
esc sciagarna,,62,32.0727778,12.5233333
esc-sciiab,,62,31.8816667,11.7947222
esc-sciuascena,,47,29.1716667,21.2941667
esc sciuere,,29,29.9833333,14.2666667
esc sciueref,,29,29.9833333,14.2666667
esc-sciurruf,,27,32.5833333,13.95
esc-slahat,,57,32.1272222,13.1
es-sabri,,54,32.1333333,20.0666667
es-sbetat,,30,26.05,13.65
es-sciaada,,56,30.9833333,10.55
es-seghir,,56,31.9941667,11.6694444
es-slahat,,57,32.1272222,13.1
es-slamat,,62,31.8780556,11.7783333
es-snudi,,52,26.6333333,13.65
es stamat,,62,31.8780556,11.7783333
es-suaadia,,57,32.2202778,13.0827778
es-suadia,,57,32.2202778,13.0827778
es-suadna,,57,32.0333333,12.6666667
es sultan,,60,31.1177778,17.1475
et tag,,08,24.2166667,23.3
et tailimun,,54,31.5897222,20.1716667
et-tanahmu,,52,26.6,13.6333333
et tassahma,,52,26.6,13.6333333
et-tobga,,29,30.4333333,13.3166667
et-tuebia,,53,32.7694444,12.8488889
ez zauia,,53,32.7480556,12.7230556
ez zergan,,30,25.9758333,13.795
ez zighen,,34,27.35,14.9
ez-zintan,,24,31.9333333,12.2333333
ez zituna,,30,25.95,14.5333333
ez-zorgan,,62,32.0155556,12.5091667
ez-zregh,,58,32.4333333,14.9
ez-zueia,,57,32.1086111,13.0222222
ez zuetina,,47,30.9538889,20.1216667
faga,,18,31.7833333,14.05
faidia,,49,32.6905556,21.9075
farsatta,,56,31.8641667,11.3794444
farwah,,51,33.1069444,11.7427778
farzughah,,09,32.5,20.7
farzughan,,09,32.5,20.7
fasatah,,56,31.8641667,11.3794444
fasatan,,56,31.8641667,11.3794444
faysalan,,57,32.095,13.0136111
fiorita,,11,32.8666667,22.2833333
fogaha,,05,27.8333333,16.35
fondugh ben gascir,,61,32.6877778,13.1738889
fondugh el-allus,,50,32.7097222,13.94
fondugh el-giahsc,,10,32.7333333,13.8333333
fondugh en-naggaza,,50,32.7,14.0666667
fondugh esc-scebani,,03,32.3833333,13.05
fondugh terbana,,50,32.5666667,14.2333333
fonduk el jiask,,10,32.7333333,13.8333333
fongul,,30,25.9666667,14.25
forsatta,,56,31.8641667,11.3794444
forsetta,,56,31.8641667,11.3794444
fort leclerc,,34,27.0333333,14.4333333
fuehat,,54,32.0833333,20.1
fundug al `allus,,50,32.7097222,13.94
funduq al `allus,,50,32.7097222,13.94
funduq al jahsh,,10,32.7333333,13.8333333
funduq an naqqazah,,50,32.7,14.0666667
funduq ash shaybani,,03,32.3833333,13.05
funduq ben ghashir,,61,32.6877778,13.1738889
funduq bin ghashir,,61,32.6877778,13.1738889
funduq tarbanah,,50,32.5666667,14.2333333
funqul,,30,25.9666667,14.25
furita,,11,32.8666667,22.2833333
fuwaihat,,54,32.0833333,20.1
gadames,,56,30.1333333,9.5
gahasat,,57,32.1166667,13.0166667
gambut,,42,31.9,24.4833333
garagara,,34,26.55,13.2166667
garden city,,54,32.0833333,20.1
gargarech,,61,32.8697222,13.1077778
gargaresc,,61,32.8697222,13.1077778
gargaresh,,61,32.8697222,13.1077778
garian,,57,32.1722222,13.0202778
gasr ahmed,,58,32.3666667,15.2166667
gasr beadebeia,,52,26.6333333,13.6666667
gasr bendbeia,,52,26.6333333,13.6666667
gasr beni ulid,,18,31.7666667,13.9833333
gasr berruru,,52,26.6666667,13.75
gasr cambut,,42,31.9,24.4833333
gasr chiar,,50,32.6966667,13.8461111
gasr chlef,,52,26.7,13.8666667
gasr el-fogani,,56,31.0333333,10.6
gasr el-fugani,,56,31.0333333,10.6
gasr el-garabulli,,10,32.75,13.7166667
gasr el gharabulli,,10,32.75,13.7166667
gasr el hag,,62,32.0413889,12.1702778
gasr el-otani,,56,31.0333333,10.6
gasr gambut,,42,31.9,24.4833333
gasr garabulli,,10,32.75,13.7166667
gasr garian,,57,32.1722222,13.0202778
gasr gefara,,50,32.6966667,13.8461111
gasr iefren,,62,32.0630556,12.5269444
gasr kiar,,50,32.6966667,13.8461111
gasr larocu,,52,26.5333333,13.3166667
gasr tarhuna,,41,32.4333333,13.6333333
gasr tecut,,56,31.9619444,11.0238889
gasr tekout,,56,31.9619444,11.0238889
gasr zaafran,,60,31.2061111,16.5947222
gat,24347,30,24.9647222,10.1727778
gauat,,30,25.9,14.0166667
geddaim,,53,32.78,12.7827778
gehesc,,57,32.1375,12.6541667
geital,,62,31.8975,11.8836111
gemmari,,62,31.94,11.9980556
gemmart,,62,31.94,11.9980556
genduba,,57,32.1008333,12.6816667
gennauen,,24,31.9666667,12.0166667
gennaun,,24,31.9666667,12.0166667
gerdes el-abid,,09,32.3,20.9833333
gerigen,,56,31.8816667,11.6052778
germa,,52,26.5333333,13.0666667
ghadames,,56,30.1333333,9.5
ghadamis,,56,30.1333333,9.5
ghadduwah,,34,26.4333333,14.3
ghanima,,50,32.7002778,14.0444444
ghanimah,,50,32.7002778,14.0444444
gharyan,,57,32.1722222,13.0202778
ghat,,30,24.9647222,10.1727778
ghawat,,30,25.9,14.0166667
ghawt al hisan,,02,32.1833333,20.6166667
ghawt wa kuhuf tuhudiyah,,49,32.7055556,21.8786111
ghebbaa,,57,32.0863889,13.0116667
gheddahia,,58,31.3666667,15.2333333
ghegam,,13,27.55,14.2
ghemines,,54,31.6602778,20.0155556
gheria el garbia,,29,30.4166667,13.4166667
gheria esc-scerghia,,29,30.4,13.6
gheriat,,29,30.4,13.6
gherrim,,50,32.6341667,13.9822222
ghesir,,24,31.9666667,12.0166667
ghira,,13,27.55,14.4
ghirza,,18,30.95,14.5666667
ghoigah,,11,32.7333333,22.0166667
ghudamis,,56,30.1333333,9.5
ghuram,,62,32.0569444,12.5727778
giado,,24,31.95,12.0166667
gialo,,25,29.0333333,21.55
giarabub,,42,29.75,24.5166667
giardina,,54,31.7941667,20.2036111
giarfet,,57,32.0552778,12.7038889
giarruta,,32,31.8166667,19.9833333
gicherra,,25,29.2833333,21.6333333
gioda,,58,32.4,15.0666667
giordani,,03,32.6327778,12.8736111
giosc,,31,32.0,11.6666667
giovanni berta,,11,32.7666667,22.25
gmata,,50,32.5966667,14.0475
goddua,,34,26.4333333,14.3
gogam,,13,27.55,14.2
gorda,,13,27.4833333,14.0166667
gotros,,56,31.8569444,11.7647222
gotta,,13,27.5333333,13.8166667
gouaraha,,54,32.0333333,20.0666667
gouarsha,,54,32.0333333,20.0666667
grara,,58,32.3833333,15.1166667
grennah,,36,32.8277778,21.8622222
grued si nur ed din,,09,32.6666667,20.85
gsar tecut,,56,31.9619444,11.0238889
guarscia,,54,32.0333333,20.0666667
guasem,,57,32.1836111,13.0566667
guassem,,57,32.1836111,13.0566667
gubba,,11,32.7666667,22.25
gugila,,57,32.1047222,12.6763889
gurda,,13,27.4833333,14.0166667
gureine,,36,32.8277778,21.8622222
gurghi,,61,32.8666667,13.15
gurgi,,61,32.8666667,13.15
habara,,58,32.3666667,15.15
hadrianopolis,,43,32.35,20.3166667
hagiara,,34,27.0166667,14.4666667
hammera,,30,26.0666667,14.8333333
haraf az zawiyah,,53,32.7630556,12.715
harat az zawiyah,,53,32.7630556,12.715
harqah,,57,32.0552778,12.7038889
hawsh ash shuwayyim,,54,31.9333333,19.9666667
hawsh as suwaym,,54,31.9333333,19.9666667
hawsh barji,,43,32.2833333,20.2166667
hawsh warid,,54,31.9166667,19.9666667
hay al andalus,,61,32.8666667,13.1166667
hayy al andalus,,61,32.8666667,13.1166667
heg' agel,,30,25.9286111,14.0380556
heg' hagel,,30,25.9286111,14.0380556
hesperides,,54,32.1166667,20.0666667
hijarah,,34,27.0166667,14.4666667
hishan `a'ilat baqi,,43,32.2666667,20.2166667
hishan al `arabat,,43,32.2833333,20.2333333
hishan al `aribat,,43,32.2833333,20.2333333
hishan al `aryat,,43,32.2833333,20.2333333
homs,,50,32.65,14.2666667
hon,,05,29.1166667,15.9333333
hosc ben hnedi,,50,32.6758333,14.1572222
hosc uared,,54,31.9166667,19.9666667
hummayrah,,30,26.0666667,14.8333333
hun,18878,05,29.1166667,15.9333333
iefren,,62,32.0630556,12.5269444
`ikrimah,,42,32.0333333,23.6833333
imumen,,50,32.6161111,13.9622222
iner,,62,31.9222222,11.9466667
inir,,62,31.9222222,11.9466667
iniyah,,62,31.9222222,11.9466667
irmabhat az zintan,,62,31.1166667,12.2666667
isliten,,45,32.4666667,14.5666667
izliten,,45,32.4666667,14.5666667
jadda'im,,53,32.78,12.7827778
jadu,6013,24,31.95,12.0166667
jaghbub,,42,29.75,24.5166667
jakharrah,,25,29.2166667,21.5666667
jalu,3334,25,29.0333333,21.55
jamarah,,62,31.94,11.9980556
jammarah,,62,31.94,11.9980556
jandubah,,57,32.1008333,12.6816667
jannawan,,24,31.9666667,12.0166667
janzur,,53,32.8172222,13.0111111
jardas al `abid,,09,32.3,20.9833333
jardas al ahrar,,09,32.2833333,20.9833333
jardinah,,54,31.7941667,20.2036111
jarijan,,56,31.8816667,11.6052778
jarmah,,52,26.5333333,13.0666667
jarrutah,,32,31.8166667,19.9833333
jaruthah,,32,31.8166667,19.9833333
jawsh,,31,32.0,11.6666667
jaytal,,62,31.8975,11.8836111
jefren,,62,32.0630556,12.5269444
jerdes el abid,,09,32.3,20.9833333
jiharrah,,25,29.2833333,21.6333333
jikharrah,,25,29.2833333,21.6333333
jikheira,,25,29.2833333,21.6333333
jinawin,,24,31.9666667,12.0166667
jud da'im,,53,32.78,12.7827778
jummari,,62,31.94,11.9980556
jurdani,,03,32.6327778,12.8736111
ka`am,,57,32.1102778,13.0061111
kabaw,,56,31.8444444,11.3397222
kaf miyas,,49,32.7222222,21.7027778
kahf miyas,,49,32.7222222,21.7027778
kamb al `ajjaj,,54,32.1,20.25
kambut,,42,31.9,24.4833333
kammun,,57,32.1375,13.0338889
kamun,,57,32.1375,13.0338889
karkurah,,54,31.4272222,20.0327778
karmat dukhayl allah,,54,31.9747222,19.9836111
karsah,,55,32.85,22.4166667
kaurni ebere dea,,30,23.3666667,15.4
khadra',,04,32.55,21.7833333
khalfun,,50,32.6055556,13.9688889
khishan al budur,,32,31.7,20.0
khoms,,50,32.65,14.2666667
khulayf,,52,26.7166667,13.9
ki`am,,50,32.5208333,14.435
ki`am,,57,32.1102778,13.0061111
kiar,,50,32.6966667,13.8461111
kiklah,,57,32.0833333,12.7
kirissah,,55,32.85,22.4166667
kourni ebere dea,,30,23.3666667,15.4
kuhuf bu qalbut,,11,32.7666667,22.25
kuhuf tuhudiyah,,49,32.7055556,21.8786111
kurkurah,,54,31.4272222,20.0327778
kyrene,,36,32.8277778,21.8622222
labdah,,50,32.65,14.2666667
lahmidiyah,,61,32.8844444,13.3908333
lalut,,56,31.8683333,10.9827778
lamayah,,53,32.8019444,12.8791667
lamludah,,11,32.7833333,22.1666667
lathrun,,11,32.8666667,22.2833333
latroun,,11,32.8666667,22.2833333
latrun,,11,32.8666667,22.2833333
lawatah,,50,32.5569444,14.0138889
lebda,,50,32.65,14.2666667
lmaia,,53,32.8019444,12.8791667
luata,,50,32.5569444,14.0138889
luigi di savoia,,11,32.7858333,21.995
luigi razza,,49,32.7519444,21.6266667
maafen,,30,25.9166667,14.4833333
maamura,,53,32.7191667,12.8569444
macomades-euphranta,,60,31.2061111,16.5947222
madinat bayad,,42,32.0163889,23.9822222
madinat hun,,05,29.1166667,15.9333333
madinat misratah,,58,32.3783333,15.0905556
madinat sabratah,,51,32.7919444,12.4847222
madinat tilmitah,,09,32.7166667,20.95
madirat al abyar,,02,32.1833333,20.6
madrusah,,30,24.8008333,14.5477778
ma`fan,,30,25.9166667,14.4833333
magedul,,30,25.8647222,15.1116667
maghwah,,30,25.9833333,14.6166667
magrun,,54,31.4416667,20.1580556
magua,,30,25.9833333,14.6166667
majdul,,30,25.8647222,15.1116667
makhazin al birkat,,54,31.7797222,20.0302778
mameli,,49,32.6302778,21.6747222
manazil maftah al kara`iyah,,47,31.85,19.9833333
manazil miftah al kara`iyah,,47,31.85,19.9833333
mansurah,,36,32.8333333,21.85
mansura,,36,32.8333333,21.85
mantaqat al hashshan,,53,32.7425,12.9147222
mantigat daryanah,,43,32.35,20.3166667
mantiqat al ghanimah,,50,32.7002778,14.0444444
mantiqat al lathamah,,54,32.15,20.0833333
mantiqat daryanah,,43,32.35,20.3166667
mantiqat zawiyat as samah,,50,32.5763889,13.9944444
mantiqat zawiyat sidi `atiyah,,50,32.5902778,14.0011111
maradah,,47,29.2333333,19.2166667
marada,,47,29.2333333,19.2166667
maraua,,04,32.4830556,21.4041667
marawah,,04,32.4830556,21.4041667
marconi,,41,32.4833333,13.95
markaz bu ghaylan,,57,32.2727778,13.0255556
marqas,,56,31.8452778,11.5691667
marqus,,56,31.8452778,11.5691667
marsa al burayqah,,47,30.4166667,19.5786111
marsa brega,,47,30.4166667,19.5786111
marsa bregha,,47,30.4166667,19.5786111
marsa el brega,,47,30.4166667,19.5786111
marsa susah,,36,32.8966667,21.9630556
marsa susa,,36,32.8966667,21.9630556
marsa uasili,,47,30.9538889,20.1216667
martubah,,55,32.5833333,22.7666667
martuba,,55,32.5833333,22.7666667
marwan,,57,32.1386111,13.0691667
maryan,,62,32.0586111,12.5616667
marza-souza,,36,32.8966667,21.9630556
marzuq,43732,30,25.9044444,13.8972222
masallatah,23702,27,32.6166667,14.0
masindarah,,50,32.6088889,14.0266667
masliwah,,25,29.05,21.5
massah,,49,32.7519444,21.6266667
masufin,,57,32.0575,12.9911111
ma`tan as sarah,,34,21.6833333,21.8666667
mazghurah,,62,31.9683333,11.9716667
mazra`at albu qabu,,02,32.15,20.5666667
mazra`at albu qabw,,02,32.15,20.5666667
mazra`at kataraylla,,41,32.4666667,13.7166667
mazra`at katarilla,,41,32.4666667,13.7166667
mazra`at saqil,,41,32.4333333,13.65
mazra`at titanu,,41,32.4666667,13.7166667
mazuzah,,29,31.2666667,13.05
mazzu,,24,31.9333333,12.0166667
mechili,,11,32.1666667,22.2833333
medrusa,,30,24.8008333,14.5477778
melaki,,30,23.3333333,15.5
merghes,,56,31.8452778,11.5691667
meruan,,57,32.1386111,13.0691667
meseguin,,30,26.1333333,14.9666667
mesegwin,,30,26.1333333,14.9666667
meseqwin,,30,26.1333333,14.9666667
mesghoura,,62,31.9683333,11.9716667
mesliua,,25,29.05,21.5
messa,,49,32.7519444,21.6266667
mezgura,,62,31.9683333,11.9716667
mezzou,,24,31.9333333,12.0166667
mezzu,,24,31.9333333,12.0166667
miamin,,57,32.2333333,13.0538889
miani,,05,29.0666667,15.7833333
miani,,61,32.8133333,13.2697222
mintaqat ad daghdughi,,45,32.35,14.5333333
mintaqat al ghanimah,,50,32.7002778,14.0444444
mintaqat al hashshan,,53,32.7425,12.9147222
mintaqat al lathamah,,54,32.15,20.0833333
mintaqat al qayqab,,11,32.7333333,22.0166667
mintaqat wadi harawah,,60,31.05,17.2833333
mintaqat zawiyat as samah,,50,32.5763889,13.9944444
mintaqat zawiyat sidi `atiyah,,50,32.5902778,14.0011111
misca,,57,32.0166667,12.8166667
misdah,,29,31.4333333,12.9833333
miskah,,57,32.0166667,12.8166667
misquwin,,30,26.15,14.7166667
misratah,386120,58,32.3783333,15.0905556
misurata,,58,32.3783333,15.0905556
mizdah,26107,29,31.4333333,12.9833333
mizda,,29,31.4333333,12.9833333
mourzouk,,30,25.9044444,13.8972222
msindara,,50,32.6088889,14.0266667
msus,,32,31.5833333,21.0166667
mu`askar al `aziziyah,,61,32.875,13.175
mu`askar jalu,,61,32.8666667,13.1666667
mudiriyat sidi as sa'ih,,61,32.5611111,13.2536111
muhayyah,,41,32.4166667,13.55
murzuch,,30,25.9044444,13.8972222
murzuq,,30,25.9044444,13.8972222
musa`id,,42,31.6,25.05
nadbas,,62,31.9516667,11.995
nagur,,57,32.0461111,12.6572222
na`imah,,45,32.4333333,14.6666667
naima,,45,32.4333333,14.6666667
nalut,66228,56,31.8683333,10.9827778
nasmah,,29,31.3833333,13.2833333
nedbas,,62,31.9516667,11.995
ngem,,58,30.5833333,15.4
nofilia,,19,30.7833333,17.8333333
nufilia,,19,30.7833333,17.8333333
nuqtat al khattabiyah,,42,31.7666667,25.0666667
oasi di geddaim,,53,32.78,12.7827778
oasi di lmaia,,53,32.8019444,12.8791667
oea,,61,32.8925,13.18
oliveti,,53,32.78,12.7827778
ouchebari,,24,31.9666667,12.0166667
ouifat,,62,31.9377778,11.9552778
pabta,,57,32.1575,12.8422222
petras maior,,42,31.7666667,25.1
pisida,,51,33.0747222,11.7355556
port brega,,47,30.4166667,19.5786111
posto trucchi,,08,26.0166667,22.2333333
ptolemais,,09,32.7166667,20.95
qabilah,,57,32.1616667,13.1025
qabilat abu sahamah,,57,32.2666667,13.05
qabilat al `abadilah,,45,32.2833333,14.7
qabilat al `abadinah,,45,32.3166667,14.7333333
qabilat al abqar,,57,32.2666667,13.0333333
qabilat al afadil,,50,32.6411111,14.1675
qabilat al `amariyin,,50,32.6011111,13.9133333
qabilat al `aql,,50,32.6536111,14.1625
qabilat al `atayah,,45,32.2666667,14.6833333
qabilat al `ataya,,45,32.2666667,14.6833333
qabilat al bakakishah,,27,32.45,14.55
qabilat al fawatir,,45,32.2666667,14.6666667
qabilat al fawatir,,50,32.5641667,13.9311111
qabilat al hajj `umran,,57,32.125,12.9936111
qabilat al haj `umran,,57,32.125,12.9936111
qabilat al hurmah,,45,32.3,14.6833333
qabilat al jawabir,,50,32.6416667,13.9061111
qabilat al kararitah,,50,32.5838889,13.8838889
qabilat al karawinah,,50,32.6161111,13.9622222
qabilat al kawarighiliyah,,27,32.4666667,14.5166667
qabilat al kawarighliyah,,27,32.4666667,14.5166667
qabilat al khums,,50,32.6538889,14.2033333
qabilat al luffazi§il,,50,32.6411111,14.1675
qabilat al mala'itah,,58,32.3833333,15.1833333
qabilat al malayitah,,58,32.3833333,15.1833333
qabilat al maqsabah,,58,32.3666667,15.0833333
qabilat al mashashitah,,53,32.7986111,13.0
qabilat al mishashtah,,53,32.7986111,13.0
qabilat al mu`ammariyin,,41,32.4666667,13.8833333
qabilat al mu`ammiriyyin,,41,32.4666667,13.8833333
qabilat al qalil,,50,32.5825,13.99
qabilat al qanawat,,50,32.5761111,14.3602778
qabilat al qazzir,,58,32.35,15.0833333
qabilat an nattatat,,57,32.1430556,13.0308333
qabilat ar radadah,,50,32.5977778,13.9380556
qabilat ar raghah,,50,32.5594444,13.9
qabilat ar rahbah,,57,32.25,13.0333333
qabilat ar rahban,,57,32.25,13.0333333
qabilat ar rahumat,,45,32.3333333,14.55
qabilat ar raqa'iqiyah,,57,31.05,13.1666667
qabilat ash sha`afiyin,,50,32.5733333,13.8811111
qabilat ash shi`afiyin,,50,32.5733333,13.8811111
qabilat ash shurfah,,50,32.5833333,14.2333333
qabilat ash shurtah,,50,32.6055556,13.9688889
qabilat ash shutaywiyah,,45,32.3,14.6666667
qabilat as saqu`,,45,32.3666667,14.6666667
qabilat awlad abu sahayyarah,,53,32.7827778,12.7180556
qabilat awlad abu salamah,,57,32.2666667,13.05
qabilat awlad abu suhayyirah,,53,32.7827778,12.7180556
qabilat awlad `amir,,62,31.9994444,12.3313889
qabilat awlad `arif,,50,32.6177778,13.9019444
qabilat awlad as saghir,,62,32.0147222,12.4566667
qabilat awlad ath thamad,,58,32.0,15.2
qabilat awlad ba`ayyu,,58,32.3833333,15.0833333
qabilat awlad bin ahmad,,53,32.8361111,13.0722222
qabilat awlad bu husayn,,62,32.0038889,12.3422222
qabilat awlad dhiyab,,61,32.9022222,13.2708333
qabilat awlad diyab,,61,32.9022222,13.2708333
qabilat awlad hamid,,58,32.0,15.1833333
qabilat awlad `isa,,50,32.6583333,14.1516667
qabilat awlad itamid,,58,32.0,15.2
qabilat awlad `izaz,,57,32.1555556,12.8319444
qabilat awlad jabir,,62,32.0,12.3333333
qabilat awlad rin ahmad,,53,32.8361111,13.0722222
qabilat awlad `umar,,50,32.6822222,14.1444444
qabilat awlad za'id,,50,32.6477778,14.1630556
qabilat az zaribah,,57,32.1575,12.8422222
qabilat az zintan al `amyan,,29,31.05,12.3666667
qabilat az zintan al `umyan,,29,31.05,12.3666667
qabilat badarthan,,57,32.1661111,13.0472222
qabilat badrah,,57,32.1661111,13.0472222
qabilat bani layth,,50,32.5691667,14.0152778
qabilat bani musallam,,50,32.605,14.0383333
qabilat bani salim,,50,32.6277778,14.0269444
qabilat dajibitah,,61,32.9086111,13.2616667
qabilat dirsunah,,45,32.3333333,14.6666667
qabilat indarah,,50,32.6088889,14.0266667
qabilat lawatah,,50,32.5569444,14.0138889
qabilat liwatah,,50,32.5569444,14.0138889
qabilat mantar,,58,32.3833333,15.0666667
qabilat,,57,32.1616667,13.1025
qabilat quba`,,57,32.0863889,13.0116667
qabilat salimah,,50,32.6430556,13.9533333
qabilat salmah,,50,32.6430556,13.9533333
qabilat saqin,,57,32.0994444,13.0572222
qabilat sidi mu`ammar,,27,32.5,13.8833333
qabilat silin,,50,32.6680556,14.1738889
qabilat suq ad dawun,,41,32.45,13.9166667
qabilat takut,,56,31.9619444,11.0238889
qabilat wadinah,,50,32.5722222,14.0394444
qabilat wadnah,,50,32.5722222,14.0394444
qabilat warjin,,62,32.01,12.4633333
qabilat za`faran,,50,32.5897222,14.0363889
qaminis,,54,31.6602778,20.0155556
qandulah,,49,32.5377778,21.5758333
qarabulli,,10,32.75,13.7166667
qarah bulli,,10,32.75,13.7166667
qarbat al bayda',,57,32.1163889,13.3702778
qarqarish,,61,32.8697222,13.1077778
qarrim,,50,32.6341667,13.9822222
qartah,,54,32.1,20.25
qaryat abu ahnash,,32,31.7833333,19.9666667
qaryat abu al ahnash,,32,31.7833333,19.9666667
qaryat abu `ayyad,,57,32.1238889,12.97
qaryat abu nujaym,,58,30.5833333,15.4
qaryat abu qurayn,,58,31.45,15.25
qaryat abu sharwal,,58,32.4,15.1333333
qaryat ad dababisah,,58,32.3,15.0833333
qaryat ad dababish,,58,32.3,15.0833333
qaryat ad dararifah,,57,32.2175,13.0172222
qaryat ad dawa'irah,,45,31.3833333,14.5333333
qaryat al `amamah,,42,32.0997222,23.8883333
qaryat al `amruni,,57,32.1311111,12.6341667
qaryat al `arimah,,18,31.4333333,14.0
qaryat al `awa'idah,,58,32.4,15.1
qaryat al baladiyah,,61,32.8691667,13.1827778
qaryat al barahimah,,62,32.0227778,12.5052778
qaryat al barakat,,32,31.7666667,20.0333333
qaryat al barakat,,54,31.7797222,20.0302778
qaryat al bayda',,57,32.1163889,13.3702778
qaryat al bayyadah,,48,32.5636111,21.2488889
qaryat al birkat,,32,31.7666667,20.0333333
qaryat al birkat,,54,31.7797222,20.0302778
qaryat al fa'idiyah,,49,32.6905556,21.9075
qaryat al fayasilah,,56,31.8569444,11.7647222
qaryat al ghadarah,,54,31.8077778,20.0583333
qaryat al ghadrah,,54,31.8077778,20.0583333
qaryat al ghawil,,58,32.3666667,15.1333333
qaryat al ghut,,58,32.3833333,15.1166667
qaryat al habarah,,58,32.3666667,15.15
qaryat al halayifah,,62,32.01,12.4783333
qaryat al halibiyah,,54,31.9166667,19.9666667
qaryat al hama'imah,,62,32.0288889,12.5291667
qaryat al hamayimah,,62,32.0288889,12.5291667
qaryat al hanadah,,50,32.6758333,14.1572222
qaryat al hawayjat,,50,32.6191667,14.1430556
qaryat al huwayjat,,50,32.6191667,14.1430556
qaryat al `imamah,,42,32.0997222,23.8883333
qaryat al ja`afirah,,58,32.3833333,15.15
qaryat al jataliwah,,58,32.3833333,15.15
qaryat al kamshat,,57,32.1427778,13.1063889
qaryat al karmah,,54,31.9747222,19.9836111
qaryat al karran,,58,32.3666667,15.1333333
qaryat al khirbah,,62,31.8877778,11.8986111
qaryat al ma`anin,,62,32.0686111,12.5480556
qaryat al magharibah,,58,32.4,15.1166667
qaryat al mahjub,,58,32.4333333,14.9833333
qaryat al majaris,,54,32.0166667,20.0333333
qaryat al malihah,,54,31.8341667,20.0805556
qaryat al ma`nin,,62,32.0686111,12.5480556
qaryat al mayamin,,57,32.2333333,13.0538889
qaryat al qaddahiyah,,58,31.3666667,15.2333333
qaryat al qat`,,62,31.8711111,11.8941667
qaryat al qawarishah,,54,32.0333333,20.0666667
qaryat al qawasim,,57,32.1836111,13.0566667
qaryat al qusaybat,,58,32.4,15.0833333
qaryat al tawalikiyah,,58,32.4,15.1166667
qaryat al `unayzi,,54,32.15,20.1333333
qaryat al wafawat,,58,32.4,15.1166667
qaryat al wiqayyat,,45,32.4166667,14.5833333
qaryat al wuqayyat,,45,32.4166667,14.5833333
qaryat an nadwah,,62,31.8786111,11.8961111
qaryat an nushayh,,56,31.9366667,10.7622222
qaryat `arifah,,57,32.2255556,13.0452778
qaryat ar ra`itat,,58,32.3666667,15.1666667
qaryat ar ramlah,,58,32.3833333,15.1333333
qaryat ar ru'aysat,,58,32.3666667,15.1
qaryat ar rus,,58,32.3833333,15.1666667
qaryat ar ru'us,,58,32.3833333,15.1666667
qaryat ar ruwaysat,,58,32.3666667,15.1
qaryat as as sawabiyah,,58,32.35,15.1166667
qaryat ash shuyyab,,29,30.9166667,13.0833333
qaryat as saba'ih,,18,31.4,14.2333333
qaryat as sabayah,,18,31.4,14.2333333
qaryat as sabaykhat,,58,32.4,15.1333333
qaryat as sawadaq,,58,32.0333333,15.1166667
qaryat as sawadiq,,58,32.0333333,15.1166667
qaryat as sawagibah,,58,32.35,15.1166667
qaryat as subaykhat,,58,32.4,15.1333333
qaryat as suwak `ayn ghulu,,58,32.35,15.1333333
qaryat as suwwak `ayn ghuluww,,58,32.35,15.1333333
qaryat at taribjah,,54,31.8833333,19.95
qaryat at tayrah,,42,32.0625,23.9836111
qaryat awla bin shayyah,,58,32.3833333,15.1333333
qaryat awlad abu sha``alah,,58,32.3666667,15.15
qaryat awlad dhu'ayb,,29,30.7166667,13.3
qaryat awlad dhu'ayb,,58,30.6833333,13.25
qaryat awlad duwab,,58,30.6833333,13.25
qaryat awlad duwayb,,29,30.7166667,13.3
qaryat awlad jama`ah,,57,32.22,13.0483333
qaryat `ayn abu ghulah,,58,32.35,15.1333333
qaryat `ayn abu shaybah,,58,32.3,15.1
qaryat `ayn al kabir,,58,32.3166667,15.1166667
qaryat `ayn al madham,,58,32.35,15.1333333
qaryat `ayn az zay,,58,32.3333333,15.1333333
qaryat `ayn az zayt,,58,32.3333333,15.1333333
qaryat `ayn bilqayid,,58,32.3666667,15.1166667
qaryat `ayn bu al qa'id,,58,32.3666667,15.1166667
qaryat `ayn fakrunah,,58,32.3666667,15.1166667
qaryat `ayn kurayyim,,58,32.3833333,15.1333333
qaryat `ayn makhluf,,58,32.35,15.1333333
qaryat `ayt zaydan,,42,32.0913889,23.8927778
qaryat az zargan,,62,32.0155556,12.5091667
qaryat az zarrog,,58,32.3666667,15.15
qaryat az zarrug,,58,32.3666667,15.15
qaryat az zarruq,,58,32.3666667,15.15
qaryat az zuraygi,,58,32.4333333,14.9
qaryat az zurayqi,,58,32.4333333,14.9
qaryat az zuwaytinah,,47,30.9538889,20.1216667
qaryat ballalah,,58,32.3666667,15.1666667
qaryat bani musallam,,50,32.5966667,14.0475
qaryat bashir,,47,30.2925,19.4255556
qaryat battah,,48,32.6577778,21.1091667
qaryat bin hasan,,50,32.6841667,14.1341667
qaryat bin tallis,,59,31.8011111,14.0711111
qaryat bin tillis,,59,31.8011111,14.0711111
qaryat bishr,,47,30.2925,19.4255556
qaryat bu fakhirah,,54,31.95,19.9833333
qaryat bu fakirah,,54,31.95,19.9833333
qaryat bu rawayyah,,58,32.3833333,14.9333333
qaryat bu ruwayyah,,58,32.3833333,14.9333333
qaryat dajajirah,,58,32.3333333,15.1166667
qaryat dijajirah,,58,32.3333333,15.1166667
qaryat hanshir al budur,,50,32.62,14.1519444
qaryat hasan al hajj,,58,32.3833333,15.1166667
qaryat hasan al haj,,58,32.3833333,15.1166667
qaryat hijjajah,,27,32.45,14.55
qaryat hinsir al budawr,,50,32.62,14.1519444
qaryat hujjajah,,27,32.45,14.55
qaryat ishyamkh,,18,31.4166667,13.9333333
qaryat isma`il,,58,32.4,15.1333333
qaryat `it zaydan,,42,32.0913889,23.8927778
qaryat jardinah,,54,31.7941667,20.2036111
qaryat jarrufah,,32,31.8166667,19.9833333
qaryat jital,,62,31.8975,11.8836111
qaryat maqrun,,42,32.1086111,23.835
qaryat marwan,,57,32.1386111,13.0691667
qaryat mazghurah,,62,31.9683333,11.9716667
qaryat mazqhurah,,62,31.9683333,11.9716667
qaryat mazqurah,,62,31.9683333,11.9716667
qaryat mazzu,,24,31.9333333,12.0166667
qaryat murwan,,57,32.1386111,13.0691667
qaryat nabukar,,57,32.1602778,13.0375
qaryat nadbas,,62,31.9516667,11.995
qaryat qanfudah,,54,32.0333333,20.0166667
qaryat qararah,,58,32.3833333,15.1166667
qaryat qarat,,57,32.2025,13.0686111
qaryat qaryunas,,54,32.0666667,20.0333333
qaryat qaryunis,,54,32.0666667,20.0333333
qaryat qasr al `ajuz,,43,32.3,20.2666667
qaryat qimadah,,49,32.73,21.9061111
qaryat qirnadah,,49,32.73,21.9061111
qaryat qunfudhah,,54,32.0333333,20.0166667
qaryat ra's abu hammar,,58,32.3666667,15.1333333
qaryat ra's `alii,,58,32.3833333,15.1166667
qaryat ra's ath thumah,,58,32.3833333,15.1
qaryat ra's at tumah,,58,32.3833333,15.1
qaryat rufaydah,,58,32.3333333,15.1
qaryat rutaydah,,58,32.3333333,15.1
qaryat salug,,54,31.6686111,20.25
qaryat saluq,,54,31.6686111,20.25
qaryat sa`ud,,58,32.3833333,15.15
qaryat sawwan,,05,29.1666667,16.15
qaryat shumaykh,,18,31.4166667,13.9333333
qaryat sidi khalifah,,43,32.2666667,20.2
qaryat sidi mahyub,,02,32.25,20.7333333
qaryat sidi shahir ad din,,09,32.6666667,20.85
qaryat suq al jum`ah,,27,32.6166667,13.8
qaryat sur al `ud,,58,32.3833333,15.1333333
qaryat sur a`rabi,,58,32.3833333,15.1166667
qaryat sur i`rabi,,58,32.3833333,15.1166667
qaryat su`ud,,58,32.3833333,15.15
qaryat taminah,,58,32.25,15.0833333
qaryat t,,56,30.2116667,10.4633333
qaryat tunin,,56,30.1333333,9.4666667
qaryat `umar al mukhtar,,49,32.6302778,21.6747222
qaryat umm ad dananir,,54,31.8977778,20.0594444
qaryat umm an na`am,,29,30.7666667,13.1333333
qaryat umm as safa',,54,31.8391667,20.1088889
qaryat umm as safri',,54,31.8391667,20.1088889
qaryat wadi bin quwwad,,19,30.7833333,18.0666667
qasabat `akkah,,62,32.0483333,12.5825
qasabat madi,,62,32.0738889,12.5361111
qasbat dhiyab,,56,30.1869444,10.4491667
qasr ahmad al bahriyah,,58,32.3666667,15.2166667
qasr ahmad al qibliyah,,58,32.3666667,15.2166667
qasr ahmad,,58,32.3666667,15.2166667
qasr al buraygah,,47,30.4166667,19.5786111
qasr al burayqah,,47,30.4166667,19.5786111
qasr al fawqani,,56,31.0333333,10.6
qasr al hajj,,62,32.0413889,12.1702778
qasr al haj,,62,32.0413889,12.1702778
qasr al jadi,,42,31.85,24.7833333
qasr al jady,,42,31.85,24.7833333
qasr al jifarah,,50,32.6966667,13.8461111
qasr al qarabulli,,10,32.75,13.7166667
qasr al qarahbulli,,10,32.75,13.7166667
qasr al `urayyid,,54,31.93,20.0366667
qasr al wat'ani,,56,31.0333333,10.6
qasr bani walid,,18,31.7666667,13.9833333
qasr barruru,,52,26.6666667,13.75
qasr bin dubay`ah,,52,26.6333333,13.6666667
qasr bin ghashir,,33,32.6833333,13.1833333
qasr bint bayyah,,52,26.6333333,13.6666667
qasr khivak,,50,32.6966667,13.8461111
qasr khiyar,,50,32.6966667,13.8461111
qasr khulayf,,52,26.7,13.8666667
qasr kunbuth,,42,31.9,24.4833333
qasr larocu,,52,26.5333333,13.3166667
qasr libiya,,09,32.6333333,21.4166667
qasr sirt,,60,31.2061111,16.5947222
qasr takut,,56,31.9619444,11.0238889
qasr tarhunah,,41,32.4333333,13.6333333
qasr za`faran,,60,31.2061111,16.5947222
qawat,,30,25.9333333,14.1
qayqam,,13,27.55,14.2
qirah,,13,27.55,14.4
qirdah,,18,30.95,14.5666667
qirnadah,,49,32.73,21.9061111
qirrim,,50,32.6341667,13.9822222
quba`,,57,32.0863889,13.0116667
qurji,,61,32.8666667,13.15
quttah,,13,27.5333333,13.8166667
quwayjilah,,57,32.1047222,12.6763889
rabha,,57,32.25,13.0333333
rabta el-garbia,,57,32.1575,12.8422222
rabta,,57,32.1575,12.8422222
rahba,,57,32.25,13.0333333
rapta,,62,32.2333333,12.5666667
raqdalin,,06,32.8833333,11.9833333
raqraq,,62,31.925,11.9605556
ra's ajdir,,51,33.15,11.5666667
ras ajdyer,,51,33.15,11.5666667
ra's al hamamah,,04,32.925,21.6416667
ra's al hilal,,36,32.9166667,22.1666667
ras ali,,58,32.3833333,15.1166667
ra's at tabal,,29,31.3,13.4666667
ra's at tabl,,29,31.3,13.4666667
rasceda,,25,29.0166667,21.5166667
ras el-hilal,,36,32.9166667,22.1666667
rashidah,,25,29.0166667,21.5166667
ras hilal,,36,32.9166667,22.1666667
ra's lanuf,,19,30.5166667,18.5666667
razza,,49,32.7519444,21.6266667
regdalin,,06,32.8833333,11.9833333
reggala,,56,31.8527778,11.5866667
regima,,02,32.0666667,20.35
regregh,,62,31.925,11.9605556
regreg,,62,31.925,11.9605556
rhadames,,56,30.1333333,9.5
rhat,,30,24.9647222,10.1727778
riaina,,62,32.0038889,12.3422222
ri'asat difa` barqah,,54,32.0666667,20.25
riqdalin,,06,32.8833333,11.9833333
rumia,,62,32.0166667,12.5166667
sabhah,,34,27.0333333,14.4333333
sabha,126387,34,27.0333333,14.4333333
sabrah,,51,32.7919444,12.4847222
sabra,,51,32.7919444,12.4847222
sabratah,102037,51,32.7919444,12.4847222
sabratha,,51,32.7919444,12.4847222
sabri,,54,32.1333333,20.0666667
sadrus,,57,32.1844444,13.0994444
salantah,,49,32.5902778,21.7158333
salimah,,50,32.6430556,13.9533333
samnu,,34,27.2666667,14.9
saniet forsatta,,56,31.8641667,11.3794444
saniyat farsatta,,56,31.8641667,11.3794444
sardalas,,30,25.7891667,10.5508333
sardalis,,30,25.7891667,10.5508333
sawani al qawarishah,,54,32.0,20.05
sawani bin adam,,03,32.7175,13.0763889
sawani fassanu,,29,31.3166667,12.8
sawani qurji,,61,32.8666667,13.15
sawkanah,,05,29.0666667,15.7833333
sawknah,,05,29.0666667,15.7833333
sayyad,,26,32.8166667,12.95
scecsciuch,,24,32.0333333,11.95
scefi,,24,32.0,12.0833333
scegarna,,62,32.0727778,12.5233333
scemech,,18,31.4166667,13.9333333
scesciuch,,24,32.0333333,11.95
sciaafiin,,50,32.5733333,13.8811111
sciaaua,,56,30.9833333,10.55
sciahhat,,36,32.8277778,21.8622222
sciaua,,56,30.9833333,10.55
sciuref,,29,29.9833333,14.2666667
sebhah,,34,27.0333333,14.4333333
sebha,,34,27.0333333,14.4333333
sedada,,18,31.4833333,14.75
sedrures,,57,32.1844444,13.0994444
selma,,50,32.6430556,13.9533333
semnu,,34,27.2666667,14.9
serdeles,,30,25.7891667,10.5508333
sert,,60,31.2061111,16.5947222
shahat,,36,32.8277778,21.8622222
shahhat,,36,32.8277778,21.8622222
shakshuk,,24,32.0333333,11.95
shatal al ghabat,,61,32.8522222,13.2858333
sha`wah,,56,30.9833333,10.55
sha`wa',,56,30.9833333,10.55
shumaykh,,18,31.4166667,13.9333333
sichin,,57,32.0994444,13.0572222
sidi abd el magrun,,54,31.4416667,20.1580556
sidi ahmad al maqrun,,54,31.4416667,20.1580556
sidi ahmed el-magrun,,54,31.4416667,20.1580556
sidi `ali,,52,26.65,13.7
sidi amed el magrun,,54,31.4416667,20.1580556
sidi as sa'ih,,61,32.5611111,13.2536111
sidi as sayd,,41,32.3355556,13.4788889
sidi as sid,,41,32.3355556,13.4788889
sidi bin al bashiri,,10,32.6833333,13.5666667
sidi bin zinah,,06,32.8833333,11.9833333
sidi bu agela,,51,32.7338889,12.395
sidi bu zinah,,06,32.8833333,11.9833333
sidi chalifa,,43,32.2666667,20.2
sidi dawud,,54,32.1,20.0833333
sidi el-tmimi,,55,32.3333333,23.0666667
sidi kalifa,,43,32.2666667,20.2
sidi khalifah,,43,32.2666667,20.2
sidi maammer,,27,32.5,13.8833333
sidi magrun,,54,31.4416667,20.1580556
sidi mahius,,02,32.25,20.7333333
sidi mahyus,,02,32.25,20.7333333
sidi mu`ammar,,27,32.5,13.8833333
sighin,,57,32.0994444,13.0572222
sikin,,57,32.0994444,13.0572222
silin,,50,32.6680556,14.1738889
sinauen,,56,31.0283333,10.6027778
sinawan,,56,31.0283333,10.6027778
sinawin,,56,31.0283333,10.6027778
sinnawin,,56,31.0283333,10.6027778
sirte,,60,31.2061111,16.5947222
sirt,,60,31.2061111,16.5947222
slamat,,62,31.8780556,11.7783333
slontah,,49,32.5902778,21.7158333
slonta,,49,32.5902778,21.7158333
smus,,32,31.5833333,21.0166667
socna,,05,29.0666667,15.7833333
soknah,,05,29.0666667,15.7833333
soluch,,54,31.6686111,20.25
solugh,,54,31.6686111,20.25
sorman,,53,32.7563889,12.575
suad,,58,32.3833333,15.1666667
suani ben adem,,03,32.7175,13.0763889
suani gurgi,,61,32.8666667,13.15
subgoli,,45,32.4666667,14.5666667
sugh el ahad,,61,32.5516667,13.4419444
sugh el-chmis,,50,32.5841667,14.3569444
sugh el giumaa,,27,32.6166667,13.8
sugh el-giumaa,,45,32.4666667,14.5
sugh el giumaa,,61,32.8833333,13.2333333
suk el giuma,,61,32.8833333,13.2333333
suknah,,05,29.0666667,15.7833333
sultan,,47,31.0969444,20.225
sultan,,60,31.1177778,17.1475
suluntah,,49,32.5902778,21.7158333
suluq,15543,54,31.6686111,20.25
suq ad dawawdah,,51,32.8327778,12.0716667
suq ad dawawidah,,51,32.8327778,12.0716667
suq al ahad,,61,32.5516667,13.4419444
suq al `ajaj,,42,32.0769444,23.9394444
suq al `alaliqah,,35,32.75,11.9833333
suq al `alaliqah,,51,32.7566667,12.4722222
suq al `alalqah,,51,32.7566667,12.4722222
suq al jum`ah,,27,32.6166667,13.8
suq al jum`ah,,41,32.2597222,13.3775
suq al jum`ah,,45,32.4666667,14.5
suq al jum`ah,,61,32.8833333,13.2333333
suq al-jum'a,,61,32.8833333,13.2333333
suq al khamish,,33,32.5338889,13.2238889
suq al khamis,,33,32.5338889,13.2238889
suq al khamis,,50,32.5841667,14.3569444
suq al `ujaylat,,51,32.7566667,12.4722222
suq as sabt,,33,32.65,13.2
suq qamatah al gharbiyah,,41,32.1666667,13.3833333
surman,25235,53,32.7563889,12.575
surt,128123,60,31.2061111,16.5947222
susah,,36,32.8966667,21.9630556
susa,,36,32.8966667,21.9630556
suwani bin yadim,,03,32.7175,13.0763889
tabadut,,57,32.0930556,12.9619444
tabalut,,57,32.0930556,12.9619444
tabaqah,,29,30.4333333,13.3166667
tacbal,,57,32.1241667,12.6338889
tacnis,,09,32.4833333,21.1208333
taghimah,,62,32.0977778,12.5486111
taghmah,,62,32.0977778,12.5486111
taghrinah,,57,32.1327778,12.9927778
taghrinnah,,57,32.1327778,12.9927778
tagiura,,61,32.8816667,13.3505556
taglin,,52,26.55,12.9
tagma,,62,32.0977778,12.5486111
tajarhi,,30,24.37,14.4708333
tajurah,,61,32.8816667,13.3505556
tajura',,61,32.8816667,13.3505556
takbal,,57,32.1241667,12.6338889
taknis,,09,32.4833333,21.1208333
talat,,56,31.8447222,11.2238889
tamanhant,,34,27.2166667,14.6166667
tamanhint,,34,27.2166667,14.6166667
tamazdah,,62,31.9119444,11.9502778
taminah,,58,32.25,15.0833333
tamina,,58,32.25,15.0833333
tamlushayit,,56,31.8541667,11.4655556
tamnascia,,56,31.8541667,11.4655556
tamnusciait,,56,31.8541667,11.4655556
tamzanah,,13,27.5666667,14.2166667
tamzana,,13,27.5666667,14.2166667
tamzaua,,13,27.5666667,14.2166667
tamzawah,,13,27.5666667,14.2166667
tamzin,,56,31.8547222,11.4197222
tandammirah,,56,31.8641667,11.5016667
tandimirrah,,56,31.8641667,11.5016667
tandimmirah,,56,31.8641667,11.5016667
tannushat,,56,31.8541667,11.4655556
tansulukh,,43,32.3833333,20.3666667
taqqrutin,,30,26.0166667,13.65
tarables,,61,32.8925,13.18
tarabulus al gharb,,61,32.8925,13.18
tarabulus bab qarqarish,,61,32.8819444,13.155
tarabulus el gharb,,61,32.8925,13.18
tarabulus,,61,32.8925,13.18
taraghin,,30,25.9233333,14.4205556
tarbu,,30,26.0333333,15.1666667
tardiyah,,24,31.9833333,12.1166667
taredia,,24,31.9833333,12.1166667
tarhunah,210698,41,32.4333333,13.6333333
tarhuna,,41,32.4333333,13.6333333
taridyah,,24,31.9833333,12.1166667
tarkah,,56,31.8647222,11.1330556
tarmisah,,24,32.0,12.05
tarmisa,,24,32.0,12.05
tarut,,13,27.5166667,13.9333333
tasawah,,30,25.9830556,13.4777778
taschin,,52,26.5833333,13.5666667
taukra,,43,32.5333333,20.5666667
tauorga,,58,32.0166667,15.1166667
tawargha',,58,32.0166667,15.1166667
tawurghah,,58,32.0166667,15.1166667
tawurgha',,58,32.0166667,15.1166667
taykah,,54,31.9111111,20.0205556
tazmarayit,,62,32.0794444,12.5644444
tazmerait,,62,32.0794444,12.5644444
tazzoli,,41,32.3355556,13.4788889
tbadut,,57,32.0930556,12.9619444
tebadut,,57,32.0930556,12.9619444
tecnis,,09,32.4833333,21.1208333
tegerhi,,30,24.37,14.4708333
teggrutia,,30,26.0166667,13.65
teggrutin,,30,26.0166667,13.65
tegrinna,,57,32.1327778,12.9927778
temenhint,,34,27.2166667,14.6166667
temlouchait,,56,31.8541667,11.4655556
temlusceit,,56,31.8541667,11.4655556
temlusciait,,56,31.8541667,11.4655556
tendemmira,,56,31.8641667,11.5016667
terbu,,30,26.0333333,15.1666667
tesaua,,30,25.9830556,13.4777778
tesawa,,30,25.9830556,13.4777778
teuchira,,43,32.5333333,20.5666667
tfalfalt,,56,30.1833333,10.4
tfelfelt,,56,30.1833333,10.4
tfelfet,,56,30.1833333,10.4
thintis,,36,32.8,22.0666667
thursday market,,50,32.5841667,14.3569444
tidji,,31,32.0166667,11.3666667
tighrinnah,,57,32.1327778,12.9927778
tigi,,31,32.0166667,11.3666667
tigrinna,,57,32.1327778,12.9927778
tiji,,31,32.0166667,11.3666667
tikah,,54,31.9111111,20.0205556
tilimun,,54,31.5897222,20.1716667
tinissan,,13,27.4833333,13.3166667
tinzaght,,56,31.8891667,11.5766667
tinzegt,,56,31.8891667,11.5766667
tiqrinnah,,57,32.1327778,12.9927778
tirakt,,56,31.8647222,11.1330556
tirect,,56,31.8647222,11.1330556
tirekt,,56,31.8647222,11.1330556
tizimrayit,,62,32.0794444,12.5644444
tmassah,,30,26.3666667,15.8
tmazda,,62,31.9119444,11.9502778
tmessa,,30,26.3666667,15.8
tmezda,,62,31.9119444,11.9502778
tmimi,,55,32.3333333,23.0666667
tmisan,,13,27.4833333,13.3166667
tmisda,,62,31.9119444,11.9502778
tmissan,,13,27.4833333,13.3166667
tobga,,29,30.4333333,13.3166667
tobruch,,42,32.0836111,23.9763889
tobruck,,42,32.0836111,23.9763889
tobruk,,42,32.0836111,23.9763889
tocra,,43,32.5333333,20.5666667
tokrah,,43,32.5333333,20.5666667
tolemaide,,09,32.7166667,20.95
tolmeita,,09,32.7166667,20.95
tolmeta,,09,32.7166667,20.95
tolmetta,,09,32.7166667,20.95
torga,,58,32.0166667,15.1166667
tounine,,56,30.1333333,9.4666667
touzougou,,08,22.3666667,19.5333333
traghan,,30,25.9233333,14.4205556
traghen,,30,25.9233333,14.4205556
tripoli,1150990,61,32.8925,13.18
tsawah,,30,25.9830556,13.4777778
tubruq,121052,42,32.0836111,23.9763889
tuiua,,52,26.55,13.1666667
tuiui,,30,26.15,14.7333333
tukrah,23164,43,32.5333333,20.5666667
tulmalhah,,09,32.7166667,20.95
tulmaylhah,,09,32.7166667,20.95
tulmaythah,,09,32.7166667,20.95
tunin,,56,30.1333333,9.4666667
tuosc,,52,26.5333333,13.0833333
tuose,,52,26.5333333,13.0833333
tuschin,,52,26.5833333,13.5666667
tuskin,,52,26.5833333,13.5666667
tuwiwi,,30,26.15,14.7333333
tuzuga,,08,22.3666667,19.5333333
tuzugu,,08,22.3666667,19.5333333
uaddan,,05,29.1666667,16.1333333
uadna,,50,32.5722222,14.0394444
uau el chebir,,30,25.3222222,16.7152778
uazzen,,56,31.9422222,10.6625
ubari,,52,26.5833333,12.7666667
uenzerich,,13,27.4833333,13.5
uenziref,,62,31.8605556,11.8697222
uifat,,62,31.9377778,11.9552778
ulad abd el-gelil,,24,31.95,12.1333333
ulad abd el-mola,,62,32.0838889,12.6311111
ulad ali,,62,32.0152778,12.3738889
ulad amor,,57,32.1311111,12.6341667
ulad anan,,24,31.9833333,12.15
ulad atia,,24,31.9333333,12.1666667
ulad bu ras,,57,32.1847222,13.0713889
ulad bu slama,,57,32.2666667,13.05
ulad chalfalla,,62,32.0383333,12.5169444
ulad chalifa,,62,31.95,12.25
ulad chlifa,,62,31.95,12.25
ulad duib,,24,31.9333333,12.2333333
ulad giaber,,24,31.95,12.15
ulad glali,,57,32.0791667,12.6891667
ulad isa,,24,31.9333333,12.2333333
ulad isa,,57,32.0758333,12.6894444
ulad iusef,,62,32.0705556,12.6819444
ulad mahmud,,56,31.8325,11.0466667
ulad masaud,,24,31.9666667,12.1166667
ulad rian,,62,31.9833333,12.3
ulad said,,57,32.0825,12.6694444
ulad salem,,57,32.2091667,13.0483333
ulad tacbal,,57,32.1241667,12.6338889
ulad tellis,,59,31.8011111,14.0711111
`umar al mukhtar,,49,32.6302778,21.6747222
umm al `abid,,34,27.5166667,15.0333333
umm al ahrar,,34,27.5166667,15.0
umm al aranib,,30,26.1333333,14.75
umm al hamam,,30,25.9552778,13.6505556
umm al `izi§am,,30,26.05,15.4666667
umm al jarsan,,62,32.0336111,12.5530556
umm ar razam,,55,32.5333333,23.0
umm ar rizam,,55,32.5333333,23.0
umm az zarsan,,62,32.0336111,12.5530556
umm el abid,,34,27.5166667,15.0333333
umm el-adam,,30,26.05,15.4666667
umm el araneb,,30,26.1333333,14.75
umm el-gersan,,62,32.0336111,12.5530556
umm el-hamam,,30,25.9552778,13.6505556
umm el haman,,30,25.9552778,13.6505556
umm el-hamen,,30,25.9552778,13.6505556
umm hafein,,55,32.5666667,23.0833333
umm safar,,56,31.8930556,11.5619444
umm saffar,,56,31.8930556,11.5619444
umm shuwayshah,,41,32.2333333,13.3666667
umm shwayshah,,41,32.2333333,13.3666667
umm soffar,,56,31.8930556,11.5619444
unegerich,,13,27.4833333,13.5
uriren,,45,32.4833333,14.5666667
usaden,,57,32.0822222,12.9816667
uscbari,,24,31.9666667,12.0166667
`uwaynat wanin,,13,28.5,12.7
uzi,,30,21.1333333,18.7333333
verde,,04,32.55,21.7833333
vittoriosa,,36,32.8333333,21.85
waddan,27590,05,29.1666667,16.1333333
wadinah,,50,32.5722222,14.0394444
wajilah,,47,29.1080556,21.2869444
wanzarif,,62,31.8605556,11.8697222
wanzarik,,13,27.4833333,13.5
wanziraf,,62,31.8605556,11.8697222
waw al kabir,,30,25.3222222,16.7152778
wazin,,56,31.9422222,10.6625
wazzan,,56,31.9422222,10.6625
white monastery,,04,32.7663889,21.7416667
wifat,,62,31.9377778,11.9552778
wisadan,,57,32.0822222,12.9816667
wuriran,,45,32.4833333,14.5666667
yafran,67638,62,32.0630556,12.5269444
yafrin,,62,32.0630556,12.5269444
zaafran,,50,32.5897222,14.0363889
zaarara,,56,31.9261111,11.6566667
za`faran,,50,32.5897222,14.0363889
zahrah,,11,32.8666667,22.2833333
zahra,,11,32.8666667,22.2833333
zaltan,16291,06,32.95,11.8666667
zalwaz,,13,27.5666667,14.2666667
zanzur,,53,32.8172222,13.0111111
za`rarah,,56,31.9261111,11.6566667
zarrugh,,58,32.3666667,15.15
zarruq,,58,32.3666667,15.15
zauia el beda,,04,32.7663889,21.7416667
zauia el-faidia,,49,32.6905556,21.9075
zauia el mrassas,,42,32.1333333,23.6666667
zauia-en-nofilia,,19,30.7833333,17.8333333
zauia msus,,32,31.5833333,21.0166667
zauia umm er-rzem,,55,32.5333333,23.0
zauia,,53,32.7480556,12.7230556
zauiet bsciar,,11,32.7666667,22.2333333
zauiet di gianzur,,42,31.9833333,24.6666667
zauiet driana,,43,32.35,20.3166667
zauiet el-amariin,,50,32.5916667,13.9877778
zauiet el-ezzeiat,,55,32.25,22.6666667
zauiet el mahgiub,,58,32.3833333,14.9833333
zauiet el-marazigh,,11,32.8166667,22.3
zauiet el mrassas,,42,32.1333333,23.6666667
zauiet en-nofilia,,19,30.7833333,17.8333333
zauiet gianzur,,42,31.9833333,24.6666667
zauiet msus,,32,31.5833333,21.0166667
zauiet tert,,36,32.8,22.0666667
zauiet umm er-rzem,,55,32.5333333,23.0
zauiet umm hafein,,55,32.5666667,23.0833333
zauiet umm rucba,,42,31.9333333,24.9166667
zauiet umm ruckba,,42,31.9333333,24.9166667
zaulet msus,,32,31.5833333,21.0166667
zavia gianzur,,42,31.9833333,24.6666667
zavia jiantsur,,42,31.9833333,24.6666667
zavia,,53,32.7480556,12.7230556
zawiat al-baida,,04,32.7663889,21.7416667
zawiat al-maraziq,,11,32.8166667,22.3
zawia,,53,32.7480556,12.7230556
zawilah,,30,26.1666667,15.1166667
zawiyat al `amariyin,,50,32.5916667,13.9877778
zawiyat al amartyin,,50,32.5916667,13.9877778
zawiyat al bayda',,04,32.7663889,21.7416667
zawiyat al habib,,11,32.8166667,22.3
zawiyat al `izziyat,,55,32.25,22.6666667
zawiyat al mahjub,,45,32.0166667,14.6833333
zawiyat al mahjub,,58,32.3833333,14.9833333
zawiyat al makhil,,11,32.1666667,22.2833333
zawiyat al manastir,,42,31.8,24.9333333
zawiyat al maraziq,,11,32.8166667,22.3
zawiyat al mukhayla,,11,32.1666667,22.2833333
zawiyat al murassas,,42,32.1333333,23.6666667
zawiyat al `urqub,,04,32.8333333,21.6
zawiyat at tarit,,36,32.8,22.0666667
zawiyat at tart,,36,32.8,22.0666667
zawiyat at tilimun,,54,31.5897222,20.1716667
zawiyat bisharah,,11,32.7666667,22.2333333
zawiyat el-beda',,04,32.7663889,21.7416667
zawiyat masus,,32,31.5833333,21.0166667
zawiyat umm ar rizam,,55,32.5333333,23.0
zawiyat umm hufayn,,55,32.5666667,23.0833333
zawiyat umm rukbah,,42,31.9333333,24.9166667
zawiyat zanzur,,42,31.9666667,24.75
zella,,05,28.55,17.5833333
zelten,,06,32.95,11.8666667
zeluaz,,13,27.5666667,14.2666667
zighan,,08,25.4833333,22.1333333
zighen,,34,27.35,14.9
ziliten,,45,32.4666667,14.5666667
zillah,,05,28.55,17.5833333
zintan,,24,31.9333333,12.2333333
zizau,,30,25.9,14.1666667
zizaw,,30,25.9,14.1666667
zlitan,99289,45,32.4666667,14.5666667
zliten,,45,32.4666667,14.5666667
zorug,,58,32.3666667,15.15
zregh,,58,32.4333333,14.9
zuara,,51,32.9344444,12.0791667
zuava,,51,32.9344444,12.0791667
zueitina,,47,30.9538889,20.1216667
zuetina,,47,30.9538889,20.1216667
zuila,,30,26.1666667,15.1166667
zurayq,,58,32.4333333,14.9
zurgan,,62,32.0155556,12.5091667
zurqan,,62,32.0155556,12.5091667
zuwarah,180310,51,32.9344444,12.0791667
