names,population,state_code,lat,lon
aatli,,06,41.2777778,22.7861111
abar koi,,06,40.8680556,22.9047222
abdular,,21,39.4833333,22.6
acharnae,,35,38.0833333,23.7333333
acharne,,35,38.0833333,23.7333333
achataries,,22,39.4577778,21.3194444
achelinada,,22,39.825,21.8711111
acherousia,,19,39.2577778,20.5958333
achilleion,,25,39.5644444,19.905
achladea,,22,39.8358333,21.6091667
achladeai,,17,39.4522222,20.7727778
achladia,,22,39.8358333,21.6091667
achladies,,17,39.4522222,20.7727778
achladochorio,,07,40.8352778,22.3358333
achladochorion,,07,40.8352778,22.3358333
adali,,13,40.4333333,23.0333333
adamas,,33,38.5,22.9833333
adamas,1478,49,36.7333333,24.4333333
adas,,14,41.1333333,24.7
adendro,,13,40.6716667,22.6044444
adendron,2312,13,40.6716667,22.6044444
adham,,13,40.55,23.3
adhamas,,33,38.5,22.9833333
adhamas,,49,36.7333333,24.4333333
adhami,,36,37.5666667,23.0666667
adhamioi,,36,37.5666667,23.0666667
adhamion,,36,37.5666667,23.0666667
adhele,,44,35.3666667,24.5666667
adhelfikon,,05,41.0166667,23.4666667
adhendhron,,13,40.6716667,22.6044444
adhendron,,13,40.6716667,22.6044444
adhiakopos,,42,36.5666667,23.05
adhraktia,,45,35.15,25.0333333
adhramilos,,46,35.0833333,26.0333333
adhravastoi,,46,35.1333333,26.2166667
adhravastos,,46,35.3166667,25.6166667
adhrayastos,,46,35.3166667,25.6166667
adhriani,,02,41.0166667,25.3666667
adhriani,,04,41.1333333,24.2666667
adhriani,,40,36.8666667,21.8666667
adhrianos,,46,35.2,25.6166667
adhrianou,,46,35.2,25.6166667
aedipsos,,34,38.8833333,23.05
aegae,,34,38.7666667,23.3166667
aegaleo,,35,37.9833333,23.6833333
aegina,,35,37.7466667,23.4275
aegion,,38,38.2486111,22.0819444
aegium,,38,38.2486111,22.0819444
aerinon,,24,39.3333333,22.7666667
aerinos,,43,35.3666667,23.6
aerokhori,,40,37.1333333,22.0333333
aetochori,,07,41.0952778,22.1725
aetochori,,23,39.2858333,21.4669444
aetochorion,,07,41.0952778,22.1725
aetochorion,,23,39.2858333,21.4669444
aetofolea,,49,37.6166667,25.1166667
aetofolia,,40,37.1,21.85
aetofolia,,49,37.6166667,25.1166667
aetokhori,,01,40.9,26.0
aetokhori,,07,41.0952778,22.1725
aetokhorion,,01,40.9,26.0
aetokhorion,,07,41.0952778,22.1725
aetokhorion,,41,37.4,22.6
aetokorifi,,02,40.9833333,25.6166667
aetolfos,,21,39.6833333,22.7333333
aetoliko,,31,38.4333333,21.35
aetolofos,,02,41.0166667,25.6
aetolofos,,21,39.6833333,22.7333333
aetomilitsa,,17,40.3069444,20.8538889
aetopetra,,17,39.7672222,20.5416667
aetopetra,,31,38.6166667,21.6833333
aetorrachi,,17,39.52,20.9408333
aetorrakhi,,17,39.52,20.9408333
aetorrakhi,,21,39.8333333,22.2
aetorrakhi,,41,37.6666667,21.9166667
aetos,,11,40.6666667,21.55
aetos,,18,39.58,20.3966667
aetos,,22,39.4622222,21.2833333
aetos,,31,38.7166667,21.0833333
aetos,,34,38.0166667,24.45
aetos,,40,37.25,21.8333333
aetovouni,,05,41.2833333,23.25
aetovounion,,05,41.2833333,23.25
afalonas,,51,39.1480556,26.5144444
afaloti,,42,36.5833333,22.4
afandou,,47,36.3,28.15
afantou,5562,47,36.3,28.15
afetai,,24,39.2833333,23.1833333
afidhnai,,35,38.2166667,23.8333333
afini,,35,37.9833333,23.7333333
afion,,25,39.7208333,19.6594444
afionas,,25,39.7208333,19.6594444
afision,,42,37.1,22.45
afissos,,24,39.2666667,23.1666667
afissos,,42,37.1,22.45
afitos,1428,13,40.1,23.4333333
aflakion,,47,36.5586111,27.1755556
afra,879,25,39.6197222,19.8577778
afrata,,43,35.5666667,23.7666667
afrati,,34,38.45,23.6833333
afrati,,45,35.1,25.35
afration,1365,34,38.45,23.6833333
afration,,45,35.1,25.35
afraton,,31,38.6166667,21.5333333
afrayia,,27,38.15,20.75
afrayias,,27,38.15,20.75
afrodhiti,,31,38.4,21.8
afrodisia,,50,38.5544444,25.925
afroti,,45,35.1,25.35
afroxilia,,20,39.2194444,21.3080556
afroxylia,,20,39.2194444,21.3080556
agadhaiika,,42,36.7333333,22.55
agadheika,,42,36.7333333,22.55
agajiki,,40,36.8166667,21.75
agakiana,,43,35.3333333,23.7333333
agalai,,10,40.0333333,21.6166667
agalaioi,,10,40.0333333,21.6166667
agalar,,14,41.0666667,24.75
agalas,,28,37.7166667,20.7833333
agaliani,,40,37.35,21.7333333
agalianos,,30,38.8666667,21.6166667
agalianos,,44,35.1666667,24.5333333
agalianou,,44,35.1666667,24.5333333
agallo,,41,37.5833333,21.95
agalo,,41,37.5833333,21.95
agamandia,,47,35.6833333,27.15
aganotaiika,,35,37.4333333,23.4
agantziki,,40,36.8166667,21.75
agapi,,10,40.0666667,21.5666667
agapi,,14,41.1,24.3
agapi,,49,37.6,25.1666667
agathi,,07,41.0091667,22.0588889
agatho,,34,38.1166667,24.5
agathon,,34,38.1166667,24.5
agathos,,34,38.1166667,24.5
agdhinai,,34,38.9666667,23.3
agdhines,,34,38.9666667,23.3
agelopo,,50,38.5822222,25.97
aggeies,,29,39.1,22.2
aghia eirene,,34,37.9666667,24.4833333
agia agathi,,23,39.185,21.7663889
agia,,19,39.3130556,20.3552778
agia,,21,39.7177778,22.7636111
(( agia aikaterini )),,25,39.8172222,19.845
agia anastasia,,17,39.5630556,20.7383333
agia anna,,09,40.4375,21.0813889
agia eleousa,,19,39.2458333,20.8344444
(( agia eleousa )),,25,39.6,19.9
agia ermioni,,50,38.3019444,26.1472222
agia faneromeni,,19,39.3169444,20.8619444
agia foteini,,07,40.7133333,22.0008333
agia kyriaki,,06,41.1175,22.8272222
agia kyriaki,,09,40.5263889,21.1216667
agia kyriaki,,11,40.2780556,22.1097222
agia kyriaki,,18,39.4877778,20.57
agia kyriaki,,19,39.2827778,20.4452778
agia kyriaki,,22,39.5161111,21.8025
agia kyriaki,,48,37.6983333,26.6186111
agia marina,,12,40.5977778,22.2152778
agia marina,,17,39.7294444,20.8175
agia marina,,18,39.4669444,20.3147222
agia marina,,47,35.4,26.9166667
agia marina,,51,39.0666667,26.5833333
agia mavra,,18,39.4861111,20.4683333
agia paraskevi,,06,41.2661111,22.8488889
agia paraskevi,,17,40.1425,20.8894444
(( agia paraskevi )),,17,39.7333333,20.5833333
(( agia paraskevi )),,18,39.5166667,20.5666667
agia paraskevi,,19,39.3027778,20.8905556
(( agia paraskevi )),,19,39.2833333,20.7
agia paraskevi,,20,39.0997222,20.9908333
agia paraskevi,,22,39.5683333,21.2577778
agia paraskevi,,29,39.0066667,21.9938889
agia paraskevi,,30,39.0044444,21.7952778
agia paraskevi,,48,37.7791667,26.9933333
agia paraskevi,,51,39.2480556,26.2716667
agia pelagia,,35,36.3333333,22.9833333
agiasma,,14,40.9088889,24.6572222
agiasmata,,50,38.5858333,25.9377778
agiasos,,51,39.085,26.37
agia sotira,,31,39.0519444,21.1663889
agia thekla,,27,38.25,20.3833333
agia thekli,,27,38.25,20.3833333
agia triada,,13,40.4994444,22.8761111
agia triada,,20,39.1380556,20.9813889
agia triada,,23,39.4633333,21.8986111
agia triada,,31,39.1205556,21.1905556
agia trias,,12,40.5483333,22.4213889
agia trias,,13,40.4994444,22.8761111
agia trias,,17,39.4361111,20.8869444
agia trias,,20,39.1380556,20.9813889
agia trias,,22,39.8180556,21.7222222
agia trias,,23,39.4633333,21.8986111
agia trias,,31,39.0188889,21.1988889
agia varvara,,12,40.4927778,22.2433333
agia varvara,,17,39.7372222,21.0352778
agia zoni,,48,37.7511111,27.0055556
agiofyllo,,22,39.8613889,21.5536111
agiofyllon,,22,39.8613889,21.5536111
agioi,,35,37.7694444,23.5091667
agioi anargyroi,,20,39.1397222,21.0258333
agioi anargyroi,,23,39.4352778,21.8338889
agioi apostoloi,,17,39.7494444,20.7930556
agioi apostoloi,,19,39.3047222,20.8002778
agioi apostoloi,,23,39.2244444,21.4463889
agioi apostoloi,,30,39.0919444,21.8519444
agioi deka,,25,39.5558333,19.8847222
agioi douloi,,25,39.745,19.7572222
(( agioi pantes )),,17,39.5666667,21.0516667
agioi pantes,,18,39.7197222,20.3491667
agioi theodori,,48,37.7472222,26.7286111
agioi theodoroi,,10,39.9777778,21.4994444
agioi theodoroi,,11,40.3708333,22.0205556
(( agioi theodoroi )),,17,39.4333333,20.95
agioi theodoroi,,22,39.6594444,21.6908333
agioi theodoroi,,25,39.4233333,20.0688889
agioi theodoroi,,30,39.1494444,21.6147222
agioneri,,19,39.3225,20.7916667
agion gala,,50,38.565,25.8583333
agiopigi,,23,39.3183333,21.9197222
agios achilleios,,08,40.7841667,21.0808333
agios ahileos,,08,40.7841667,21.0808333
agios aimilianos,,25,39.1530556,20.2236111
agios aimilianos,,50,38.2802778,26.11
agios akakios,,23,39.3816667,21.7719444
agios andreas,,17,39.4708333,20.7086111
agios antonios,,30,39.1947222,21.62
agios antonios,,47,36.4586111,27.3186111
agios arsenios,,18,39.5375,20.3994444
agios athanasios,,13,40.7172222,22.7280556
agios athanasios,,20,39.2430556,21.1394444
agios athanasios,,23,39.2813889,21.7802778
agios athanasios,,25,39.7338889,19.7161111
agios charalampos,,06,41.2027778,22.8133333
agios charalampos,,20,39.2897222,21.1286111
agios christofos,,17,39.4141667,20.9191667
agios dimitrios,,09,40.5861111,21.0630556
agios dimitrios,,16,40.1527778,22.2266667
(( agios dimitrios )),,17,39.5172222,20.675
(( agios dimitrios )),,18,39.5333333,20.55
agios dimitrios,,20,39.1594444,21.0152778
(( agios dimitrios )),,20,39.4,21.0833333
agios dimitrios,,22,39.7725,21.5402778
agios dimitrios,,25,39.4605556,19.9491667
agios dimitrios,,30,39.0575,21.6783333
agios dimitrios,,47,36.8536111,27.2238889
agios dimitrios,,48,37.8086111,26.7388889
agios donatos,,18,39.4775,20.5066667
agios fokas,,47,36.8616667,27.3383333
agios georgios,,07,40.7622222,22.2463889
agios georgios,,10,39.8680556,21.7572222
agios georgios,,12,40.6011111,22.1941667
agios georgios,,17,39.4219444,20.9483333
(( agios georgios )),,17,40.1269444,20.7516667
agios georgios,,18,39.4555556,20.5138889
agios georgios,,19,39.2669444,20.8533333
agios georgios,,20,39.3841667,21.1255556
(( agios georgios )),,20,39.3666667,21.2166667
agios georgios,,22,39.4875,21.5427778
agios georgios,,23,39.2961111,21.8361111
agios georgios,,31,39.0477778,21.1444444
agios georgios,,47,36.8494444,27.165
agios georgios,,50,38.4997222,25.9863889
agios georgios glykorrizou,,20,39.1,21.0261111
agios georgios sykousis,,50,38.3188889,26.0552778
agios ilias,,25,39.7986111,19.8686111
agios ilias,,48,37.8066667,26.7322222
agios ioanis gigenon,,16,40.3263889,22.5258333
agios ioanis ofis,,16,40.3347222,22.5255556
agios ioannis,,16,40.3263889,22.5258333
agios ioannis,,17,39.7013889,20.8072222
agios ioannis,,20,39.2563889,21.1977778
agios ioannis,,22,39.4383333,21.5647222
agios ioannis,,25,39.6158333,19.85
agios ioannis,,31,39.0005556,21.2022222
agios ioannis,,50,38.2066667,26.0702778
agios ioannis prodromos,,30,39.1836111,21.4680556
agios isidoros,,50,38.4611111,26.0269444
agios kirykos,,48,37.6147222,26.2944444
agios konstantinos,,48,37.8058333,26.8152778
agios kosmas,,17,39.67,20.5897222
agios loukas,,07,40.7194444,22.295
agios markos,,25,39.7075,19.8202778
agios matthaios,,25,39.4958333,19.8730556
agios merkourios,,11,40.2766667,22.0852778
agios minas,,17,39.6955556,21.0233333
agios nikolaos,,17,39.4463889,20.8402778
agios nikolaos,,18,39.7030556,20.3258333
agios nikolaos,,19,39.0394444,20.7602778
(( agios nikolaos )),,19,39.3333333,20.9
agios nikolaos,,20,39.2811111,21.3905556
agios nikolaos,,22,39.5491667,21.3605556
agios nikolaos,,25,39.4427778,19.9955556
agios nikolaos,,28,37.75,20.7833333
agios nikolaos,,30,39.0555556,21.5838889
agios nikolaos,,31,38.8666667,20.8
agios nikolaos,,46,35.1913889,25.7133333
agios panteleimon,,25,39.7752778,19.8213889
agios panteleimon,,48,37.7780556,26.6733333
agios panteleimonas,,18,39.4377778,20.3986111
agios pavlos,,13,40.6405556,22.9594444
agios petros,,06,40.8647222,22.5763889
agios petros,,26,38.6666667,20.6
agios prokopios,,22,39.4711111,21.5355556
agios prokopios,,25,39.5733333,19.8766667
agios prokopios,,30,39.0180556,21.555
agios rokkos,,25,39.6216667,19.9186111
agios spyridon,,16,40.2066667,22.4402778
agios spyridon,,20,39.1444444,20.8630556
agios spyridon,,25,39.6216667,19.9186111
(( agios stefanos )),,17,39.55,20.55
agios stefanos,,20,39.3363889,21.1605556
agios stefanos,,25,39.7666667,19.9463889
agios stefanos,,47,36.7608333,26.9961111
agios vasileios,,20,39.2830556,21.4208333
agios vissarion,,22,39.4702778,21.6180556
agios vlasios,,18,39.5569444,20.2838889
agios vlasios,,20,39.2911111,21.2505556
agios vlasios,,30,39.1202778,21.4744444
agiou georgiou,,19,39.2669444,20.8533333
agiou nilolaou,,31,38.8666667,20.8
agkathia,,12,40.5558333,22.4708333
aglavista,,32,38.5333333,22.1
aglavitsa,,32,38.5333333,22.1
agloudhista,,32,38.5333333,22.1
agnanda,,20,39.4741667,21.0783333
agnanda,,39,37.8166667,21.6166667
agnanderi,,21,39.4166667,22.6166667
agnanderon,,23,39.4872222,21.8455556
agnandia,,01,40.8833333,25.9833333
agnandia,,22,39.8675,21.4655556
agnandi,,29,38.7166667,22.8833333
agnandion,,40,36.9,21.8666667
agnanta,,20,39.4741667,21.0783333
agnantero,,23,39.4872222,21.8455556
agnanteron,1859,23,39.4872222,21.8455556
agnantia,,22,39.8675,21.4655556
agnantio,,40,36.9,21.8666667
agnata,,39,37.8166667,21.6166667
agni,,25,39.7361111,19.9280556
agnitsasi,,25,39.7566667,19.9302778
agnitsini,,25,39.7566667,19.9302778
agno,,45,35.25,25.35
agora,,14,41.1333333,24.3166667
agora,,18,39.3838889,20.5675
agorelitsa,,40,37.05,21.7
agoriani,,30,38.8833333,22.1166667
agoriani,,33,38.4,22.9833333
agoriani,,42,37.2,22.2666667
agoryiani,,30,38.8833333,22.1166667
agoryiani,,42,37.2,22.2666667
agoulinitsa,,39,37.6333333,21.5
agourelitsa,,40,37.05,21.7
agova,,36,37.6333333,22.6833333
agoyia,,46,35.3333333,25.6166667
agra,,07,40.805,22.0005556
agra,983,51,39.1666667,26.0666667
agrafa,820,30,39.1372222,21.65
agrafoi,,25,39.7633333,19.7386111
(( agrambela )),,20,39.2166667,21.35
agrambela,,31,38.5833333,21.1666667
agrambela,,38,37.9333333,21.85
agrapha,,30,39.1372222,21.65
agrapidhia,,29,39.2,22.3333333
agrapidhokambos,,31,38.4,21.7333333
agrapidhokhori,,39,37.9,21.5333333
agrapidhokhorion,,39,37.9,21.5333333
agrapidhoula,,42,37.1166667,22.3833333
agrapidoula,,42,37.1166667,22.3833333
agras,855,07,40.805,22.0005556
agrelia,,22,39.7191667,21.9316667
agrelopon,,50,38.5822222,25.97
agrelopos,,50,38.4747222,26.1125
agria,5519,24,39.3333333,23.0166667
agriakambos,,42,36.45,22.4666667
agriakona,,41,37.3166667,22.2833333
agriana,,45,35.3166667,25.3666667
agriani,,01,41.2833333,26.2833333
agriani,,05,41.0833333,23.8333333
agrianoi,,42,37.1333333,22.5833333
agridhaiika,,38,38.2666667,22.05
agridhaki,,41,37.7166667,22.15
agridhakion,,41,37.7166667,22.15
agridheika,,38,38.2666667,22.05
agridhia,,44,35.3333333,24.85
agridhi,,31,39.0405556,21.2663889
agridhi,,38,38.0333333,22.25
agridhion,,31,39.0405556,21.2663889
agridhion,,38,37.9,22.0
agridhion,,39,37.6166667,21.5166667
agridhion,,41,37.7166667,22.15
agridi,,31,39.0405556,21.2663889
agridion,,31,39.0405556,21.2663889
agrilea,,42,36.65,22.4166667
agriles,,43,35.3,23.7833333
agrilia,,22,39.7191667,21.9316667
agrilia,,29,38.9333333,22.4
agrilia,,31,38.4,21.4333333
agrilia,,40,37.1,21.9666667
agrilia,,42,36.5833333,22.4666667
agrili,,40,37.2166667,21.6
agrilias,,27,38.45,20.55
agrilidhi,,39,37.6,21.9
agrilidhion,,39,37.6,21.9
agrilios,,27,38.45,20.55
agrillokhori,,24,39.2166667,22.6166667
agrilos,,20,39.0691667,21.0516667
agrilos,,40,37.1333333,22.0666667
agrilovounon,,40,37.3,21.95
agrinio,,31,38.6213889,21.4077778
agrinion,43526,31,38.6213889,21.4077778
agriolevka,,05,41.25,23.2833333
agriolevki,,05,41.25,23.2833333
agriosikai,,21,39.4166667,22.4333333
agriosikea,,27,38.6666667,23.7833333
agriosikia,,07,40.8413889,22.4975
agriosikia,,27,38.6666667,23.7833333
agriosikies,,21,39.4166667,22.4333333
agriosykea,,07,40.8413889,22.4975
agriovotanon,,34,39.0166667,23.3
agroilia,,40,37.1333333,22.0666667
agros,,25,39.7233333,19.7213889
agros,,49,37.4166667,24.9
agrosikea,,07,40.8413889,22.4975
agrosikea,,27,38.6666667,23.7833333
agrosikeai,,21,39.4166667,22.4333333
agrosikia,,27,38.6666667,23.7833333
agrosykea,,07,40.8413889,22.4975
agrosykia,,07,40.8413889,22.4975
agrotikai filakai stavronikita,,13,40.1166667,23.3333333
agulinitza,,39,37.6333333,21.5
agyia,,21,39.7177778,22.7636111
ahil,,08,40.7841667,21.0808333
ahill,,08,40.7841667,21.0808333
ahlajikoi,,01,41.2333333,25.9333333
ahmetaga,,41,37.45,22.45
aiandion,,35,37.9166667,23.4666667
aiani,2119,11,40.1666667,21.8166667
aiantion,3936,35,37.9166667,23.4666667
aidhinion,,24,39.25,22.75
aidhinion,,40,37.1,21.9666667
aidhipsos,,34,38.8833333,23.05
aidhipsou,,34,38.8833333,23.05
aidhon,,22,39.605,21.4675
aidhonia,,10,40.2,21.3166667
aidhonia,,19,39.2030556,20.6130556
aidhonia,,37,37.8333333,22.5833333
aidhonia,,49,37.75,24.95
aidhonion,,19,39.2636111,20.6038889
aidhonoi,,43,35.2833333,23.7666667
aidhonokastron,,14,41.2666667,24.4833333
aidhonokhori,,17,40.0522222,20.6019444
aidhonokhori,,23,39.0944444,21.97
aidhonokhorion,,05,40.85,23.7333333
aidhonokhorion,,17,40.0522222,20.6019444
aidhonokhorion,,23,39.0944444,21.97
aidhonokhorion,,44,35.3166667,24.9166667
aidon,,22,39.605,21.4675
aidonia,,19,39.2030556,20.6130556
aidonia,,20,39.2927778,21.4169444
aidoni,,19,39.2636111,20.6038889
aidonion,,19,39.2636111,20.6038889
aidonochori,,17,40.0522222,20.6019444
aidonochori,,23,39.0944444,21.97
aidonochorion,,17,40.0522222,20.6019444
aidonochorion,,23,39.0944444,21.97
aigaleo,72320,35,37.9833333,23.6833333
aigani,,21,39.9533333,22.6108333
aighion,,38,38.2486111,22.0819444
aigialos,,27,38.2541667,20.6513889
aigina,,35,37.7466667,23.4275
aiginio,,16,40.5013889,22.54
aiginion,,16,40.5013889,22.54
aigio,,38,38.2486111,22.0819444
aigion,,38,38.2486111,22.0819444
aigosthaina,,33,38.15,23.2333333
aigosthena,,33,38.15,23.2333333
aikaterini,,16,40.2719444,22.5025
aikirikos,,43,35.25,23.7833333
aikiryiannis,,43,35.4333333,23.7
ail,,08,40.7841667,21.0808333
ailias,,09,40.3666667,21.1833333
aimilianos,,10,39.9616667,21.4394444
aimonas,,44,35.3333333,24.8666667
aimonos,,44,35.3333333,24.8666667
aipatia,,49,37.75,24.9333333
aipia,,40,37.1,22.0333333
aira,,21,39.3833333,22.3333333
ai seris,,40,37.3166667,21.7333333
aisimi,,01,41.0166667,25.95
aitania,,45,35.2666667,25.2166667
aithaia,,40,37.1,22.05
aitolikon,4323,31,38.4333333,21.35
aivajik,,03,41.2166667,24.95
aivali,,21,39.35,22.6166667
aivation,,13,40.7452778,22.9786111
aivira,,38,38.15,22.35
aiyai,,38,38.1,22.3666667
aiyiali,,49,36.9,25.9833333
aiyialos,,27,38.2541667,20.6513889
aiyina,7823,35,37.7466667,23.4275
aiyinion,4275,16,40.5013889,22.54
aiyion,20665,38,38.2486111,22.0819444
aiyira,1666,38,38.15,22.35
aiyiros,,14,41.1166667,24.35
aiyition,,32,38.4833333,22.1666667
aiylnion,,16,40.5013889,22.54
ajios ahilios,,08,40.7841667,21.0808333
ajios athanasios,,25,39.7338889,19.7161111
ajios paraskevis,,06,41.2661111,22.8488889
akadhimi,,49,37.0666667,25.5
akadhimoi,,49,37.0666667,25.5
akakiai,,06,41.2472222,22.8072222
akakies,,06,41.2472222,22.8072222
akarpon,,03,41.1333333,24.9833333
ak-bunar,,15,40.3666667,23.2833333
akhadhokastron,,31,38.5833333,21.75
akhaikon,,38,38.1333333,21.6
akhapsi,,49,37.1166667,25.4166667
akharnai,82376,35,38.0833333,23.7333333
akhatzikia,,43,35.35,24.1666667
akhelinadha,,22,39.825,21.8711111
akhendria,,45,34.9833333,25.2166667
akhendrias,,45,34.9833333,25.2166667
akherousia,,19,39.2577778,20.5958333
akhil,,08,40.7841667,21.0808333
akhillio,,24,39.0333333,22.9666667
akhillion,,21,39.2666667,22.4166667
akhillion,,24,39.0333333,22.9666667
akhillion,,25,39.5644444,19.905
akhillion,,42,36.4333333,22.4833333
akhillion palace,,25,39.5644444,19.905
akhinos,,05,40.9166667,23.65
akhinos,898,23,38.9,22.7333333
akhira,,31,38.7833333,21.0333333
akhirokhorion,,01,41.5833333,26.5333333
akhiron,,51,39.2327778,26.2080556
akhirones,,29,38.9166667,22.65
akhladeri,,35,38.4833333,24.1666667
akhladha,,07,40.8666667,21.6166667
akhladha,,44,35.4,24.9833333
akhladhai,,43,35.45,24.0333333
akhladhaki,,46,35.3166667,25.65
akhladhea,,04,41.4,24.0166667
akhladhea,,09,40.2833333,21.2
akhladhea,,22,39.8358333,21.6091667
akhladhea,,23,39.2,22.1
akhladhea,,29,39.1666667,22.4166667
akhladhea,,38,38.2,22.0833333
akhladheai,,17,39.4522222,20.7727778
akhladhe,,44,35.4,24.7166667
akhladheri,,35,38.4833333,24.1666667
akhladhes,,44,35.4,24.7166667
akhladhia,,04,41.4,24.0166667
akhladhia,,23,39.2,22.1
akhladhia,,29,39.1666667,22.4166667
akhladhia,,38,38.2,22.0833333
akhladhia,,46,35.1666667,26.05
akhladhi,,09,40.2833333,21.2
akhladhi,,24,38.8833333,22.8166667
akhladhi,,34,38.9,23.4
akhladhi,,46,35.0333333,26.15
akhladhiakies,,43,35.2833333,23.7333333
akhladhias,,04,41.4,24.0166667
akhladhini,,39,37.7333333,21.7833333
akhladhion,,24,38.8833333,22.8166667
akhladhion,,34,38.9,23.4
akhladhokambos,,36,37.5166667,22.5833333
akhladhokambos,,42,36.8833333,22.9833333
akhladhokastron,,31,38.5833333,21.75
akhladhokhori,,40,36.9166667,21.9
akhladhokhorion,,05,41.3166667,23.55
akhladhokhorion,,07,40.8352778,22.3358333
akhladhokhorion,,22,39.6333333,22.0166667
akhladhokhorion,,40,36.9166667,21.9
akhladhomilea,,04,41.4166667,24.0
akhladhomilia,,04,41.4166667,24.0
akhladhomilies,,04,41.4166667,24.0
akhladokampo,,36,37.5166667,22.5833333
akhomavron,,31,38.65,21.55
akhomavros,,31,38.65,21.55
akhoumatou,,42,36.8,22.4833333
akhouria,,26,38.7166667,20.7333333
akhouria,,38,38.2,22.0833333
akhouria,,41,37.4666667,22.4333333
akhouria,,42,37.25,22.3333333
akhouria ayiou nikolaou,,18,39.7030556,20.3258333
akia,,42,36.5833333,22.4166667
akinjali,,06,41.2494444,22.7905556
akitsi,,24,39.2666667,22.75
akmanjali,,13,40.3833333,23.05
akoli,,38,38.1833333,21.95
akondion,,09,40.4919444,21.0411111
akondion,,33,38.5,22.8833333
akontio,,09,40.4919444,21.0411111
akontion,,09,40.4919444,21.0411111
akoumia,,44,35.1666667,24.5833333
akova,,36,37.6333333,22.6833333
akovitika,,40,37.0333333,22.0833333
akovo,,36,37.6333333,22.6833333
akovos,,40,37.2,22.1666667
akra,,41,37.4833333,22.4333333
akrai,,27,38.65,23.5833333
akraifnion,1195,33,38.45,23.2166667
akranea,,07,40.8966667,22.1494444
akrasion,,51,39.0263889,26.3077778
akrata,1833,38,38.15,22.3166667
akres,,27,38.65,23.5833333
akria,,45,35.0833333,25.0833333
akri,,21,39.9941667,21.9619444
akrini,1113,11,40.4333333,21.9
akrino,,21,39.7744444,22.5119444
akrinon,,21,39.7744444,22.5119444
akritas,,06,41.1469444,22.7444444
akritas,,08,40.8166667,21.3
akritokhori,,05,41.2666667,23.1833333
akritokhori,,40,36.8,21.8333333
akritokhorion,,05,41.2666667,23.1833333
akritokhorion,,40,36.8,21.8333333
akrolimni,1398,07,40.6791667,22.2638889
akrolimnion,,06,41.2275,22.79
akropotamia,,06,40.9275,22.9697222
akropotamia,,13,40.8388889,22.6461111
akropotamia,,20,39.0925,21.02
akropotamos,,13,40.8388889,22.6461111
akropotamos,,14,40.7833333,24.0333333
akropotamou,,14,40.7833333,24.0333333
akrosouvala,,27,38.6833333,23.7666667
akrotiri,,49,36.35,25.4
akrotirion,,49,36.35,25.4
akrotirion,,51,39.0666667,26.5666667
akrovo,,14,40.9,24.2166667
akrovouni,,14,40.9,24.2166667
akrovounion,,14,40.9,24.2166667
akroyialion,,42,36.4833333,22.5
ak-sakli,,11,40.2833333,21.9666667
aktaion,,34,38.15,24.35
aktaion,,37,38.1333333,22.4166667
aktoprak,,13,40.5833333,23.4333333
aktounda,,44,35.1833333,24.5333333
aladhinon,,49,37.8166667,24.8833333
aladhinou vounou,,49,37.8166667,24.8833333
alaerma,,47,36.15,27.95
alagni,,45,35.1833333,25.2166667
alagnion,,45,35.1833333,25.2166667
alagonia,,40,37.1166667,22.25
alai,,40,37.2333333,22.0166667
alaibei,,42,36.8833333,22.5666667
alaimbei,,42,36.85,22.6833333
alaimbeis,,42,36.8833333,22.5666667
alalkomenai,,33,38.4166667,22.9833333
alamania,,49,37.7666667,24.9333333
alamani,,37,37.85,22.9166667
alamannia,,49,37.7666667,24.9333333
alamannos,,37,37.85,22.9166667
alamanou,,37,37.85,22.9166667
alanli,,13,40.6333333,23.35
alari,,07,40.7891667,22.4583333
alataria,,20,39.1983333,21.3341667
alataries,,22,39.4577778,21.3194444
alatopetra,,10,40.0666667,21.2166667
alatra,,26,38.6833333,20.6666667
alatro,,26,38.6833333,20.6666667
alatron,,26,38.6833333,20.6666667
albani,,31,38.3666667,21.6666667
alchak,,06,41.1011111,22.4755556
alea,,41,37.45,22.4166667
alefaklar,,21,39.5666667,22.75
aleimmatades,,25,39.695,19.7263889
alepochori,,17,39.3619444,20.7061111
alepochorion,,17,39.3619444,20.7061111
alepochorion,,25,39.5566667,19.8713889
alepokhori,,35,38.0833333,23.1833333
alepokhori,,41,37.35,22.4
alepokhori,,42,36.95,22.7666667
alepokhorion,,17,39.3619444,20.7061111
alepokhorion,,25,39.5566667,19.8713889
alepokhorion,,32,38.5666667,22.0166667
alepokhorion,,38,37.9833333,21.8
alepokhorion,,41,37.35,22.4
alepokhorion,,42,36.95,22.7666667
alepokhorion botsari,,17,39.3619444,20.7061111
alepospita,,29,38.8333333,22.4166667
alepou,1640,25,39.6102778,19.8888889
alesia,,42,37.05,22.4333333
alestaina,,38,37.8833333,21.9833333
alestia,,30,38.8333333,21.5833333
aletraiika,,39,37.95,21.4166667
aletrouvari,,43,35.45,24.0333333
aletrouvarion,,43,35.45,24.0333333
alevradha,,30,38.9333333,21.4333333
alevrika,,46,35.2,25.7
alevrou,,42,37.1833333,22.3
alexandhra,,06,41.2491667,22.8177778
alexandhradhes,,35,36.2,23.0
alexandhros,,26,38.75,20.6833333
alexandhroupolis,,01,40.8475,25.8744444
alexandra,,06,41.2491667,22.8177778
alexandradhes,,35,36.2,23.0
alexandreia,,12,40.6266667,22.4441667
alexandria,13665,12,40.6266667,22.4441667
alexandros,,26,38.75,20.6833333
alexandroupoli,52978,01,40.8475,25.8744444
alexandroupolis,,01,40.8475,25.8744444
alexia,,06,41.1141667,22.8938889
alexi,,34,38.0833333,24.3333333
alexis,,34,38.0833333,24.3333333
alfa,,44,35.3666667,24.6666667
alfas,,44,35.3666667,24.6666667
alfios,,39,37.65,21.5
alfiousa,1067,39,37.65,21.5333333
alia,,24,39.15,22.75
aliaga,,41,37.3666667,22.15
aliartos,4275,33,38.3666667,23.1
ali bei,,20,39.085,20.9508333
alichelepi,,39,37.5666667,21.5833333
ali-chelepi,,39,38.0833333,21.3833333
alichelepi,,40,37.25,22.0
alifaka,,23,39.5666667,22.2166667
alifaka,,29,39.0833333,22.4166667
alifanda,,51,39.1,26.5166667
alifira,,39,37.5333333,21.85
alika,,41,37.4,22.25
alika,,42,36.4666667,22.4333333
alikambos,,43,35.35,24.2
alikanas,,28,37.85,20.7833333
alikanitaiika,,39,37.9833333,21.2666667
alikarnassos,,45,35.3333333,25.1666667
ali-khelepi,,40,37.1,21.9833333
aliki,,01,40.9,25.8333333
aliki,,14,40.6,24.75
aliki,,16,40.3633333,22.6244444
aliki,,20,39.0383333,21.0741667
aliki,,33,38.2,23.05
alikianos,,43,35.45,23.9166667
alikianou,,43,35.45,23.9166667
aliki dhomvrainis,,33,38.2,23.05
alikon,,01,41.2333333,25.9333333
alikutuzi,,40,37.1166667,21.7666667
alimaki,,40,37.2666667,21.7666667
alimakion,,40,37.2666667,21.7666667
alimia,,47,36.25,27.7166667
alimmatadhes,,25,39.695,19.7263889
alimnia,,47,36.25,27.7166667
alinda,,47,37.1666667,26.8333333
alinna,,47,36.25,27.7166667
alipayiana,,44,35.3833333,24.6833333
alipokhori,,25,39.5566667,19.8713889
alipos,,42,36.6166667,22.4833333
alisafi,,30,39.0091667,21.6955556
alissos,,38,38.1333333,21.5833333
alistrati,2965,05,41.0666667,23.95
alithini,,45,35.0166667,24.8833333
alitselepi,,39,37.5666667,21.5833333
ali tselepi,,39,38.0833333,21.3833333
ali tselepi,,40,37.25,22.0
alitsi,,21,39.5,22.65
alitzani,,45,35.1666667,25.25
aliverion,5184,35,38.4166667,24.0333333
aliyi,,43,35.35,23.6833333
aliyoi,,43,35.35,23.6833333
alkhani,,21,39.3666667,22.5166667
alkion,,39,37.6666667,21.3166667
alkioni,,03,41.0666667,24.9166667
alkomenai,,33,38.4166667,22.9833333
allexi,,34,38.0833333,24.3333333
alli meria,1189,24,39.3666667,22.9833333
allitzani,,45,35.1666667,25.25
alma,,03,41.2166667,24.8666667
almandar,,23,39.4166667,22.1666667
almandarion,,23,39.4166667,22.1666667
almbanis,,31,38.3666667,21.6666667
almiridha,,43,35.45,24.2
almiron,,40,37.0,22.15
almiropotamos,,35,38.2666667,24.1833333
almiros,7253,24,39.1822222,22.7594444
almiros,,40,37.0,22.15
almiros,,43,35.45,24.2
almyros,,24,39.1822222,22.7594444
aloidhai,,44,35.3666667,24.8833333
aloidhes,,44,35.3666667,24.8833333
aloisianika,,35,36.2666667,22.9666667
aloizianika,,35,36.2666667,22.9666667
alona,,08,40.7833333,21.3
alonai,,44,35.2333333,24.35
alonakia,,11,40.3166667,21.6666667
alonaki,,19,39.2077778,20.5066667
alonaki,,20,39.1980556,21.3444444
alonaki,,43,35.4166667,24.0333333
alonakion,,43,35.4166667,24.0333333
alonas,,08,40.7833333,21.3
alones,,35,37.7333333,23.5166667
alones,,44,35.2333333,24.35
alonia,,01,40.4666667,25.5
alonia,653,16,40.3944444,22.5416667
alonia,,20,39.2561111,21.3219444
alonia,,23,39.3372222,21.5216667
alonia,,35,38.4,24.1333333
alonia,,40,37.1333333,22.0166667
aloni,,20,39.4383333,21.1261111
alonion,,20,39.4383333,21.1261111
alonistaina,,41,37.6166667,22.2166667
alonnisos,,24,39.15,23.85
aloron,,07,40.9266667,22.0852778
aloros,,07,40.9266667,22.0852778
aloros,,12,40.5886111,22.5958333
aloutoyiannaiika,,41,37.3833333,22.65
alpokhori,,17,39.5377778,20.7786111
alpokhori,,32,38.5666667,22.0166667
alpokhori,,38,37.9833333,21.8
alpokhori,,39,37.7333333,21.3833333
alpokhori-botsari,,17,39.3619444,20.7061111
alpokhorion,,32,38.5666667,22.0166667
alpokhorion,,39,37.6166667,21.5166667
alpospita,,29,38.8333333,22.4166667
alsos,,38,38.25,21.9833333
altomira,,40,36.9666667,22.2333333
alt phaleron,,35,37.9333333,23.7
alvanitsa,,41,37.7,21.95
alvena,,39,37.5,21.7666667
alvina,,39,37.5,21.7666667
alyfanta,,51,39.1,26.5166667
alyki,,16,40.3633333,22.6244444
alyki,,20,39.0383333,21.0741667
alyki,,48,37.7191667,27.0002778
alysafi,,30,39.0091667,21.6955556
alyssus,,38,38.1333333,21.5833333
amades,,50,38.5725,26.0391667
amadhes,,50,38.5725,26.0391667
amaliada,,39,37.8,21.35
amaliapoleos,,24,39.1666667,22.8833333
amaliapoli,,24,39.1666667,22.8833333
amalias,19580,39,37.8,21.35
amaliota,,23,38.8833333,22.2166667
amalo,,48,37.55,26.0
amalon,,48,37.55,26.0
amalota,,23,38.8833333,22.2166667
amaniou,,47,36.8452778,27.1719444
amaranda,,02,41.05,25.5
amaranda,,06,41.1861111,22.8094444
amarandon,,22,39.7005556,21.3880556
amarandos,,17,40.1583333,20.7288889
amaranta,,06,41.1861111,22.8094444
amaranto,,22,39.7005556,21.3880556
amaranton,,22,39.7005556,21.3880556
amarantos,,17,40.1583333,20.7288889
amarantos,,23,39.2102778,21.8602778
amari,,44,35.2211111,24.6430556
amariana,,45,35.1833333,25.3666667
amarianon,,45,35.1833333,25.3666667
amarianous,,31,38.8666667,21.3666667
amarinthos,4360,34,38.4,23.8833333
amarion,,44,35.2211111,24.6430556
amarlar,,21,39.5833333,22.3
amarlar,,23,39.2,22.1
amarousion,72310,35,38.05,23.8
amathes,,50,38.5725,26.0391667
amatovon,,06,40.8991667,22.6222222
amaxadhes,,03,41.1166667,25.0666667
ambalia,,30,38.6666667,21.7333333
ambares,,30,39.0002778,21.5547222
ambari,,39,37.6833333,21.7833333
ambarion,,39,37.6833333,21.7833333
ambela,,27,38.1166667,20.75
ambelakia,,01,41.4833333,26.4
ambelakia,,04,41.1166667,24.1
ambelakia,,21,39.8538889,22.5561111
ambelakia,4671,35,37.9513889,23.5275
ambelaki,,04,41.1166667,24.1
ambelaki,,31,38.9166667,21.2166667
ambelaki,,35,37.9513889,23.5275
ambelaki,,41,37.3833333,22.3
ambelaki,,44,35.2833333,24.4833333
ambelakion,,31,38.9166667,21.2166667
ambelakion,,41,37.3833333,22.3
ambelakion,,44,35.2833333,24.4833333
ambelakiotissa,,30,38.6166667,21.8833333
ambelas,,27,38.1166667,20.75
ambelia,,17,39.5655556,20.8336111
ambelia,,18,39.4266667,20.4325
ambelia,,20,39.2258333,20.9288889
ambelia,,21,39.3166667,22.5
ambelia,,22,39.6938889,21.5183333
ambelia,,30,39.0119444,21.7830556
ambelia,,31,38.8166667,21.4666667
ambeliai,1070,07,40.8336111,22.3786111
ambeli,,30,38.9833333,21.4333333
ambelies,,07,40.8336111,22.3786111
ambeliko,,51,39.05,26.3166667
ambelikon,,23,39.2775,21.8563889
ambelikon,,51,39.05,26.3166667
ambeliona,,39,37.4333333,21.95
ambelion,,30,38.9833333,21.4333333
ambelofiton,,40,37.05,21.7
ambeloi,1118,06,41.0,23.3666667
ambelokambos,,39,37.8333333,21.3
ambelokhori,,17,39.5280556,21.0294444
ambelokhori,,22,39.7566667,21.3336111
ambelokhori,,33,38.3,23.2666667
ambelokhorion,,09,40.4333333,21.2666667
ambelokhorion,,17,39.5280556,21.0294444
ambelokhorion,,22,39.7566667,21.3336111
ambelokhorion,,33,38.3,23.2666667
ambelokipoi,,04,41.15,24.15
ambelokipoi,,09,40.4666667,21.3
ambelokipoi,1218,28,37.7666667,20.8666667
ambelokipoi,,38,38.1,22.3166667
ambelokipoi,,40,36.9166667,21.8333333
ambelon,5961,21,39.75,22.3666667
ambelon,,23,39.4166667,22.1666667
ambelon,,35,38.1833333,24.0333333
ambelosalesi,,33,38.3,23.2666667
ambelos,,23,39.2833333,22.05
ambelos,,38,38.1333333,22.3333333
ambelos,,43,34.85,24.05
ambelos,,48,37.8011111,26.8033333
ambelouzos,,45,35.0666667,24.9333333
ambliani,,29,38.8833333,22.4333333
ambliani,,30,38.75,21.9166667
ambonus,,47,36.2166667,27.8666667
amelanda,,34,38.8666667,23.3666667
amelandai,,34,38.8666667,23.3666667
amelandes,,34,38.8666667,23.3666667
amfia,,02,41.0833333,25.6166667
amfia,,40,37.1166667,22.0666667
amfiklia,3674,33,38.6333333,22.5833333
amfilochia,,31,38.8594444,21.1663889
amfilokhia,4023,31,38.8594444,21.1663889
amfipolis,,05,40.8333333,23.85
amfissa,6854,32,38.525,22.3730556
amfithea,,17,39.6894444,20.8711111
amfithea,,20,39.1325,21.0366667
amfithea,,34,38.55,23.7833333
amfithea,,37,38.05,22.5333333
amfitriti,,01,40.9,25.9166667
amigdhala,,11,40.45,21.8333333
amigdhala,,46,35.2166667,25.6
amigdhalea,,11,40.25,21.9
amigdhalea,,18,39.5333333,20.4666667
amigdhalea,,21,39.65,22.2666667
amigdhalea,,32,38.4166667,22.2166667
amigdhalea,,34,38.1166667,24.5833333
amigdhalea,,38,37.85,22.3166667
amigdhalea,,41,37.0833333,22.9
amigdhalea,,46,35.3333333,25.6333333
amigdhaleai,,10,40.15,21.3666667
amigdhaleai,,39,37.5,21.85
amigdhaleon,,14,40.9666667,24.3666667
amigdhaleonas,,14,40.9666667,24.3666667
amigdhalia,,11,40.25,21.9
amigdhalia,,32,38.4166667,22.2166667
amigdhalia,,34,38.1166667,24.5833333
amigdhalia,,41,37.0833333,22.9
amigdhalia,,46,35.2166667,25.6
amigdhali,,21,39.6,22.7166667
amigdhali,,23,39.3869444,21.7075
amigdhali,,39,37.8333333,21.7666667
amigdhalias,,11,40.25,21.9
amigdhalies,,10,40.15,21.3666667
amigdhalies,,39,37.5,21.85
amigdhalitsa,,36,37.6833333,22.8333333
amigdhaloi,,46,35.2166667,25.6
amigdhalokefali,,43,35.3666667,23.5666667
amigdhalokefalion,,43,35.3666667,23.5666667
amigdhalon,,24,39.15,22.7166667
amigdhalos,,46,35.2166667,25.6
amiklai,,42,37.0333333,22.4333333
amindaion,,07,40.6833333,21.6833333
amira,,45,35.05,25.45
amiras,,45,35.05,25.45
amisiana,1293,14,40.9333333,24.35
amisinon,,14,41.3166667,24.5833333
ammokhorion,1192,08,40.7833333,21.4833333
ammolokhos,,49,37.9333333,24.7666667
ammos,,12,40.5016667,22.2544444
ammos,,20,39.3077778,21.0222222
ammos,,25,39.8436111,19.4097222
ammos,,40,37.1,22.0
ammos meryion,,49,37.3833333,24.4
ammotopos,,20,39.2711111,20.9422222
ammoudari,,43,35.2833333,24.1833333
ammoudarion,,43,35.2833333,24.1833333
ammoudhara,,09,40.4166667,21.2833333
ammoudharai,,46,35.0,25.6333333
ammoudhares,,46,35.0,25.6333333
ammoudhari,,43,35.2833333,24.1833333
ammoudharion,,43,35.2833333,24.1833333
ammoudheron,,40,37.1166667,21.8333333
ammoudhia,,05,41.15,23.3333333
ammoudhia,,19,39.2388889,20.4827778
ammoudhia,,22,39.5316667,21.6866667
ammoudia,,19,39.2388889,20.4827778
ammoudia,,22,39.5316667,21.6866667
ammouliani,,15,40.3333333,23.9166667
ammovounon,,01,41.5833333,26.2833333
amnatos,,44,35.3333333,24.6166667
amoliani,,15,40.3333333,23.9166667
amolokhos,,49,37.9333333,24.7666667
amonaklios,,49,37.75,24.95
amonakliou,,49,37.75,24.95
amorani,,31,38.5166667,21.9166667
amorgos,,49,36.8333333,25.9
amorion,,01,41.3,26.4333333
amoryianoi,,31,38.8666667,21.3666667
amoudhara,,09,40.4166667,21.2833333
amoudhari,,43,35.2833333,24.1833333
amouri,,21,39.7833333,22.0833333
amouri,,29,38.9,22.3333333
amourion,,21,39.7833333,22.0833333
amourion,,29,38.9,22.3333333
amouryeles,,45,35.1333333,25.1833333
amouryellai,,45,35.1333333,25.1833333
amouryieles,,45,35.1333333,25.1833333
amouryiellai,,45,35.1333333,25.1833333
ampares,,30,39.0002778,21.5547222
ampelakia,,17,39.7044444,21.0647222
ampelakia,,21,39.8538889,22.5561111
ampelakia,,35,37.9513889,23.5275
ampeleia,,17,39.5655556,20.8336111
ampeleiai,,07,40.8336111,22.3786111
ampeleies,,07,40.8336111,22.3786111
ampelia,,17,39.7630556,21.0563889
ampelia,,18,39.4266667,20.4325
ampelia,,20,39.2258333,20.9288889
ampelia,,22,39.6938889,21.5183333
ampelia,,30,39.0119444,21.7830556
ampeliko,,23,39.2775,21.8563889
ampelikon,,23,39.2775,21.8563889
ampelikon,,51,39.05,26.3166667
ampelochori,,17,39.5280556,21.0294444
ampelochori,,22,39.7566667,21.3336111
ampelochorion,,17,39.5280556,21.0294444
ampelochorion,,22,39.7566667,21.3336111
ampelon,,13,40.7327778,22.5894444
ampelon,,18,39.7438889,20.3416667
ampelonas,,18,39.7438889,20.3416667
ampelos,,43,34.85,24.05
ampelos,,48,37.8011111,26.8033333
amvlota,,23,38.8833333,22.2166667
amvrakia,,30,38.6666667,21.7166667
amvrosia,,02,41.0833333,25.2333333
(( amygdalea )),,18,39.5333333,20.4666667
amygdali,,23,39.3869444,21.7075
anabakli,,21,39.2833333,22.55
anafi,,49,36.35,25.7666667
anafonitria,,28,37.85,20.65
anakion,,02,40.9833333,25.3
analipis,,43,35.5,23.7
analipsi,,25,39.6033333,19.925
analipsis,,21,39.8333333,22.0333333
analipsis,,25,39.7011111,19.8222222
analipsis,,31,38.5,21.7
analipsis,,33,38.4166667,22.8333333
analipsis,,35,37.6666667,24.0333333
analipsis,,39,37.8,21.4333333
analipsis,,40,37.0166667,21.9666667
analipsis,,43,35.25,23.6833333
analipsis,1259,46,35.3166667,25.5666667
anapaftiria,,25,39.7833333,19.8825
anapavtiria,,25,39.7833333,19.8825
anaphi,,49,36.35,25.7666667
anaplades,,25,39.4222222,20.0463889
anapladhes,,25,39.4222222,20.0463889
anapolis riza,,43,35.2166667,24.1
anargyroi,,17,39.6655556,20.7119444
anarrakhi,1147,11,40.4833333,21.5666667
anaryiroi,,11,40.6,21.6166667
anaryiroi,,17,39.6655556,20.7119444
anaselitsa,,11,40.2666667,21.55
anastasia,,05,41.0666667,23.8166667
anastasis,,38,37.9,22.0
anastasopoulaiika,,36,37.65,23.0833333
anastasopouleika,,36,37.65,23.0833333
anastasova,,38,37.9,22.0
anastasova megali,,40,37.15,22.2333333
anastasova mikra,,40,37.1,22.25
anatoli,,05,41.2583333,22.9266667
anatoli,,11,40.2333333,21.9
anatoli,6422,17,39.6388889,20.8652778
anatoli,,20,39.4397222,21.0491667
anatoli,,21,39.75,22.7
anatoli,,30,38.7666667,22.1333333
anatoli,,46,35.05,25.6333333
anatoliki,,17,39.6252778,21.0402778
anatoliki frangista,,30,38.9666667,21.6166667
anatoliko,,13,40.6630556,22.7113889
anatolikon,959,11,40.55,21.75
anatolikon,2583,13,40.6630556,22.7113889
anatolikon,,40,36.95,22.25
anatolikos frangista,,30,38.9666667,21.6166667
anatolou,,05,41.2583333,22.9266667
anavatos,,50,38.4019444,26.0191667
anavissos,8459,35,37.7333333,23.95
anavra,,21,39.6833333,22.7
anavra,1024,23,39.0666667,22.55
anavra,,29,38.7833333,22.5833333
anavrita,,10,40.0666667,21.2833333
anavriti,,31,38.5333333,21.9
anavriti,,42,37.0333333,22.3666667
anavriton,,06,41.05,23.05
anavriton,,41,37.3333333,22.2333333
anavryti,,42,37.0333333,22.3666667
anayennisis,990,05,41.1166667,23.3333333
anaziri,,39,37.6,21.8833333
anaziri,,40,37.1166667,21.9666667
anazogli,,40,36.9,21.85
anchialos,,13,40.7144444,22.7794444
anda,,34,38.05,24.5333333
andartikon,,08,40.7666667,21.2
andas,,14,41.1333333,24.7
andemaki,,47,36.8108333,27.0997222
anderas,,29,38.8166667,22.6833333
andhania,,40,37.2666667,21.9833333
andhravasisa,,46,35.3166667,25.6166667
andhriolata,,27,38.15,20.7333333
andhritsa,,41,37.4666667,22.6166667
andhritsaina,,39,37.4827778,21.9077778
andhromiloi,,46,35.0833333,26.0333333
andhroni,,39,37.8,21.7166667
andhronianoi,,34,38.6166667,24.05
andia,,34,38.05,24.5333333
andias,,34,38.05,24.5333333
andifilippoi,,14,40.95,24.2166667
andigonia,,06,41.1255556,22.8741667
andigonon,,12,40.65,21.7666667
andigonos,,12,40.65,21.7666667
andikalamos,,40,37.0666667,22.0666667
andikira,,33,38.3833333,22.6333333
andimakhia,,47,36.8108333,27.0997222
andiparos,,49,37.0333333,25.0833333
andipata,,27,38.3166667,20.5666667
andipata erisou,,27,38.4666667,20.55
andipaxos,,25,39.1530556,20.2236111
andiperni,,25,39.7741667,19.7411111
andipernoi,,25,39.7741667,19.7411111
andirrion,,31,38.3333333,21.7666667
andiskarion,,46,34.9666667,24.8833333
andissa,,51,39.2333333,25.9833333
andonaiika,,20,39.1308333,21.2033333
andonis,,31,38.8666667,21.0
andoyiali,,42,36.4833333,22.5
andravida,3626,39,37.9,21.2666667
andravidha,,39,37.9,21.2666667
andreas,,20,39.3483333,21.0602778
andria,,20,39.3483333,21.0602778
andriolata,,27,38.15,20.7333333
andritsa,,41,37.4666667,22.6166667
andritsaena,,39,37.4827778,21.9077778
andritsaina,,39,37.4827778,21.9077778
andrivista,,31,38.5666667,21.9166667
andrivitsa,,31,38.5666667,21.9166667
(( andriyias )),,20,39.25,21.05
andromachi,,16,40.27,22.4783333
andromiloi,,46,35.0833333,26.0333333
andronianoi,,34,38.6166667,24.05
andronion,,39,37.8,21.7166667
andros,1556,49,37.8333333,24.9333333
androusa,,40,37.1166667,21.9333333
andrusa,,40,37.1166667,21.9333333
andrvida,,39,37.9,21.2666667
andzik,,19,39.0919444,20.7008333
anefi,,36,37.6666667,22.7833333
anemas,,31,38.8166667,20.75
anemodhouri,,41,37.3666667,22.2166667
anemodhourion,,41,37.3666667,22.2166667
anemogiannatika,,25,39.2180556,20.1563889
anemokhoraki,,39,37.6166667,21.7
anemokhorakion,,39,37.6166667,21.7
anemokhori,,39,37.6,21.55
anemokhorion,,39,37.6,21.55
anemomilos,,25,39.6088889,19.9266667
anemomilos,,40,37.1333333,22.0
anemomylos,,25,39.6088889,19.9266667
anemorrachi,,20,39.3116667,21.0786111
anemorrakhi,,20,39.3116667,21.0786111
anemotia,,51,39.25,26.1
anemoyiannatika,,25,39.2180556,20.1563889
anemoyianniatika,,25,39.2180556,20.1563889
anerantza,,49,37.0166667,25.1833333
anerantzia,,49,37.0166667,25.1833333
aneratza,,49,37.0166667,25.1833333
aneratzia,,49,37.0166667,25.1833333
anertitzas,,49,37.0166667,25.1833333
anestaion,,35,37.7,23.5
anestias,,14,40.9833333,24.5
anevato,,46,35.2166667,26.2666667
aneza,1197,20,39.0866667,20.9233333
angairia,,49,37.0,25.1666667
angamandia,,47,35.6833333,27.15
angariones,,51,39.9,25.1833333
angathia,,12,40.5558333,22.4708333
angathi,,46,35.2,26.2666667
angathias,,46,35.2,26.2666667
angeliana,,44,35.3833333,24.6833333
angelochori,,12,40.6783333,22.1991667
angelochori,,13,40.4972222,22.8344444
angelochorion,,12,40.6783333,22.1991667
angelochorion,,13,40.4972222,22.8344444
angelokastro,,31,38.5666667,21.3
angelokastro,,37,37.75,23.0
angelokastron,1614,31,38.5666667,21.3
angelokastron,,37,37.75,23.0
angelokhori,,13,40.4972222,22.8344444
angelokhorion,1526,12,40.6783333,22.1991667
angelokhorion,991,13,40.4972222,22.8344444
angelona,,42,36.75,22.9666667
angelopoulou,,33,38.45,22.8166667
angeriko,,48,37.6147222,26.2944444
angerikos,,28,37.7833333,20.8333333
angia,,29,39.1,22.2
angiadhaki,,42,36.5666667,22.4
angiadhakion,,42,36.5666667,22.4
angiai,,23,39.0833333,22.15
angiai,,29,39.1,22.2
angidhia,,49,37.1,25.4
angies,,29,39.1,22.2
angilona,,42,36.75,22.9666667
angista,,05,40.9833333,23.9666667
angistri,,35,37.7166667,23.35
angistrion,,35,37.7166667,23.35
angistron,,05,41.3833333,23.45
angitis,,05,41.2166667,23.9
ango mahala,,05,41.0166667,23.4666667
angon,,27,38.3,20.4833333
angonas,,42,36.65,22.5
angouria kalivia,,38,37.85,22.15
angouseliana,,44,35.25,24.4333333
aniadha,,30,38.8333333,21.8
anidhroi,,43,35.25,23.7166667
anidhron,,06,40.8797222,22.4138889
anidhron,,07,40.8352778,22.2027778
anidhron,,23,38.9166667,22.7
anidhron,,40,37.2,21.8
anidhros,,06,40.8797222,22.4138889
anifi,,36,37.6666667,22.7833333
anifion,922,36,37.6666667,22.7833333
anifora,,30,39.1116667,21.5908333
aniforeika,,38,38.15,21.5166667
anilio,,17,39.76,21.1877778
anilion,,17,39.76,21.1877778
anilion,,24,39.4166667,23.1333333
anilion,,39,37.45,21.6833333
animborio,,34,38.1166667,24.2166667
aninou,,31,39.0775,21.0897222
anioryitika,,41,37.5,22.4833333
anisarakion,,43,35.3333333,23.7666667
anitsaion,,35,37.7,23.5
ankhialos,,13,40.7144444,22.7794444
ankhialos makedhonias,,13,40.7144444,22.7794444
ankouria,,38,37.85,22.2166667
annimata,,27,38.1166667,20.7833333
anninata,,27,38.1166667,20.7833333
anninou,,31,39.0775,21.0897222
ano aetos,,34,38.0166667,24.45
ano afroxilia,,31,38.45,21.8
ano agali,,41,37.8,22.2833333
ano agalis,,41,37.8,22.2833333
ano agioi anargyroi,,20,39.145,21.0233333
ano agios ioannis,,16,40.3175,22.4947222
ano agios konstantinos,,48,37.8027778,26.8122222
ano agoriani,,29,39.1166667,22.2
ano agoriani,,33,38.6,22.5
ano aiyialos,,38,38.1166667,22.3833333
ano akhaia,,38,38.1166667,21.5666667
ano akria,,45,35.0666667,25.0833333
ano alepokhori,,35,38.0833333,23.2166667
ano alepokhorion,,35,38.0833333,23.2166667
ano alissos,,38,38.1333333,21.5833333
ano almiri,,37,37.8333333,23.0166667
ano amfia,,40,37.1,22.0666667
ano anavriton,,41,37.3333333,22.2333333
ano apostoloi,,06,40.9019444,22.7997222
ano apostoloi,,45,35.2166667,25.3
ano arfara,,40,37.1666667,22.1333333
ano arkhanai,,45,35.2333333,25.1666667
ano arkhanes,,45,35.2333333,25.1666667
ano aroi,,38,38.25,21.75
ano aryilokhorion,,24,39.2166667,22.6166667
ano asitai,,45,35.2,25.0
ano asitais,,45,35.2,25.0
ano asites,,45,35.2,25.0
ano astrakoi,,45,35.2333333,25.2166667
ano ayia marina,,38,37.95,21.7166667
ano ayia paraskevi,,06,41.2661111,22.8488889
ano ayios ioannis,,16,40.3175,22.4947222
ano ayios vlasios,,30,38.8,21.5166667
ano belesi,,41,37.7,22.4833333
ano botinon,,31,38.5,21.5833333
ano boularioi,,42,36.5,22.4166667
ano boularyoi,,42,36.5,22.4166667
ano bourlesia,,31,38.5166667,21.55
ano boursiani,,22,39.7258333,21.7922222
ano brallos,,29,38.7333333,22.45
ano bralos,,29,38.7333333,22.45
ano chahmati,,21,39.3166667,22.3166667
(( ano chalasmata )),,19,39.3422222,20.7955556
ano chalikas,,51,39.0833333,26.55
ano chorion,,25,39.7797222,19.515
ano davyia,,41,37.55,22.2833333
ano derekli,,21,39.3,22.5
ano derengli,,21,39.3,22.5
ano despotikon,,19,39.2055556,20.6691667
ano dhafni,,31,38.4166667,21.8666667
ano dhafnoudhi,,05,41.0833333,23.75
ano dhamasta,,29,38.8,22.4666667
ano dhaton,,14,40.9666667,24.3333333
ano dhavia,,41,37.55,22.2833333
ano dherekli,,21,39.3,22.5
ano dherenglion,,21,39.3,22.5
ano dhespotiko,,19,39.2055556,20.6691667
ano dhespotikon,,19,39.2055556,20.6691667
ano dhiakopton,,38,38.1333333,22.2333333
ano dhiminio,,37,38.0333333,22.7166667
ano dhio vouna,,29,38.7833333,22.3666667
ano dholiana,,41,37.3833333,22.5
ano dholoi,,40,36.9333333,22.1666667
ano dhorion,,39,37.35,21.85
ano dhranista,,23,39.1166667,22.1
ano dhrimalaiika,,39,37.9666667,21.55
ano dhrimon,,31,38.65,21.65
ano dhrosini,,02,41.2,25.5833333
ano doumina,,41,37.4166667,22.5833333
ano drosini,,02,41.2,25.5833333
ano drymon,,19,39.3327778,20.8852778
ano duvlatan,,21,39.3333333,22.55
ano esokhoria,,30,38.75,21.6166667
ano evinokhorion,,31,38.3666667,21.5333333
ano exanthia,,26,38.75,20.6166667
ano fanari,,35,37.5833333,23.2333333
ano fanarion,,35,37.5833333,23.2333333
ano fortesa,,45,35.3,25.15
ano fortetsa,,45,35.3,25.15
ano frastaina,,05,41.2,23.5833333
ano fteria,,09,40.5091667,21.055
ano fteri,,30,38.8833333,22.05
ano fterias,,09,40.5091667,21.055
ano garantza,,39,37.35,21.95
ano gardhenitsa,,42,36.5333333,22.4
ano garefeio,,07,41.0336111,22.045
ano garefeion,,07,41.0336111,22.045
ano garefi,,07,41.0336111,22.045
ano garefion,,07,41.0336111,22.045
ano garouna,,25,39.5486111,19.8694444
ano gatzea,,24,39.3166667,23.1
ano gavalou,,31,38.5166667,21.5333333
ano gavrion,,49,37.9,24.7333333
anogeia,,44,35.2833333,24.8833333
anogeiata,,20,39.2472222,20.8763889
anogeio,,19,39.3730556,20.9411111
anogeion,,19,39.3730556,20.9411111
anoghia,,44,35.2833333,24.8833333
anogia,,44,35.2833333,24.8833333
ano girbas,,06,41.2625,22.8388889
ano glikovrisi,,42,36.8333333,22.8
ano goumenitsa,,38,38.0666667,22.0333333
ano graikiko,,20,39.425,21.0591667
ano graikikon,,20,39.425,21.0591667
ano grammatikon,,07,40.7,21.9333333
ano idhrousa,,08,40.7,21.4666667
ano idhroussa,,08,40.7,21.4666667
ano ilia,,34,38.85,23.1166667
anoinata,,27,38.1166667,20.7833333
ano ionikon,,14,41.25,24.6333333
ano iraklion,,35,38.0666667,23.7666667
anoixia,,13,40.7666667,23.45
anoixi,,10,39.9105556,21.5655556
anoixiatikon,,31,38.9666667,21.1666667
anoixis,,10,39.9105556,21.5655556
anoixis,6482,35,38.1333333,23.85
ano kaberler,,01,41.2666667,25.9166667
ano kalamaki,,21,39.5666667,22.75
ano kalendini,,20,39.25,21.1852778
ano kalentini,,20,39.25,21.1852778
ano kalesa,,45,35.2833333,25.0666667
ano kalesia,,45,35.2833333,25.0666667
ano kalesmenon,,30,38.9,21.7166667
ano kalivia,,33,38.6666667,22.5666667
ano kalivia,,41,37.7666667,22.0833333
ano kalivia filion,,38,37.8333333,22.1
ano kalliniki,,08,40.8666667,21.45
ano kallithea,,30,38.8833333,22.1
ano kalon neron,,40,37.3,21.7166667
ano kamari,,37,38.1,22.5666667
ano kamarion,,37,38.1,22.5666667
ano kambia,,30,38.8666667,22.0333333
ano kambi,,01,41.2666667,25.9166667
ano kamila,,05,41.0666667,23.4333333
ano kanalia,,30,38.8666667,21.9666667
ano kaniani,,32,38.7,22.35
ano karajakoi,,05,41.0666667,23.4
ano kardhamos,,02,41.2833333,25.6166667
ano karea,,42,36.7333333,22.4166667
ano karia,,31,38.4666667,21.95
ano karia,,39,37.4333333,22.0
ano kariai,,39,37.4333333,22.0
ano kariofiton,,14,41.2666667,24.6666667
ano karitsa,,30,38.8,21.7333333
ano karnezaiika,,36,37.5,23.0666667
ano karnezeika,,36,37.5,23.0666667
ano karouzana,,45,35.2333333,25.3666667
ano karyes,,20,39.2772222,21.3433333
ano kastanea,,42,36.55,23.1
ano kastania,,42,36.55,23.1
ano kastelliana,,45,35.0333333,25.25
ano kastritsion,1003,38,38.2666667,21.8333333
ano katelios,,27,38.0833333,20.75
ano kefala,,43,35.4333333,23.7833333
ano kefalarion,,14,41.05,24.2666667
ano kerasea,,24,39.4833333,22.95
ano kerasia,,24,39.4833333,22.95
ano kerasovon,,31,38.4833333,21.45
ano khalasmata,,19,39.3422222,20.7955556
ano khalikas,,51,39.0833333,26.55
ano kharvati,,35,38.0,23.8833333
ano khionokhoron,,05,41.1166667,23.65
ano khlamoriani,,30,38.75,22.1666667
ano khomondhos,,05,41.0833333,23.4666667
ano khora,,31,38.6,21.9333333
anokhori,,21,39.3166667,22.3166667
ano khorio,,46,35.05,25.8
anokhorion,,21,39.3166667,22.3166667
ano khorion,,25,39.7797222,19.515
ano khouni,,41,37.0666667,22.85
ano khovoli,,38,37.8666667,22.0166667
ano khrisovitsa,,31,38.5666667,21.7
ano khristos,,05,41.1166667,23.4666667
ano klinai,,08,40.85,21.3833333
ano klitoria,,38,37.9,22.0833333
ano kollinai,,41,37.2833333,22.3666667
ano komi,1547,11,40.2333333,21.8333333
ano konstandinia,,14,41.1,24.6
ano kontogoni,,40,37.0666667,21.7833333
ano kopanaki,,40,37.2833333,21.8166667
ano kopanakion,,40,37.2833333,21.8166667
ano kopanitsa,,39,37.4666667,21.8
ano kopanos,,12,40.6336111,22.1302778
ano korakiana,837,25,39.7077778,19.7916667
ano korikani,,19,39.2844444,20.6677778
ano koritiani,,19,39.2844444,20.6677778
ano korthion,,49,37.7666667,24.9333333
ano kotsanopoulo,,19,39.2269444,20.7138889
ano kotsanopoulon,,19,39.2269444,20.7138889
ano kottori,,08,40.7,21.4666667
ano koudhouni,,31,38.4333333,21.5166667
ano koudhounion,,31,38.4333333,21.5166667
(( ano koufalia )),,13,40.7819444,22.5791667
ano kourounion,,34,38.5833333,24.0833333
ano kourtaga,,41,37.3166667,22.0833333
ano kranionas,,09,40.6166667,21.2166667
ano kremmidhia,,40,36.9833333,21.7833333
ano ktimeni,,23,39.1166667,22.1
ano kurtaga,,41,37.3166667,22.0833333
ano lapsista,,17,39.7397222,20.7633333
ano lefkimmi,,25,39.4244444,20.0616667
ano leika,,40,37.0666667,22.0833333
ano lekhonia,1214,24,39.3333333,23.05
ano lendekadha,,40,37.2166667,21.7166667
ano levkadhion,,14,41.05,24.5833333
ano levki,,09,40.5333333,21.2166667
ano liosia,28529,35,38.0833333,23.7
(( ano lipochorion )),,07,40.7608333,22.1544444
ano lipokhorion,,07,40.7608333,22.1544444
ano lithochorion,,30,39.1441667,21.5072222
ano livera,,14,41.1333333,24.7
ano loukavitsa,,39,37.8666667,21.5
ano lousoi,,38,38.0,22.1333333
ano loutraki,,44,35.25,24.9833333
ano loutro,,37,38.1,22.5333333
ano loutron,,37,38.1,22.5333333
ano makrinou,,31,38.4666667,21.6166667
ano malakion,,44,35.2833333,24.4166667
ano malataiikon,,31,38.8166667,21.3833333
ano malateikon,,31,38.8166667,21.3833333
ano mamakon,,31,38.3666667,21.7166667
ano mammako,,31,38.3666667,21.7166667
ano mamoula,,34,38.4333333,23.9
ano manolas,,39,38.0333333,21.3666667
ano mathrakion,,25,39.7644444,19.5283333
ano mavrikion,,38,38.15,22.0333333
ano mavrolofos,,24,39.2333333,22.6666667
ano mazaraki,,38,38.1333333,21.9833333
ano mazarakion,,38,38.1333333,21.9833333
ano megali ada,,02,41.2666667,25.5333333
ano megali adha,,02,41.2666667,25.5333333
ano melas,,08,40.7166667,21.2666667
ano melpia,,39,37.35,21.95
ano mera,1611,49,37.45,25.4
anomeria,,27,38.3333333,20.55
ano meria,,49,36.65,24.8833333
ano meros,,44,35.1833333,24.6666667
ano metapa,,31,38.5166667,21.55
ano militsa,,40,36.8666667,21.8333333
ano minayia,,40,36.9166667,21.8333333
ano mirtia,,31,38.5833333,21.6166667
ano mistros,,34,38.55,23.9
ano mitikas,,02,41.2666667,25.4666667
ano mitrousi,,05,41.0833333,23.4666667
ano mitrousion,,05,41.0833333,23.4666667
ano mitrousis,,05,41.0833333,23.4666667
ano moulia,,45,35.1166667,25.0
ano mousiotitsa,,17,39.4133333,20.8219444
ano mousonitsa,,32,38.7,22.1833333
ano mousounitsa,,32,38.7,22.1833333
ano mousoura,,31,38.45,21.4
ano mousouroi,,31,38.45,21.4
ano nevoliani,,08,40.7666667,21.4
ano nuska,,05,41.0833333,23.75
ano orfana,,23,39.4,22.2166667
ano orini,,05,41.2,23.5833333
ano palaeoxari,,32,38.4833333,22.05
ano palaiokaria,,22,39.4155556,21.4883333
ano palaiokarya,,22,39.4155556,21.4883333
ano palaiokastro,,43,35.45,23.65
ano palaioxari,,32,38.4833333,22.05
ano palaioxarion,,32,38.4833333,22.05
ano paliokaria,,22,39.4155556,21.4883333
ano paliokarya,,22,39.4155556,21.4883333
ano paliozoglopi,,23,39.2180556,21.8272222
(( ano paliozoglopi )),,23,39.2194444,21.8188889
ano papratskon,,09,40.5091667,21.055
ano paradhision,,31,38.4333333,21.6
ano pavliana,,25,39.52,19.8572222
ano pedhina,,17,39.8797222,20.7075
ano pedina,,17,39.8797222,20.7075
ano perliango,,22,39.6083333,21.5
ano petali,,49,36.9833333,24.7333333
ano petalion,,49,36.9833333,24.7333333
ano petra,,20,39.1652778,21.1130556
ano pitsa,,37,38.0833333,22.4833333
ano pixarion,,14,41.1666667,24.3166667
ano platanos,,38,38.1666667,22.2666667
ano platikambos,,21,39.6333333,22.5166667
ano polidhendrion,,21,39.6666667,22.8666667
ano polidhrosos,,33,38.6166667,22.55
anopolis,,43,35.2166667,24.1
anopolis,,45,35.3,25.25
ano poroia,1558,05,41.2833333,23.0333333
ano porroia,,05,41.2833333,23.0333333
ano potamia,,06,40.9672222,22.9233333
ano potamia,,30,39.1066667,21.5266667
ano potamia,,34,38.6,24.1
ano potamia,,38,38.0833333,22.2166667
ano potamia,,49,37.0666667,25.45
ano poulia,,45,35.1166667,25.2666667
ano prostovas,,31,38.6166667,21.6166667
ano psikhiko,,05,41.0,23.6333333
ano psikhikon,,05,41.0,23.6333333
ano pteria,,09,40.5091667,21.055
ano pteri,,30,38.8833333,22.05
ano rachi,,19,39.2252778,20.6761111
ano rakhi,,19,39.2252778,20.6761111
ano ravenia,,17,39.9388889,20.6058333
ano retsina,,31,38.4333333,21.4166667
ano ringlia,,42,36.8333333,22.3166667
ano rodhakinon,,44,35.2,24.3166667
ano rodhonia,,07,40.9633333,22.025
ano rodonia,,07,40.9633333,22.025
anorrakhi,,19,39.2252778,20.6761111
ano salajak,,01,41.2666667,25.8666667
ano salatzak,,01,41.2666667,25.8666667
ano salmenikon,,38,38.2333333,21.9166667
ano salmenikos,,38,38.2333333,21.9166667
ano sangrion,,49,37.0333333,25.4333333
ano selitsa,,40,37.0,22.1833333
ano seta,,34,38.5333333,23.9166667
ano sfinari,,43,35.4166667,23.5833333
ano sfinarion,,43,35.4166667,23.5833333
ano siaterli,,21,39.25,22.45
ano siaterlion,,21,39.25,22.45
ano sikhaina,,38,38.2666667,21.7666667
ano simi,,45,35.05,25.5
ano sinoikia,,37,37.9833333,22.4666667
ano siros,1138,49,37.45,24.9333333
ano skafidhoti,,19,39.2861111,20.6402778
ano skafidoti,,19,39.2861111,20.6402778
anoskeli,,43,35.45,23.7666667
ano skholarion,,13,40.4666667,23.0
ano skotina,,16,39.9936111,22.5341667
ano skotousa,,21,39.3833333,22.5166667
ano skotoussa,,21,39.3833333,22.5166667
ano soudena,,17,39.8797222,20.7075
ano soudena,,38,38.0,22.1333333
ano soudeneika,,38,38.0666667,21.6166667
ano soudhenaiika,,38,38.0666667,21.6166667
ano soudheneika,,38,38.0666667,21.6166667
ano souli,,35,38.1833333,23.9833333
ano souli,,38,38.1666667,21.85
ano soulima,,39,37.35,21.85
ano soulion,,35,38.1833333,23.9833333
ano soulion,,38,38.1666667,21.85
ano sourmena,,06,41.2625,22.8388889
ano souvala,,33,38.6166667,22.55
ano stavros,,15,40.65,23.7
ano strapodhion,,35,36.1666667,22.9833333
ano strouza,,41,37.5666667,21.95
ano syra,,49,37.45,24.9333333
ano tarsinon,,38,38.0,22.3666667
ano tarsos,,38,38.0,22.3666667
ano theodhoraki,,06,41.1666667,23.0166667
ano theodhorakion,,06,41.1666667,23.0166667
ano theologos,,14,40.6666667,24.7
ano thermai,,14,41.3666667,24.9666667
ano trikkala,,37,37.9833333,22.4666667
ano tripodho,,44,35.3333333,24.6833333
ano tripodhon,,44,35.3333333,24.6833333
ano tzineriana,,43,35.5,23.75
ano tzineryiana,,43,35.5,23.75
ano valsamoneron,,44,35.3,24.4166667
ano valtai,,27,38.1,20.75
ano vanitsa,,11,40.2333333,21.8333333
ano vardhatai,,29,38.8,22.4166667
ano-vardhatais,,29,38.8,22.4166667
ano varibobi,,35,38.1333333,23.8
ano varibopi,,35,38.1333333,23.8
ano varimbopi,,35,38.1333333,23.8
ano varsamoneron,,44,35.3,24.4166667
ano vasilika,,21,39.3333333,22.55
ano vasiliki,,31,38.3833333,21.6
ano vasilikon,,40,37.2833333,21.9
ano vasilikon i,,40,37.2833333,21.9
ano vasilikon ii,,40,37.2666667,21.9
ano vaskina,,41,37.2,22.7833333
ano vathia,,34,38.4,23.9166667
ano vathi,,48,37.75,26.9833333
ano velisa,,39,37.95,21.5333333
ano velitsai,,39,37.95,21.5333333
ano verga,,40,37.0,22.1833333
ano verziani,,05,41.0,23.6333333
ano viannos,,45,35.05,25.4166667
ano virou,,25,39.5838889,19.8819444
ano vitali,,49,37.9333333,24.8
ano vitsa,,17,39.8713889,20.7502778
ano vlasia,,38,38.0,21.9166667
ano vlassia,,38,38.0,21.9166667
ano vlokhos,,31,38.6333333,21.4833333
ano volimai,,28,37.8666667,20.6666667
ano volimais,,28,37.8666667,20.6666667
ano volos,,24,39.3833333,22.9666667
ano voskina,,41,37.2,22.7833333
ano voukolies,,43,35.45,23.7833333
ano vounaina,,23,39.4833333,22.2666667
ano voutaina,,40,37.1333333,21.7666667
ano voutina,,40,37.1333333,21.7666667
ano vouvai,,43,35.4833333,23.7833333
ano vouvas,,43,35.4833333,23.7833333
ano vrondou,,04,41.3,23.6833333
ano vrontou,,04,41.3,23.6833333
ano xechoron,,18,39.6561111,20.3716667
ano xekhoron,,18,39.6561111,20.3716667
ano xirokhori,,39,37.5166667,21.65
ano yerakari,,28,37.8166667,20.8
ano yerakarion,,28,37.8166667,20.8
anoyia,,42,36.9833333,22.4333333
anoyia,2545,44,35.2833333,24.8833333
anoyia,,45,35.0166667,24.9666667
anoyia,,46,35.3333333,25.6166667
ano yiannaioi,,40,37.2333333,22.2
ano yianneika,,40,37.2333333,22.2
anoyi,,23,39.3,22.0666667
anoyi,,27,38.4166667,20.6666667
anoyion,,19,39.3730556,20.9411111
anoyion,,23,39.3,22.0666667
ano zaimoglion,,40,37.0333333,21.8666667
ano zakhlorou,,38,38.0833333,22.1666667
ano zalogkon,,17,39.5997222,20.5405556
ano zalongon,,17,39.5997222,20.5405556
ano zaros,,45,35.1333333,24.9
ano zervochori,,12,40.6566667,22.2141667
ano zervochorion,,12,40.6566667,22.2141667
ano zervokhori,,12,40.6566667,22.2141667
ano zervokhorion,,12,40.6566667,22.2141667
ano ziria,,38,38.3,21.95
anrilia,,38,38.1333333,21.7166667
anthemous,,13,40.4666667,23.2833333
antheron,,09,40.3666667,21.2
antheron,,23,39.3472222,21.4583333
anthia,914,01,40.8666667,25.9833333
anthia,,40,37.1166667,22.0333333
anthia iteon,,38,38.2166667,21.7166667
anthili,1381,29,38.85,22.4666667
anthiro,,23,39.3472222,21.4583333
anthiron,,03,41.1666667,24.9666667
anthiron,,09,40.3666667,21.2
anthiron,,23,39.3472222,21.4583333
anthochori,,17,39.5266667,20.6644444
anthochori,,23,39.3572222,21.6638889
anthochorion,,17,39.5266667,20.6644444
anthochorion,,23,39.3572222,21.6638889
anthofiton,,06,40.8519444,22.7030556
anthofiton,,31,38.5,21.8833333
anthofyto,,06,40.8519444,22.7030556
anthofyton,,06,40.8519444,22.7030556
anthokhori,,17,39.7347222,21.13
anthokhori,,33,38.55,22.8333333
anthokhori,,41,37.3833333,22.1333333
anthokhorion,,05,41.1333333,23.9333333
anthokhorion,,09,40.2333333,21.35
anthokhorion,,17,39.5266667,20.6644444
anthokhorion,,33,38.55,22.8333333
anthokhorion,,41,37.3833333,22.1333333
anthokhorion,,42,36.95,22.4666667
anthon,,39,37.8333333,21.6
anthonas,,39,37.8333333,21.6
anthotopos,,20,39.1066667,21.0
anthotopos,,24,39.1833333,22.6
anthoupolis,,35,38.3833333,24.05
anthousa,,09,40.25,21.2
anthousa,,19,39.2966667,20.3713889
anthousa,,22,39.6619444,21.2183333
anthousa,,40,37.2,21.9666667
anthrakia,,10,39.9205556,21.5119444
anthrakitis,,17,39.7658333,20.8675
antia,,34,38.05,24.5333333
antigoneia,,06,41.1255556,22.8741667
antimacheia,,47,36.8108333,27.0997222
antimachia,,47,36.8108333,27.0997222
antimakhia,2251,47,36.8108333,27.0997222
antipaxos,,25,39.1530556,20.2236111
antipernoi,,25,39.7741667,19.7411111
antirhion,,31,38.3333333,21.7666667
antissa,841,51,39.2333333,25.9833333
antonaiika,,20,39.1308333,21.2033333
antrachlias,,50,38.5633333,25.8808333
anydro,,07,40.8352778,22.2027778
(( anydron )),,06,40.8797222,22.4138889
anydron,,07,40.8352778,22.2027778
aofaloti,,42,36.5833333,22.4
aori,,46,35.0833333,25.9666667
aorion,,46,35.0833333,25.9666667
apalos,,01,40.85,25.9333333
apanokhori,,43,35.3333333,23.8333333
apano meria,,49,36.4666667,25.3666667
apano potamia,,49,37.0666667,25.45
apano zakro,,46,35.1166667,26.2166667
aperathos,,49,37.0666667,25.5166667
apergatika,,25,39.2319444,20.1483333
aperi,,47,35.55,27.1833333
aperion,,47,35.55,27.1833333
apesokari,,45,35.0166667,24.95
apesokarion,,45,35.0166667,24.95
apidea,,23,39.2025,21.9388889
apidhea,,23,39.2025,21.9388889
apidhea,,42,36.8833333,22.8
apidheon,,39,38.0666667,21.4333333
apidhia,,23,39.2025,21.9388889
apidhia,,42,36.8833333,22.8
apidhitsa,,41,37.3833333,22.0833333
apidhoula,,39,37.9,21.6
apidia,,23,39.2025,21.9388889
apidia,,42,36.8833333,22.8
apikia,,49,37.85,24.9166667
apion,,02,41.0833333,25.7666667
apiranthos,,49,37.0666667,25.5166667
apirathi,,45,35.1,25.1833333
apladhiana,,44,35.35,24.8166667
apodhikai,,43,35.4666667,23.8666667
apodhitsa,,41,37.3833333,22.0833333
apodhoulo,,46,35.15,24.7333333
apodhoulou,,46,35.15,24.7333333
apoikia,,49,37.85,24.9166667
apoini,,45,35.05,25.1166667
apoinion,,45,35.05,25.1166667
apolakkia,,47,36.0833333,27.8
apolikhnos,,45,35.0833333,24.8833333
apollachia,,47,36.0833333,27.8
apollona,982,47,36.25,27.9666667
apollona,,49,37.1833333,25.55
apollon,,49,37.1833333,25.55
apollonas,,49,37.1833333,25.55
apollonia,,13,40.65,23.4833333
apollonia,1054,49,36.9666667,24.7166667
apollonios,,26,38.6666667,20.6
apollonos,,49,37.1833333,25.55
apolpaina,,26,38.8166667,20.6833333
apomarma,,45,35.1166667,24.95
apomarmas,,45,35.1166667,24.95
apomero,,20,39.0772222,20.9411111
apomeron,,20,39.0772222,20.9411111
aposelemi,,45,35.1,25.1833333
aposelemion,,45,35.1,25.1833333
aposeti,,44,35.2,24.6833333
aposkepas,,09,40.5666667,21.25
aposkepos,,09,40.5666667,21.25
apostolaiika,,22,39.3836111,21.2736111
apostolar,,06,40.9019444,22.7997222
apostoliano,,45,35.0333333,25.3833333
apostolianos,,45,35.0333333,25.3833333
apostolianou,,45,35.0333333,25.3833333
apostolias,,23,38.7166667,22.4
apostoloi,,22,39.5783333,21.7302778
apostoloi,,38,38.1166667,21.4833333
apostoloi,,44,35.25,24.6333333
apostoloi,,45,35.2166667,25.3
apostolou,,38,38.1166667,21.4833333
apothikai,,43,35.4666667,23.8666667
apothikes,,43,35.4666667,23.8666667
aprovata,,49,37.8333333,24.8166667
aprovaton,,49,37.8333333,24.8166667
aprovatou,,49,37.8333333,24.8166667
apsalos,1149,07,40.8927778,22.0544444
aptera,,43,35.5,23.9833333
aqrafi,,25,39.7633333,19.7386111
arachos,,12,40.6613889,22.5097222
arachova,,18,39.6288889,20.4127778
arachova,,33,38.4833333,22.5833333
aradhaina,,43,35.2166667,24.0666667
aragozena,,38,38.25,21.9833333
araioi,,35,36.25,22.95
arakhamitai,,41,37.45,22.25
arakhamitais,,41,37.45,22.25
arakhamites,,41,37.45,22.25
arakhnaion,803,36,37.6833333,22.9666667
arakhos,,12,40.6613889,22.5097222
arakhova,,18,39.6288889,20.4127778
arakhova,,30,38.6833333,21.8666667
arakhova,3992,33,38.4833333,22.5833333
arakhova,,38,38.05,22.3166667
arakhova,,39,37.35,21.9333333
arakhova,,40,37.0333333,22.2166667
arakhova,,41,37.3,22.5
arakhova,,42,36.85,22.35
arakhovitika,,31,38.3333333,21.85
arakhovitika,,37,38.0833333,22.6
arakhovitsa,,17,39.6891667,20.6597222
arakhovitsa,,30,39.0111111,21.8175
arakli,,05,41.2166667,22.9
arakli,,13,40.7666667,23.0333333
aramouza,,41,37.5833333,21.95
arapi,,10,39.9433333,21.6561111
arapi,,41,37.65,21.95
arapidhes,,41,37.65,21.95
arapis,,10,39.9433333,21.6561111
arapis,,23,39.1908333,21.8633333
arapis,,31,38.9625,21.15
arapis,,35,37.9783333,23.5283333
arapli,,13,40.6875,22.8469444
arapli,,14,41.0666667,24.7333333
araplion,,14,41.0666667,24.7333333
arapolaka,,40,36.9,21.7666667
arapolakka,,40,36.9,21.7666667
aratos,1152,02,41.0833333,25.55
aravissos,1513,07,40.84,22.2955556
aravonitsa,,38,38.2666667,21.9833333
araxos,,38,38.1666667,21.4166667
arbaouti,,16,40.3586111,22.5438889
arburi,,06,40.9869444,22.9941667
arcasos,,47,35.4666667,27.1333333
arcassa,,47,35.4666667,27.1333333
archaia olympia,,39,37.65,21.6333333
archangelos,,07,41.0802778,22.2744444
archangelos,,09,40.4452778,21.0594444
archangelos,,12,40.6805556,22.2519444
archangelos,,19,39.0919444,20.7008333
archangelos,,47,36.1833333,28.1333333
archontiko,,07,40.7891667,22.4583333
archontikon,,07,40.7891667,22.4583333
archontochori,,31,38.7,21.0333333
archontochorion,,31,38.7,21.0333333
ardanio,,22,39.6311111,21.7875
ardanion,,22,39.6311111,21.7875
ardanovo,,23,39.1738889,21.3752778
ardanovon,,23,39.1738889,21.3752778
ardassa,934,11,40.4833333,21.6333333
ardhakhthia,,45,35.15,25.0333333
ardhakhtia,,45,35.15,25.0333333
ardhaktia,,45,35.15,25.0333333
ardhaktos,,44,35.1833333,24.55
ardhaktos,,46,35.15,24.7833333
ardhameri,,13,40.6,23.1833333
ardhamerion,,13,40.6,23.1833333
ardhanagon,,23,39.1738889,21.3752778
ardhani,,22,39.6311111,21.7875
ardhanion,,01,40.9333333,26.2166667
ardhanion,,22,39.6311111,21.7875
ardhassa,,11,40.4833333,21.6333333
ardhea,,07,40.9730556,22.0563889
ardhomista,,17,39.6602778,20.9397222
ardhomitsa,,17,39.6602778,20.9397222
ardhosi,,17,39.4269444,20.7194444
ardhosis,,17,39.4269444,20.7194444
ardhosos,,17,39.4269444,20.7194444
ardosis,,17,39.4269444,20.7194444
arduan,,24,39.2833333,22.65
areoi,,35,36.25,22.95
areon,,35,36.25,22.95
areopoli,,42,36.6638889,22.3825
areopolis,,42,36.6638889,22.3825
arethousa,905,13,40.75,23.5833333
areti,,13,40.7666667,23.25
areti,,17,39.8286111,20.5819444
areviti metokhi,,43,35.35,24.1666667
arevitis,,43,35.35,24.1666667
arfara,,38,38.1,22.3166667
arfara,1285,40,37.15,22.0333333
arfingia,,42,36.7166667,22.35
argalasti,1285,24,39.2333333,23.2166667
argas,,28,37.7666667,20.9166667
argasi,,28,37.7666667,20.9166667
argasion,,28,37.7666667,20.9166667
argastiri,,43,35.3333333,23.8
argastirion,,43,35.3333333,23.8
argelopos,,50,38.5822222,25.97
argenia,,27,38.1,20.7166667
argennos,,51,39.3608333,26.2636111
arghinonda,,47,37.0166667,26.9833333
argilia,,42,36.5833333,22.4666667
argithea,,23,39.3555556,21.5383333
argolikon,,36,37.6166667,22.8
argos,25091,36,37.6333333,22.7333333
argos orestikon,7894,09,40.4666667,21.2666667
argostoli,,27,38.1730556,20.4819444
argostolion,9820,27,38.1730556,20.4819444
argoules,,43,35.2,24.2833333
argoulidhes,,43,35.5166667,24.1
argoulio,,44,35.3333333,24.7666667
argoulion,,44,35.3333333,24.7666667
argryopolis,,06,40.9913889,22.9269444
argyrades,,25,39.4369444,19.9758333
argyraiika,,23,39.2741667,21.5927778
argyratika,,25,39.2263889,20.1452778
argyri,,23,39.1927778,21.4161111
argyrion,,23,39.1927778,21.4161111
argyrochori,,17,39.9505556,20.3608333
argyrochorion,,17,39.9505556,20.3608333
argyrotopos,,18,39.4172222,20.3141667
argyroupolis,,06,40.9913889,22.9269444
argyroupolis,,35,37.9,23.75
aria,,20,39.3263889,21.2736111
aria,,31,38.9166667,21.2666667
aria,2080,36,37.5666667,22.8333333
ariadha,,31,38.9166667,21.2666667
ariana,,42,36.7666667,23.0833333
ariana,,51,39.2166667,26.2
aridaia,6091,07,40.9730556,22.0563889
aridea,,07,40.9730556,22.0563889
aridhaia,,07,40.9730556,22.0563889
arila,,18,39.3572222,20.2897222
arilla,,18,39.3572222,20.2897222
arillas,,18,39.3572222,20.2897222
arini,,39,37.5,21.7
arinista,,17,39.8988889,20.3983333
ariokhorion,,40,37.1333333,22.0333333
aris,1036,40,37.1,22.0
aristi,,17,39.9330556,20.6736111
aristinon,,01,40.8666667,26.0
aristodhimion,,40,37.1333333,21.9833333
aristodhimion khasan passa,,40,37.1333333,21.9833333
aristomenis,,40,37.0833333,21.8333333
arisvi,1068,02,41.0666667,25.5833333
arisvi,,51,39.23,26.2186111
arjan,,06,41.0691667,22.6280556
arkadades,,25,39.7069444,19.7269444
arkadhadhes,,25,39.7069444,19.7269444
arkadhikos,,04,41.1333333,24.1666667
arkalochori,,45,35.15,25.2666667
arkalochorion,,45,35.15,25.2666667
arkalokhori,,45,35.15,25.2666667
arkalokhorion,3537,45,35.15,25.2666667
arkasa,,47,35.4666667,27.1333333
arkasadhes,,42,36.9666667,22.4666667
arkasas,,42,36.9666667,22.4666667
arkesini,,49,36.7833333,25.8
arkhaia korinthos,1701,37,37.9166667,22.8833333
arkhaia olimbia,1208,39,37.65,21.6333333
arkhangelos,,07,41.0802778,22.2744444
arkhangelos,,09,40.4452778,21.0594444
arkhangelos,,12,40.6805556,22.2519444
arkhangelos,,19,39.0919444,20.7008333
arkhangelos,,34,38.75,23.4
arkhangelos,,42,36.6333333,22.8833333
arkhangelos,,45,35.2,25.3166667
arkhangelos,5398,47,36.1833333,28.1333333
arkhanion,,23,38.9666667,22.1666667
arkhasa,,47,35.4666667,27.1333333
arkhavianos,,46,35.2166667,25.55
arkhesini,,49,36.7833333,25.8
arkhia,,42,36.5,22.4
arkhondika,,02,41.0666667,25.55
arkhondika,,43,35.3166667,23.65
arkhondiki,,43,35.3166667,24.3333333
arkhondiko,,07,40.7891667,22.4583333
arkhondiko,,40,36.9666667,22.15
arkhondikon,,07,40.7891667,22.4583333
arkhondikon,,40,36.9666667,22.15
arkhondikon,,42,36.8,22.4833333
arkhondikon,,45,35.1666667,25.25
arkhondokhora,,01,41.2833333,25.9833333
arkhondokhori,,01,41.2833333,25.9833333
arkhondokhori,,31,38.7,21.0333333
arkhondokhorion,,31,38.7,21.0333333
arkhontiko,,40,36.9666667,22.15
arkitsa,,29,38.75,23.0333333
arkochori,,12,40.5880556,22.0719444
arkochorion,,12,40.5880556,22.0719444
arkokhorion,,12,40.5880556,22.0719444
arkondiko,,40,36.9666667,22.15
arkoudhaina,,43,35.3166667,24.3333333
arkoudhitsi,,17,39.7044444,21.0647222
arkoudhokhorion,,12,40.5880556,22.0719444
arkoudhosouvala,,27,38.6833333,23.7666667
arkouditsi,,17,39.7044444,21.0647222
arla,,38,38.0666667,21.6
arma,1078,33,38.35,23.4833333
armakha,,45,35.1666667,25.35
armampela,,30,39.0888889,21.5086111
armanoyia,,45,35.1333333,25.1666667
armata,,17,40.0325,20.9683333
armatlikon,,22,39.4875,21.3083333
armatoliko,,22,39.4875,21.3083333
armatolikon,,22,39.4875,21.3083333
armatovon,,17,40.0325,20.9683333
armbounas,,38,37.9166667,22.1666667
armenades,,25,39.7458333,19.6866667
armenadhes,,25,39.7458333,19.6866667
armenika,,40,37.0333333,22.0833333
armenioi,,40,37.2166667,21.65
armenion,727,21,39.4833333,22.7
armenisti,,48,37.6333333,26.0833333
armenistis,,48,37.6333333,26.0833333
armenoi,,40,36.8,21.9166667
armenoi,,43,35.4333333,24.1666667
armenoi,,44,35.3,24.4666667
armenoi,,46,35.0666667,26.0833333
armenokhorion,1079,08,40.8,21.4666667
armenokhorion,,43,35.45,23.7166667
armenskon,,08,40.7833333,21.3
armiropotamos,,35,38.2666667,24.1833333
armolia,,50,38.2530556,26.0322222
armutchi,,06,41.0086111,22.7966667
armyropotamo,,35,38.2666667,24.1833333
arna,,42,36.8833333,22.4166667
arnadhos,,49,37.5666667,25.1833333
arnaia,2271,15,40.4819444,23.5927778
arnaoutali,,40,37.0166667,21.8333333
arnas,,49,37.8666667,24.85
arnautli,,21,39.3833333,22.5166667
arnianoyia,,45,35.1333333,25.1666667
arni,,49,37.8666667,24.85
arnikon,,46,35.1833333,26.1166667
arnikou,,46,35.1833333,26.1166667
arnissa,1556,07,40.8,21.8333333
arnita,,47,36.05,27.8166667
arnitha,,47,36.05,27.8166667
aroania,,38,37.8833333,22.0166667
arolithi,,43,35.25,24.3166667
arolithion,,43,35.25,24.3166667
aronas,,16,40.2869444,22.4255556
aronatika,,25,39.2255556,20.1313889
aroniadha,,31,38.9666667,21.3166667
aroniadhianika,,35,36.2666667,22.9666667
aroniadhika,,35,36.2666667,22.9666667
aroni,,43,35.5166667,24.1166667
aronion,,43,35.5166667,24.1166667
aroyi,,14,40.95,25.1666667
arpajik,,14,41.25,24.5833333
arphara,,40,37.15,22.0333333
arpissa,,20,39.4591667,21.0738889
arpitsa,,18,39.3688889,20.3038889
arriana,1158,02,41.0833333,25.7
arsakion,,02,41.0166667,25.6833333
arsakli,,13,40.5833333,23.0333333
arsenio,,07,40.7141667,22.1622222
arsenion,1389,07,40.7141667,22.1622222
arsenios,,07,40.7141667,22.1622222
arsinoi,,40,37.1666667,21.9166667
arta,19541,20,39.1605556,20.9852778
artemion,,49,36.9833333,24.7166667
artemisia,,40,37.1,22.2333333
artemision,,34,39.0166667,23.2333333
artemon,,49,36.9833333,24.7166667
artesiano,,23,39.4027778,21.8947222
artesianon,1412,23,39.4027778,21.8947222
artiki,,40,37.25,21.7833333
artikion,,40,37.25,21.7833333
artissa,,20,39.4591667,21.0738889
artopoula,,17,39.495,20.6866667
artotina,,30,38.7,22.0333333
artotiva,,31,38.5833333,21.75
artsai,,19,39.255,20.6072222
artsina,,41,37.4333333,22.65
artsista,,17,39.9330556,20.6736111
artzan,,06,41.0691667,22.6280556
arvanitaiika,,39,38.0666667,21.4
arvanitakaiika,,25,39.205,20.1555556
arvanitakeika,,25,39.205,20.1555556
arvaniti,,39,37.7333333,21.5166667
arvanitis,,39,37.7333333,21.5166667
arvanito,,47,35.4,26.9333333
arvanitokerasea,,41,37.3666667,22.4
arvanitokerasia,,41,37.3666667,22.4
arvanitokhori,,14,40.7333333,24.1166667
arvanitokhori,,47,35.4,26.9333333
arvanitokhorion,,47,35.4,26.9333333
arvenitsa,,18,39.4172222,20.3141667
arvitanokhori,,14,40.7333333,24.1166667
arvitsa,,41,37.7,22.05
aryennos,,51,39.3608333,26.2636111
aryenos,,51,39.3608333,26.2636111
aryilia,,42,36.5833333,22.4666667
aryillos,,11,40.2666667,21.75
aryilokhorion,,24,39.2166667,22.6166667
aryilos,,11,40.2666667,21.75
aryinia,,27,38.1,20.7166667
aryinonda,,47,37.0166667,26.9833333
aryira,,38,38.2833333,21.8666667
aryiradhes,,25,39.4369444,19.9758333
aryiratika,,25,39.2263889,20.1452778
aryiria,,30,38.8,22.05
aryiri,,23,39.1927778,21.4161111
aryirion,,23,39.1927778,21.4161111
aryirokastron,,41,37.6833333,22.1333333
aryirokhori,,17,39.9505556,20.3608333
aryirokhorion,,17,39.9505556,20.3608333
aryirokhorion,,23,38.8833333,22.25
aryiromilos,,23,39.5333333,22.2333333
aryiromouri,,43,35.3833333,24.25
aryiromourion,,43,35.3833333,24.25
aryiron pigadhion,,30,38.7,21.7
aryiro pigadhi,,30,38.7,21.7
aryiropoulion,1782,21,39.8333333,22.3
aryirotopos,,18,39.4172222,20.3141667
aryiroupolis,,06,40.9913889,22.9269444
aryiroupolis,,35,37.9,23.75
aryiroupolis,,43,35.2833333,24.3333333
aryithea,,23,39.3555556,21.5383333
arzos,,01,41.6327778,26.3766667
asaa-mahale,,14,41.1,24.2833333
asani,,38,38.0166667,21.9833333
asanion,,38,38.0166667,21.9833333
asari,,46,35.0833333,25.7666667
asarlik,,21,39.7505556,22.5786111
asayia mahale,,05,41.3833333,23.3
asclipio,,47,36.0666667,27.9333333
asea,,41,37.4166667,22.2666667
asemiana,,43,35.45,23.8333333
asfaka,,17,39.7752778,20.7536111
asfaka,,18,39.4019444,20.5591667
asfakero,,20,39.2302778,21.2138889
asfakeron,,20,39.2302778,21.2138889
asfalakton,,39,37.75,21.3666667
asfendhiles,,43,35.2666667,23.7333333
asfendhiou,,47,36.8508333,27.2088889
asfendhon,,43,35.25,24.2166667
asfendhos,,43,35.25,24.2166667
asfendiles,,43,35.2666667,23.7333333
asfendiou,,47,36.8508333,27.2088889
asfendiu,,47,36.8508333,27.2088889
asfendon,,43,35.25,24.2166667
asigonia,,43,35.2666667,24.2833333
asiklar,,06,40.8944444,22.5447222
asiklar,,14,41.25,24.5333333
asimenion,,01,41.4,26.5666667
asimi,,42,36.8666667,22.5
asimi,,45,35.05,25.1
asimion,,42,36.8666667,22.5
asimion,1259,45,35.05,25.1
asimochori,,17,40.2575,20.7538889
asimochorion,,17,40.2575,20.7538889
asimokhori,,17,40.2575,20.7538889
asimokhori,,23,39.1666667,22.1666667
asimokhorion,,17,40.2575,20.7538889
asimokhorion,,23,39.1666667,22.1666667
asini,1081,36,37.55,22.8666667
asini,,40,36.8,21.95
asirotoi,,44,35.3333333,24.85
askari,,18,39.3969444,20.3741667
askhlipio,,47,36.0666667,27.9333333
askidhia,,43,35.3666667,23.8666667
askifos,,43,35.2833333,24.1833333
askifou,,43,35.2833333,24.1833333
askira,,03,41.2,25.0333333
askitai,,02,40.9333333,25.5666667
asklipiion,,47,36.0666667,27.9333333
askoi,,45,35.2166667,25.3833333
askordhalos,,43,35.4166667,23.9333333
askos,1406,13,40.75,23.3833333
aslanaga,,40,37.1,22.0
aslanar,,23,39.1833333,22.1333333
asmini,,34,39.0,23.2
asminion,,34,39.0,23.2
asomata,,12,40.4836111,22.2336111
asomatoi,,02,41.15,25.35
asomatoi,,44,35.2,24.45
asomatos,,02,41.15,25.35
asomatos,,41,37.3333333,22.7
asomatos,,44,35.2,24.45
asomatos,,47,36.8513889,27.2213889
asomatos,,51,39.1,26.3833333
asopia,1375,33,38.3,23.5
asopos,1279,42,36.7333333,22.8666667
asos,,27,38.3833333,20.55
asoutena,,40,37.1666667,21.75
asova,,40,37.15,22.2333333
aspiotades,,25,39.7258333,19.7011111
aspiotadhes,,25,39.7258333,19.7011111
asprakoi,,45,35.2333333,25.2166667
aspra nera,,43,35.55,23.75
asprangeloi,,17,39.8222222,20.7294444
aspras,,39,37.9,21.8333333
aspra spitia,,33,38.3833333,22.6333333
aspra spitia,,39,37.6166667,21.7666667
aspria,,31,38.5333333,21.9333333
aspro,,07,40.7366667,22.2147222
asprochoma,,21,40.0163889,22.1938889
asprochori,,17,39.5225,20.7352778
asprochorion,,17,39.5225,20.7352778
asprokambos,,10,40.15,21.5166667
asprokambos,,29,38.9666667,21.9666667
asprokambos,,37,37.8833333,22.5666667
asprokhoma,,13,40.5833333,23.4333333
asprokhoma,,21,40.0163889,22.1938889
asprokhoma,,40,37.05,22.0833333
asprokhori,,17,39.5225,20.7352778
asprokhori,,35,38.2833333,23.75
asprokhorion,,17,39.5225,20.7352778
asprokhorion,,20,39.2675,21.2852778
asprokhorion,,35,38.2833333,23.75
asprokklisia,,09,40.4,21.25
asprokklisia,,22,39.8483333,21.6566667
aspron,,07,40.7366667,22.2147222
asproneri,,09,40.4166667,21.2333333
asproneri,,11,40.2333333,21.75
aspronerion,,01,41.3833333,26.3
aspronerion,,09,40.4166667,21.2333333
aspro nero,,43,35.55,23.75
aspropilia,,31,39.0519444,21.1547222
aspropirgos,,30,38.7833333,21.6333333
aspropirgos,32712,35,38.0666667,23.5833333
aspropirgos,,49,37.1666667,24.4833333
aspropotamia,,13,40.8388889,22.6461111
aspropotamos,,51,39.275,26.3766667
aspropoulia,,40,37.1166667,22.0333333
asprorevma,,30,39.1925,21.5588889
asprorrevma,,30,39.1925,21.5588889
aspros,891,06,40.8991667,22.6222222
asprosikia,,43,35.35,24.25
asprothilia,,31,39.0519444,21.1547222
asproudhia,,30,38.7833333,21.7166667
asproula,,09,40.3333333,21.2833333
asproulaiika,,36,37.4166667,23.3166667
asproulianoi,,43,35.35,24.2833333
asprovalta,3333,13,40.7166667,23.7
asprovaltos,,22,39.5411111,21.6788889
asprovrysi,,13,40.7213889,22.9397222
asproyerakas,,27,38.1166667,20.7666667
asproyerakata,,26,38.7833333,20.65
asproyia,,09,40.6166667,21.4666667
asproyia,,24,39.3166667,22.6333333
assa,,15,40.3666667,23.6666667
assini,,36,37.55,22.8666667
assiros,2409,13,40.8166667,23.0333333
assirotoi,,44,35.3333333,24.85
assos,,19,39.3455556,20.7647222
assos,,27,38.3833333,20.55
assos,2730,37,37.9333333,22.8333333
astako,,31,38.5333333,21.0833333
astakos,2569,31,38.5333333,21.0833333
astala,,41,37.4,22.0166667
asteraiika,,39,37.8,21.4666667
asteri,,38,38.05,21.7
asteri,,42,36.8333333,22.7333333
asteri,,44,35.3666667,24.6
asterion,,38,38.0666667,21.7166667
asterion,,42,36.7833333,22.4666667
asterion,,44,35.3666667,24.6
astipalaia,1129,47,36.55,26.35
astirakion,,44,35.3166667,24.95
astois,,14,40.5833333,24.65
astorakion,,44,35.3166667,24.95
astrakari,,25,39.7930556,19.7541667
astrakeri,,25,39.7930556,19.7541667
astrakoi,,45,35.2333333,25.2166667
astras,,39,37.9,21.8333333
astratigos,,43,35.4,23.5666667
astrikas,,43,35.4666667,23.75
astrikos,,43,35.4666667,23.75
astris,,14,40.5833333,24.65
astritsa,,23,39.45,22.15
astritsion,,45,35.2,25.2166667
astrochori,,20,39.2675,21.2852778
astrochorion,,20,39.2675,21.2852778
astros,2222,41,37.4,22.7166667
astrova,,40,36.8833333,22.25
astrova,,42,36.7166667,22.3833333
astypalaea,,47,36.55,26.35
astypalaia,,47,36.55,26.35
asvestadhes,,01,41.35,26.3666667
asvestareio,,07,40.8708333,22.4044444
asvestareion,,07,40.8708333,22.4044444
asvestario,,07,40.8708333,22.4044444
asvestarion,,07,40.8708333,22.4044444
asvesti,,23,39.0166667,22.1333333
asvestion,,23,39.0166667,22.1333333
asvestis,,23,39.0166667,22.1333333
asvestochori,,17,39.6288889,20.7763889
asvestochorion,,17,39.6288889,20.7763889
asvestokhorion,5345,13,40.65,23.0333333
asvestokhorion,,17,39.6288889,20.7763889
asvestopetra,,11,40.4666667,21.6666667
atalandi,,29,38.6511111,22.9991667
atalante,,29,38.6511111,22.9991667
atalanti,5859,29,38.6511111,22.9991667
atali,,44,35.4166667,24.7833333
atarni,,02,40.9166667,25.7
atene,,35,37.9833333,23.7333333
ateni,,49,37.9,24.8333333
athamania,,22,39.5272222,21.2502778
athamanio,,20,39.3780556,21.2119444
athamanion,,20,39.3780556,21.2119444
athamas,,33,38.5,22.9833333
athanati,,21,39.75,22.8
athanatoi,,45,35.2833333,25.0833333
athanaton,,21,39.75,22.8
athanion,,26,38.6666667,20.5666667
atheaton,,24,39.1833333,23.6166667
athenae,,35,37.9833333,23.7333333
athenai,,35,37.9833333,23.7333333
athen,,35,37.9833333,23.7333333
athenes,,35,37.9833333,23.7333333
athens,729139,35,37.9833333,23.7333333
atheras,,27,38.3166667,20.4166667
athikia,2058,37,37.8166667,22.9333333
athina,,35,37.9833333,23.7333333
athinai,,35,37.9833333,23.7333333
athinaion,,41,37.4,22.25
athinia,,35,37.9833333,23.7333333
athinioi,,25,39.7180556,19.7233333
athira,1722,07,40.8252778,22.5833333
athiras,,07,40.8252778,22.5833333
athitos,,13,40.1,23.4333333
athyra,,07,40.8252778,22.5833333
atrapos,,08,40.7333333,21.4
atsaliana,,43,35.25,23.6666667
atsiki,886,51,39.95,25.2166667
atsimbraga,,46,35.2333333,25.7
atsimbrayia,,46,35.2333333,25.7
atsinganokhori,,03,41.0666667,24.9666667
atsinganokhorion,,03,41.0666667,24.9666667
atsipadhes,,44,35.2333333,24.45
atsipadhes,,45,35.0666667,25.0833333
atsipopoulon,1826,44,35.35,24.4333333
atsiprania,,46,35.2333333,25.7
atsotopoulon,,44,35.35,24.4333333
atsoupadhes,,27,38.0833333,20.7166667
attali,,27,38.6166667,23.7333333
attiki,,35,38.0,23.7333333
auioi theodhoroi,,24,39.0,22.9333333
avadhou,,46,35.2333333,25.4333333
avanlidhes,,13,40.4,23.2
avarikos,,31,38.5333333,21.7
avaritsa,,20,39.3516667,21.1561111
avaritsa,,29,39.05,22.45
avas,,01,40.9333333,25.9166667
avaton,1357,14,40.9666667,24.8
avdela,,10,40.0,21.1333333
avdella,,10,40.0,21.1333333
avdhelas,,44,35.3333333,24.75
avdheliakos,,46,35.15,25.5666667
avdhelianos,,46,35.15,25.5666667
avdhella,,10,40.0,21.1333333
avdhellas,,44,35.3333333,24.75
avdhira,,14,40.9333333,24.9833333
avdhou,,46,35.2333333,25.4333333
avdhoular,,21,39.4833333,22.6
avdhouliana,,43,35.3,23.7166667
averna,,38,38.2833333,21.8666667
avernai,,38,38.2833333,21.8666667
averof,,21,39.6166667,22.4333333
avesalos,,49,37.1666667,24.4333333
avgaria,,34,38.95,23.1833333
avgi,,11,40.3441667,22.0413889
avgo,,14,41.4333333,24.4666667
avgo,,17,39.5286111,20.9013889
avgon,,17,39.5286111,20.9013889
avgon,,36,37.5,23.1833333
avgon,,37,38.1333333,22.5166667
avgonima,,50,38.3766667,26.0194444
avgonyma,,50,38.3766667,26.0194444
avgos,,46,35.1166667,25.8833333
avia,,40,36.9666667,22.15
avkouresi,,39,37.65,21.75
avlachia,,47,36.9327778,27.1344444
avlacia,,47,36.9327778,27.1344444
avlai,,11,40.1833333,21.9666667
avlakes,,31,38.8,21.45
avlakhia,,47,36.9327778,27.1344444
avlakia,,48,37.7975,26.8591667
avlakiai,,31,38.8,21.45
avlaki,,29,38.9166667,22.55
avlaki,,31,39.1494444,21.3788889
avlakion,,29,38.9166667,22.55
avlakion,,31,39.1494444,21.3788889
avlemona,,35,36.2333333,23.0833333
avlemonas,,35,36.2333333,23.0833333
avlemon,,35,36.2333333,23.0833333
avles,,11,40.1833333,21.9666667
avliana,,11,40.3441667,22.0413889
avlianna,,11,40.3441667,22.0413889
avli,,14,40.8833333,24.1666667
avli,,45,35.1166667,25.3
avliotai,,25,39.775,19.6625
avliotes,,25,39.775,19.6625
avlona,,47,35.7666667,27.1833333
avlonari,,34,38.5,24.1333333
avlonarion,,34,38.5,24.1333333
avlon,,35,38.25,23.7
avlon,,39,37.3666667,21.8166667
avlotopos,,18,39.4166667,20.6255556
avorani,,30,38.7333333,21.9166667
avoros,,32,38.5,22.1333333
avra,,02,40.9333333,25.6833333
avra,,11,40.2841667,22.0238889
avra,,22,39.7111111,21.6897222
avrakonde,,46,35.1666667,25.4833333
avrakondes,,46,35.1666667,25.4833333
avrakondhe,,46,35.1666667,25.4833333
avrami,,22,39.5697222,21.7447222
avramilia,,14,41.05,24.7166667
avramio,,40,37.0333333,21.9333333
avramion,,40,37.0333333,21.9333333
avramiou,,40,37.0333333,21.9333333
avret hisar,,06,40.9194444,22.7408333
avyeniki,,45,35.1833333,25.0333333
avyeraiika,,38,38.0833333,21.6166667
avyereika,,38,38.0833333,21.6166667
avyerinos,,09,40.2333333,21.1666667
avyi,,09,40.45,21.1833333
avyi,,11,40.3441667,22.0413889
avyi,,13,40.8166667,23.3
avyi,,39,37.8666667,21.4833333
avyion,,39,37.8666667,21.35
axiochori,,06,40.8711111,22.6344444
axiochorion,,06,40.8711111,22.6344444
axiokastron,,11,40.2666667,21.4166667
axiokhorion,,06,40.8711111,22.6344444
axioupoli,3368,06,40.9836111,22.535
axioupolis,,06,40.9836111,22.535
axos,1336,07,40.7988889,22.3558333
axos,,44,35.3166667,24.85
ayeli,,03,41.1,24.8
ayeni,,49,37.9,24.8333333
ayeranos,,42,36.7,22.5333333
ayia agathi,,23,39.185,21.7663889
ayia aikaterini,,25,39.8172222,19.845
ayia aikaterini,,34,38.0833333,24.2833333
ayia anastasia,,17,39.5630556,20.7383333
ayia anastasia,,35,36.3166667,22.95
ayia anna,,09,40.4375,21.0813889
ayia anna,,11,40.3441667,22.0413889
ayia anna,823,34,38.8666667,23.4
ayia anna,,36,37.4,23.2333333
ayia anna,,39,37.7833333,21.6333333
ayia,,19,39.3130556,20.3552778
ayia,2827,21,39.7177778,22.7636111
ayia,,38,38.2666667,21.75
ayia,,42,36.6666667,22.5
ayia,,43,35.4666667,23.9333333
ayia,,44,35.3666667,24.7666667
ayia eleni,,05,41.0,23.5666667
ayia eleni,,36,37.55,23.2
ayia eleni,,38,38.2666667,22.05
ayia eleni,,39,37.8333333,21.4333333
ayia eleousa,,19,39.2458333,20.8344444
ayia eleousa,,25,39.6,19.9
ayia evfimia,,27,38.3,20.6
ayia evthimia,,32,38.4833333,22.3666667
ayia fothia,,46,35.0333333,25.9
ayia fotia,,46,35.1833333,26.15
ayia fotini,,07,40.7133333,22.0008333
ayia galini,1369,46,35.1,24.6833333
ayiai paraskiai,,45,35.2166667,25.2
ayia irini,,27,38.1166667,20.75
ayia irini,,34,37.9666667,24.4833333
ayia irini,,42,37.1,22.3666667
ayia irini,,43,35.3,23.5833333
ayia irini,,44,35.3333333,24.4833333
ayia irini,,51,39.9333333,25.1833333
ayia itini,,34,38.0333333,24.3166667
ayia kiriaki,,06,41.1175,22.8272222
ayia kiriaki,,09,40.5263889,21.1216667
ayia kiriaki,,17,39.4494444,20.6816667
ayia kiriaki,,18,39.4877778,20.57
ayia kiriaki,,19,39.2827778,20.4452778
ayia kiriaki,,22,39.5161111,21.8025
ayia kiriaki,,24,39.1,23.0666667
ayia kiriaki,,34,38.0333333,24.4166667
ayia kiriaki,,39,37.85,21.7666667
ayia kiriaki,,40,37.1166667,21.5833333
ayia kiriaki,,42,36.5333333,22.3666667
ayia kiriaki,,43,35.3166667,23.75
ayia kiriaki,,48,37.6983333,26.6186111
ayia marina,732,12,40.5977778,22.2152778
ayia marina,,17,39.8019444,20.4375
ayia marina,,18,39.4669444,20.3147222
ayia marina,,26,38.8333333,20.6833333
ayia marina,,29,38.9,22.5833333
ayia marina,,33,38.5666667,22.7
ayia marina,,34,38.0333333,24.3166667
ayia marina,2731,35,37.75,23.5333333
ayia marina,,38,37.95,21.7
ayia marina,,39,37.95,21.45
ayia marina,,42,36.85,22.45
ayia marina,1671,43,35.5166667,23.9333333
ayia marina,,45,35.3333333,25.0833333
ayia marina,2743,47,37.15,26.8666667
ayia marina,,51,39.0666667,26.5833333
ayia mavra,,18,39.4861111,20.4683333
ayia mavra,,39,37.8666667,21.3
ayiannaki,,40,37.35,21.7
ayiannakis,,40,37.35,21.7
ayiannakos,,34,38.8333333,23.25
ayia paraskeni,,06,41.2661111,22.8488889
ayia paraskevi,978,05,40.95,23.4666667
ayia paraskevi,,06,41.2661111,22.8488889
ayia paraskevi,,08,40.8833333,21.3833333
ayia paraskevi,,11,40.2166667,21.7833333
ayia paraskevi,1501,13,40.4833333,23.05
ayia paraskevi,,14,41.0166667,24.1666667
ayia paraskevi,,17,40.1425,20.8894444
ayia paraskevi,,18,39.5166667,20.5666667
ayia paraskevi,,19,39.3027778,20.8905556
ayia paraskevi,,20,39.0997222,20.9908333
ayia paraskevi,,22,39.5683333,21.2577778
ayia paraskevi,,23,39.3,22.05
ayia paraskevi,,29,39.0066667,21.9938889
ayia paraskevi,,30,39.0044444,21.7952778
ayia paraskevi,,31,38.4666667,21.8666667
ayia paraskevi,998,33,38.5833333,22.75
ayia paraskevi,,34,38.9666667,23.1666667
ayia paraskevi,60662,35,38.0166667,23.8333333
ayia paraskevi,,38,38.1333333,21.8333333
ayia paraskevi,,42,36.6666667,23.0166667
ayia paraskevi,,43,35.3,23.6
ayia paraskevi,,44,35.35,24.5666667
ayia paraskevi,,45,35.1666667,25.3333333
ayia paraskevi,,46,35.15,24.7166667
ayia paraskevi,2193,51,39.2480556,26.2716667
ayia pelayia,,35,36.3333333,22.9833333
ayia pelayia,,44,35.2166667,24.5
ayia pelayia,,46,35.2333333,25.6833333
ayia roumeli,,43,35.2333333,23.9666667
ayias,,34,38.9,23.0666667
ayia semni,,45,35.1166667,25.25
ayias filakai,,43,35.4833333,23.95
ayiasissios,,51,39.085,26.37
ayiasma,,02,41.1666667,25.3666667
ayiasma,,09,40.2833333,21.2333333
ayiasma,1185,14,40.9088889,24.6572222
ayia sofia,,21,39.6833333,22.3166667
ayia sofia,,27,38.6833333,23.7333333
ayia sofia,,31,38.5833333,21.65
ayia sofia,,35,38.4,24.0833333
ayia sofia,,40,36.9,22.25
ayia sofia,,41,37.4333333,22.5333333
ayia sofia,,51,39.8333333,25.3333333
ayiasos,2357,51,39.085,26.37
ayia sotira,,09,40.2,21.1833333
ayia sotira,,31,38.4,21.4333333
ayiaspei,,41,37.3833333,22.1166667
ayiassios,,51,39.085,26.37
ayiassos,,51,39.085,26.37
ayia stevenikon,,33,38.35,22.9166667
ayia thekla,,27,38.25,20.3833333
ayia thekla,,34,38.5166667,24.1
ayia thekli,,27,38.25,20.3833333
ayia thekli,,34,38.5166667,24.1
ayia trias,,12,40.5483333,22.4213889
ayia trias,3580,13,40.4994444,22.8761111
ayia trias,,17,39.4361111,20.8869444
ayia trias,,19,38.9833333,20.7833333
ayia trias,,20,39.1380556,20.9813889
ayia trias,,21,39.3833333,22.5666667
ayia trias,754,23,39.2947222,21.7330556
ayia trias,,24,39.1,22.8666667
ayia trias,,29,38.8166667,22.6
ayia trias,,30,38.9833333,21.8166667
ayia trias,,31,39.0188889,21.1988889
ayia trias,1098,33,38.35,22.9166667
ayia trias,,35,38.15,23.7166667
ayia trias,,36,37.6333333,22.8
ayia trias,,39,37.8666667,21.65
ayia trias,,40,37.2166667,21.7166667
ayia trias,,42,36.45,22.4666667
ayia trias,,44,35.35,24.5666667
ayia trias,,46,35.0166667,26.1166667
ayia trias gounari,,30,38.8666667,21.5833333
ayia trias gounnari,,30,38.8666667,21.5833333
ayia varvara,,12,40.4927778,22.2433333
ayia varvara,,17,40.1497222,20.7344444
ayia varvara,,31,38.6666667,21.5333333
ayia varvara,31218,35,37.9833333,23.6666667
ayia varvara,,38,38.0,22.2666667
ayia varvara,,39,37.9333333,21.6333333
ayia varvara,,42,36.5833333,22.4
ayia varvara,2167,45,35.1333333,25.0
ayia vlakherna,,30,38.85,21.6333333
ayies paraskies,,45,35.2166667,25.2
ayinnakos,,34,38.8333333,23.25
ayiofillon,,22,39.8613889,21.5536111
ayiofillos,,22,39.8613889,21.5536111
ayioi anaryiroi,,09,40.2833333,21.1666667
ayioi anaryiroi,,15,40.3,24.0666667
ayioi anaryiroi,,21,39.3666667,22.4
ayioi anaryiroi,,42,36.7833333,22.55
ayioi anaryiroi,,49,36.9833333,24.6833333
ayioi apostoloi,,17,39.7494444,20.7930556
ayioi apostoloi,,19,39.3047222,20.8002778
ayioi apostoloi,,23,39.2244444,21.4463889
ayioi apostoloi,,30,39.0919444,21.8519444
ayioi apostoloi,,31,38.4833333,21.6333333
ayioi apostoloi,,33,38.5333333,22.85
ayioi apostoloi,4338,35,38.3,23.9
ayioi apostoloi,,41,37.0833333,22.8
ayioi apostoloi,,42,36.55,23.0333333
ayioi apostoloi,,43,35.25,23.6833333
ayioi asomatoi,,35,37.75,23.45
ayioi,,35,37.7694444,23.5091667
ayioi dheka,,25,39.5558333,19.8847222
ayioi dheka,,45,35.0666667,24.9666667
ayioi dhouli,,25,39.745,19.7572222
ayioi dhouloi,,25,39.745,19.7572222
ayioi pandes,,17,39.5666667,21.0516667
ayioi pandes,,18,39.7197222,20.3491667
ayioi pandes,,38,38.3666667,22.2833333
ayioi pandes,,43,35.4833333,23.6
ayioi saranda,,27,38.4666667,20.65
ayioi taxiarkhai,,42,36.8333333,22.6833333
ayioi theodhoroi,,02,41.05,25.4
ayioi theodhoroi,,16,40.1494444,22.5422222
ayioi theodhoroi,,17,39.4333333,20.95
ayioi theodhoroi,,22,39.6594444,21.6908333
ayioi theodhoroi,,24,39.0,22.9333333
ayioi theodhoroi,,31,38.9666667,21.3166667
ayioi theodhoroi,,33,38.3166667,23.3333333
ayioi theodhoroi,,34,38.9,23.1333333
ayioi theodhoroi,,35,37.6166667,23.4
ayioi theodhoroi,,38,38.2666667,21.9666667
ayioi theodhoroi,,39,37.3166667,21.95
ayioi theodhoroi,,42,36.75,22.9333333
ayioi theodhoroi,,43,35.2666667,23.6166667
ayiokhori,,02,41.0833333,25.7833333
ayiokhorion,,02,41.0833333,25.7833333
ayiokhorion,,05,41.0833333,23.95
ayioneri,,06,40.8133333,22.7216667
ayioneri,,21,39.8666667,22.1166667
ayioneri,,39,37.6333333,21.8666667
ayionerion,,06,40.8133333,22.7216667
ayionerion,,21,39.8666667,22.1166667
ayionerion,,39,37.6333333,21.8666667
ayion gala,,50,38.565,25.8583333
ayionori,,36,37.75,22.8833333
ayionorion,,36,37.75,22.8833333
ayion pneuma,,45,35.2666667,25.3666667
ayion pnevma,,05,41.1,23.6833333
ayion pnevma,,43,35.35,23.6666667
ayion pnevma,,45,35.2666667,25.3666667
ayiopiyi,,23,39.3183333,21.9197222
ayioryitika,,41,37.5,22.4833333
ayios adhrianos,,36,37.6,22.8333333
ayios akakios,,23,39.3816667,21.7719444
ayios akhillios,,08,40.7841667,21.0808333
ayios alexandhros,,51,39.9666667,25.3666667
ayios alexandros,,51,39.9666667,25.3666667
ayios andhreas,,14,40.8666667,24.2833333
ayios andhreas,,30,38.8666667,21.7833333
ayios andhreas,,33,38.3,22.5833333
ayios andhreas,,35,38.0666667,24.0
ayios andhreas,,36,37.6333333,23.0833333
ayios andhreas,,38,38.1666667,22.1333333
ayios andhreas,,41,37.35,22.7666667
ayios andhreas,,42,36.9,22.7166667
ayios andhreas,,43,35.45,24.2
ayios andhreas,,44,35.3166667,24.4166667
ayios andonias,,45,35.0666667,24.8833333
ayios andonios,,06,41.1166667,23.0666667
ayios andonios,,09,40.6333333,21.2833333
ayios andonios,,21,39.2,22.4833333
ayios andonios,,30,39.1947222,21.62
ayios andonios,,43,35.45,24.1666667
ayios andonios,,44,35.3666667,24.4833333
ayios andonios,,45,35.0666667,24.8833333
ayios andonios,,46,35.3166667,25.6
ayios andonios,,47,36.4586111,27.3186111
ayios andreas,,14,40.8666667,24.2833333
ayios andreas,,26,38.75,20.65
ayios andreas,,30,38.8666667,21.7833333
ayios andreas,,33,38.3,22.5833333
ayios andreas,,35,38.0666667,24.0
ayios andreas,,36,37.6333333,23.0833333
ayios andreas,,38,38.1666667,22.1333333
ayios andreas,,40,36.85,21.9166667
ayios andreas,1033,41,37.35,22.7666667
ayios andreas,,44,35.3166667,24.4166667
ayios andreas,,49,37.65,24.1
ayios antonios,,47,36.4586111,27.3186111
ayios arsenios,,18,39.5375,20.3994444
ayios artemios,,49,36.6166667,24.95
ayios astratigos,,43,35.25,23.55
ayios athanasios,,07,40.8333333,21.7666667
ayios athanasios,4648,13,40.7172222,22.7280556
ayios athanasios,3419,14,41.0666667,24.25
ayios athanasios,,23,39.2813889,21.7802778
ayios athanasios,,24,39.2333333,22.7666667
ayios athanasios,,25,39.7338889,19.7161111
ayios athanasios,,27,38.6,23.7833333
ayios athanasios,,29,39.0833333,22.35
ayios athanasios,,33,38.4166667,23.0
ayios athanasios,,38,38.2333333,22.1
ayios athanasios,,39,37.35,21.95
ayios athanasios,,40,37.3166667,21.8666667
ayios athanasios,,42,36.5166667,22.3666667
ayios,,34,38.9,23.0666667
ayios dhikaios,,43,35.35,23.6333333
ayios dhimitrio,,35,38.2833333,24.1333333
ayios dhimitrios,,05,40.8833333,23.7
ayios dhimitrios,,09,40.5861111,21.0630556
ayios dhimitrios,,11,40.4166667,21.9166667
ayios dhimitrios,,15,40.3333333,23.7166667
ayios dhimitrios,,16,40.1527778,22.2266667
ayios dhimitrios,,17,39.5172222,20.675
ayios dhimitrios,,18,39.5333333,20.55
ayios dhimitrios,,20,39.1672222,21.1316667
ayios dhimitrios,,23,39.5166667,22.1166667
ayios dhimitrios,,24,39.3166667,22.7166667
ayios dhimitrios,,25,39.4605556,19.9491667
ayios dhimitrios,,28,37.8,20.8
ayios dhimitrios,,30,39.0575,21.6783333
ayios dhimitrios,,33,38.45,23.0
ayios dhimitrios,,34,38.1,24.4333333
ayios dhimitrios,,35,37.9333333,23.7333333
ayios dhimitrios,,37,37.95,22.8
ayios dhimitrios,,38,38.0,21.7666667
ayios dhimitrios,,39,37.9,21.4
ayios dhimitrios,,41,37.4166667,22.2333333
ayios dhimitrios,,42,36.7,22.9333333
ayios dhimitrios,,43,35.2166667,24.0833333
ayios dhimitrios,,44,35.35,24.5833333
ayios dhimitrios,,51,39.9166667,25.15
ayios dhonatos,,18,39.4775,20.5066667
ayios elisaios,,42,36.5666667,22.9666667
ayios elissaios,,42,36.5666667,22.9666667
ayios evstratios,,34,38.0166667,24.55
ayios evstratios,,42,36.75,22.5166667
ayios evstratios,,43,35.3333333,23.7166667
ayios evstratios,,51,39.5388889,24.9916667
ayios floros,,40,37.1666667,22.0333333
ayios fokas,,42,36.6,23.05
ayios fotios,,43,35.3666667,23.55
ayios ilias,,09,40.3666667,21.1833333
ayios ilias,,26,38.7,20.6333333
ayios ilias,,31,38.4833333,21.2833333
ayios ilias,,35,36.2,22.9833333
ayios ilias,,39,37.4166667,21.7
ayios ioannis,,05,41.1,23.5833333
ayios ioannis,,15,40.3666667,23.7
ayios ioannis,,16,40.3263889,22.5258333
ayios ioannis,,17,39.4494444,20.6816667
ayios ioannis,,20,39.2563889,21.1977778
ayios ioannis,,22,39.4383333,21.5647222
ayios ioannis,,24,39.0333333,22.8
ayios ioannis,,25,39.6158333,19.85
ayios ioannis,,27,38.3833333,20.6666667
ayios ioannis,,30,38.6333333,21.7333333
ayios ioannis,,31,39.0005556,21.2022222
ayios ioannis,983,34,38.45,24.0
ayios ioannis,,36,37.35,23.35
ayios ioannis,,37,37.7666667,22.9666667
ayios ioannis,,38,38.2166667,21.9
ayios ioannis,,39,37.6,21.8666667
ayios ioannis,,40,37.3,21.8166667
ayios ioannis,,41,37.3666667,22.6333333
ayios ioannis,,42,36.75,23.0
ayios ioannis,,43,35.2333333,24.0166667
ayios ioannis,,44,35.1666667,24.7166667
ayios ioannis,,45,35.05,24.8166667
ayios ioannis,,46,35.05,25.8333333
ayios ioannis kareas,,35,37.95,23.7666667
ayios ioannis prodhromos,,15,40.3666667,23.7
ayios ioannis prodhromos,,30,39.1836111,21.4680556
ayios ioannis theologos,,29,38.65,23.1833333
ayios ioannis theologos,,42,37.1333333,22.45
ayios ioannis theologos,,46,35.15,25.6333333
ayios isidhoros,,40,36.8,21.9166667
ayios isidhoros,,43,35.3666667,23.5833333
ayios isidhoros,,47,36.15,27.85
ayios kharalambos,,02,40.8833333,25.5166667
ayios kharalambos,,06,41.2027778,22.8133333
ayios kharalambos,,11,40.3833333,21.9833333
ayios kharalambos,,20,39.2897222,21.1286111
ayios kharalambos,,30,39.0,21.85
ayios kharalambos,,39,37.9333333,21.4
ayios kharalambos,,41,37.35,22.7333333
ayios khristoforos,,05,41.05,23.7666667
ayios khristoforos,,11,40.5166667,21.75
ayios kiprianos,,42,36.5,22.4833333
ayios kirikos,,28,37.7833333,20.8333333
ayios kirikos,1908,48,37.6147222,26.2944444
ayios kirillos,,46,34.9833333,24.9166667
ayios kirilos,,46,34.9833333,24.9166667
ayios kirix,,28,37.7833333,20.8333333
ayios konstandinos,,21,39.4,22.4666667
ayios konstandinos,,29,38.7666667,22.85
ayios konstandinos,,31,38.6333333,21.4
ayios konstandinos,,32,38.5,22.3833333
ayios konstandinos,,35,37.3333333,23.5
ayios konstandinos,,38,38.2666667,22.05
ayios konstandinos,,40,37.1666667,22.0333333
ayios konstandinos,,41,37.5166667,22.3833333
ayios konstandinos,,42,37.2166667,22.2833333
ayios konstandinos,,43,35.4,23.6666667
ayios konstandinos,,44,35.3,24.3666667
ayios konstandinos,,46,35.1833333,25.5
ayios konstandinos,,48,37.8058333,26.8152778
ayios kosmas,,10,40.15,21.25
ayios kosmas,,14,41.0833333,24.6666667
ayios kosmas,,17,39.9725,20.5686111
ayios lavrendios,,24,39.3666667,23.0666667
ayios leon,,28,37.7833333,20.7166667
