names,population,state_code,lat,lon
aeng pok,,49,12.566667,102.45
ai,,02,19.683333,99.166667
ai na lai,,04,18.533333,100.7
ainarai,,04,18.533333,100.7
ai rot,,45,13.883333,101.216667
ai taut,,63,7.8,98.983333
akat am nuai,,20,17.6,103.983333
akat amnuai,,73,17.7,104.216667
amanat charoem,,77,15.85,104.633333
ambhawa,,54,13.416667,99.95
ambheu barnbhot,,16,15.934167,99.978889
ambheu wangha,,50,15.1,98.466667
amnat,,71,15.683333,104.65
amnat charoen,34769,77,15.85,104.633333
amper khan ngern,,58,9.95,99.066667
amphawa,,54,13.416667,99.95
ampho ban pho,,44,13.6,101.083333
amphoe akat amnuai,,20,17.533333,103.95
amphoe amnat charoen,,77,15.85,104.633333
amphoe amphawa,,54,13.416667,99.95
amphoe ao luk,,63,8.383333,98.716667
amphoe aranpradbet,,80,13.683333,102.5
amphoe aranyaprathet,,80,13.683333,102.5
amphoe at samat,,25,15.859444,103.859722
amphoe bacho,,31,6.616667,101.65
amphoe ba cho,,69,6.518889,101.651944
amphoe bachock,,31,6.616667,101.65
amphoe bachoh,,31,6.616667,101.65
amphoe bamnet narong,,26,15.499167,101.689722
amphoe ban aranyaprathet,,80,13.683333,102.5
amphoe ban bang talat,,23,16.4,103.383333
amphoe ban bung,,46,13.3,101.116667
amphoe ban chiang dao,,02,19.366667,98.966667
amphoe ban dan lan hoi,,09,17.015278,99.707778
amphoe ban don,,60,9.133333,99.316667
amphoe ban dung,,19,17.704722,103.254167
amphoe bang ban,,36,14.416667,100.466667
amphoe bang bua thong,,38,13.916667,100.433333
amphoe bang hia,,42,13.566667,100.833333
amphoe bang kaeo,,35,14.583333,100.45
amphoe bang kapi,,42,13.766667,100.65
amphoe bang khen,,38,13.866667,100.6
amphoe bang khla,,44,13.716667,101.216667
amphoe bang khon thi,,54,13.466667,99.933333
amphoe bang khun thian,,42,13.7,100.466667
amphoe bangkok noi,,40,13.75,100.483333
amphoe bangkok yai,,42,13.733333,100.483333
amphoe bang krathum,,12,16.566667,100.3
amphoe bang kruai,,38,13.8,100.483333
amphoe bang lamung,,46,12.966667,100.9
amphoe bang len,,53,14.016667,100.166667
amphoe bang mun nak,,13,16.033333,100.383333
amphoe bang nam prieo,,44,13.85,101.066667
amphoe bang pa han,,36,14.466667,100.55
amphoe bang pa-in,,36,14.233333,100.583333
amphoe bang pakong,,44,13.55,101
amphoe bang phae,,52,13.7,99.933333
amphoe bang phlat,,38,13.783333,100.5
amphoe bang phli,,42,13.6,100.716667
amphoe bang pla,,53,14,100.166667
amphoe bang pla ma,,51,14.4,100.166667
amphoe bang rachan,,33,14.883333,100.316667
amphoe bang rakam,,12,16.75,100.116667
amphoe bang rak,,40,13.733333,100.533333
amphoe bang sai,,36,14.216667,100.5
amphoe bang saphan,,57,11.116667,99.45
amphoe bang yai,,38,13.8,100.483333
amphoe ban hong,,05,18.314722,98.8175
amphoe ban khai,,47,12.783333,101.3
amphoe ban khemmarat,,75,16.05,105.216667
amphoe ban khwao,,26,15.763333,101.913056
amphoe ban kluai,,32,15.183333,100.133333
amphoe ban krai,,09,16.933333,99.966667
amphoe ban kruat,,28,14.366667,103.05
amphoe ban laem,,56,13.216667,99.983333
amphoe ban lamung,,46,12.966667,100.9
amphoe ban lat,,56,13.05,99.933333
amphoe ban mae sot,,08,16.716667,98.566667
amphoe ban meung,,41,19.166667,100.283333
amphoe ban mi,,34,15.043611,100.566111
amphoe ban mo,,37,14.616667,100.733333
amphoe ban muang,,41,19.166667,100.283333
amphoe ban na,,43,14.259167,101.068333
amphoe ban na kae,,73,16.966667,104.5
amphoe bannang sata,,70,6.266111,101.263889
amphoe ban pak thong chai,,27,14.716667,102.016667
amphoe ban phaeng,,73,17.9,104.15
amphoe ban phaeo,,55,13.583333,100.116667
amphoe ban phai,,22,16.066667,102.733333
amphoe ban phong thong,,25,16.116667,103.833333
amphoe ban phon thong,,25,16.116667,103.833333
amphoe banphot phisai,,16,15.934167,99.978889
amphoe ban phraek,,36,14.633333,100.566667
amphoe ban phu,,19,17.689444,102.469444
amphoe ban pong,,52,13.816667,99.883333
amphoe banpot pi sai,,16,15.934167,99.978889
amphoe ban rai,,15,15.0825,99.521111
amphoe ban sang,,45,14,101.233333
amphoe ban tak,,08,17.040556,99.063056
amphoe ban thaen,,26,16.35,102.283333
amphoe ban tha kham,,60,9.1,99.233333
amphoe ban tha uthen,,73,17.566667,104.6
amphoe ban yang talat,,23,16.4,103.383333
amphoe barnbhot bhi sai,,16,15.934167,99.978889
amphoe betong,,70,5.683333,100.983333
amphoe bhayuha giri,,16,15.45,100.133333
amphoe bhen,,19,17.698333,102.909167
amphoe bhimunmangsaharn,,75,15.233333,105.233333
amphoe bhonbhisai,,17,18.016667,103.083333
amphoe bhondhohng,,25,16.116667,103.833333
amphoe bhrao,,02,19.366667,99.216667
amphoe bhra pradeng,,42,13.666667,100.533333
amphoe bhra seng,,60,8.516667,99.116667
amphoe bhromburi,,33,14.833333,100.45
amphoe bhudhaisong,,28,15.416667,102.9
amphoe bhuwieng,,22,16.65,102.383333
amphoe bo phloi,,50,14.323611,99.516111
amphoe borabu,,24,16.033333,103.116667
amphoe bua yai,,27,15.583333,102.416667
amphoe bung,,71,15.683333,104.65
amphoe bung kan,,17,18.365,103.651111
amphoe buntharik,,71,14.762222,105.412222
amphoe bunthark,,71,14.733333,105.366667
amphoe bun yeun,,04,18.583333,100.75
amphoe bun yoen,,04,18.583333,100.75
amphoe bun yun,,04,18.583333,100.75
amphoe cha-am,,56,12.8,99.966667
amphoe chae hom,,06,18.702222,99.566389
amphoe cha hom,,06,18.702222,99.566389
amphoe chai badan,,34,15.207778,101.134722
amphoe chai buri,,17,18.383333,103.616667
amphoe chaiya,,60,9.383333,99.233333
amphoe chaiyo,,35,14.65,100.466667
amphoe chakkarat,,27,15.01,102.413056
amphoe chana,,68,6.866667,100.716667
amphoe chanae,,31,6.110556,101.689722
amphoe chan uman,,71,16.183333,104.983333
amphoe chanuman,,71,16.216667,105.016667
amphoe chatturat,,26,15.564722,101.841389
amphoe chaturaphak phiman,,25,15.85,103.55
amphoe chaturat,,26,15.564722,101.841389
amphoe cha-uat,,64,7.95,99.983333
amphoe chawang,,64,8.416667,99.5
amphoe che hom,,06,18.702222,99.566389
amphoe chiang dao,,02,19.35,98.9
amphoe chiang kham,,41,19.433333,100.233333
amphoe chiang khan,,18,17.866667,101.6
amphoe chiang khaung,,03,20.283333,100.4
amphoe chiang khong,,03,20.283333,100.4
amphoe chiang klang,,04,19.25,100.8
amphoe chiang rai,,03,19.9,99.833333
amphoe chiang saen,,03,20.147222,99.853889
amphoe chiang yun,,24,16.35,103.033333
amphoe chian yai,,64,8.166667,100.15
amphoe chieng kum,,41,19.523889,100.299167
amphoe chohm dhohng,,02,18.426944,98.678056
amphoe chok chai,,27,14.716667,102.116667
amphoe chom bung,,52,13.616667,99.6
amphoe chom phra,,29,15.114722,103.613889
amphoe chom thong,,02,18.426944,98.678056
amphoe chomtong,,02,18.426944,98.678056
amphoe chon daen,,14,16.183333,100.766667
amphoe chonnabot,,22,16.083333,102.566667
amphoe chum phae,,22,16.516667,102.083333
amphoe chum saeng,,16,15.9,100.316667
amphoe chum seng,,16,15.9,100.316667
amphoe chun,,41,19.3,100.166667
amphoe damnoen saduak,,52,13.516667,99.933333
amphoe dan khun thot,,27,15.206389,101.805833
amphoe dan sai,,18,17.25,101.066667
amphoe dan zai,,18,17.283333,101.15
amphoe den chai,,07,17.979444,100.053333
amphoe det udom,,71,14.833333,104.983333
amphoe det udon,,71,14.905,105.077222
amphoe dhab put,,61,8.516667,98.633333
amphoe dhaihmoeang,,61,8.4,98.266667
amphoe dha kham,,60,9.1,99.233333
amphoe dha khanohn,,60,9.033333,98.916667
amphoe dha rong jang,,60,9.083333,99.166667
amphoe dha udhen,,73,17.566667,104.6
amphoe dheung,,03,19.683333,100.2
amphoe dhung song,,64,8.15,99.733333
amphoe doem bang,,51,14.85,100.1
amphoe doembang nangbuat,,55,14.833333,100.1
amphoe doi saked,,02,18.874444,99.135556
amphoe doi saket,,02,18.874444,99.135556
amphoe dok kham tai,,03,19.066667,99.95
amphoe don chedi,,51,14.633333,100.033333
amphoe doy saket,,02,18.874444,99.135556
amphoe dusit,,40,13.783333,100.516667
amphoe fak tha,,10,17.9,100.783333
amphoe fang,,02,19.883333,99.183333
amphoe gong,,30,15.333333,104.15
amphoe hang chat,,06,18.326389,99.347778
amphoe hang dong,,02,18.687222,98.916667
amphoe hankha,,32,14.983333,100.016667
amphoe hat yai,,68,7.016667,100.466667
amphoe hlup,,23,16.433333,103.5
amphoe hnohng weng,,25,15.633333,103.583333
amphoe hoht,,02,18.19,98.608889
amphoe hot,,02,18.19,98.608889
amphoe hua hin,,57,12.566667,99.966667
amphoe huaihnoea,,30,14.7,104.2
amphoe huai nua,,30,14.7,104.2
amphoe huai thalaeng,,28,14.9,102.566667
amphoe huai yot,,65,7.75,99.616667
amphoe hua sai,,64,8.033333,100.3
amphoe in buri,,33,15,100.333333
amphoe jaiburi,,17,18.383333,103.616667
amphoe jieng dao,,02,19.366667,98.966667
amphoe jieng gam,,41,19.523889,100.299167
amphoe jienggan,,18,17.866667,101.6
amphoe jieng kan,,18,17.866667,101.6
amphoe jieng khohng,,03,20.283333,100.4
amphoe jum seng,,16,15.9,100.316667
amphoe kabin buri,,45,13.983333,101.716667
amphoe kaeng khlo,,26,16.066667,102.183333
amphoe kaeng khoi,,37,14.588056,101.003056
amphoe kaeng khro,,26,16.1,102.266667
amphoe kalasin,,23,16.433333,103.5
amphoe kamalasai,,23,16.266667,103.5
amphoe kamphaeng saen,,53,14,100
amphoe kampong chehe,,31,6.266667,102.05
amphoe kanchanadit,,60,9.166667,99.466667
amphoe kantang,,65,7.316667,99.45
amphoe kantharalak,,30,14.55,104.616667
amphoe kanthararom,,30,15.1,104.583333
amphoe kantharawichai,,24,16.266667,103.216667
amphoe kanu,,11,16.2,99.716667
amphoe kapong,,61,8.683333,98.416667
amphoe kasat wisai,,25,15.633333,103.583333
amphoe kaset sombun,,26,16.25,101.9
amphoe kaset wisai,,25,15.633333,103.583333
amphoe kathu,,62,7.866667,98.266667
amphoe kau chang,,49,12.166667,102.433333
amphoe kau lanta,,63,7.55,99.083333
amphoe khamcha-i,,78,16.55,104.333333
amphoe kham cha-i,,78,16.583333,104.416667
amphoe kham khuan kaeo,,72,15.65,104.316667
amphoe kham thale so,,27,14.970278,101.863611
amphoe khanngeun,,58,9.95,99.066667
amphoe khan ngoen,,58,9.95,99.066667
amphoe khanom,,64,9.2,99.866667
amphoe khanu,,11,16.2,99.716667
amphoe khanuworalak buri,,11,16.066667,99.866667
amphoe khao chaison,,66,7.416667,100.083333
amphoe khao chai son,,66,7.466667,100.133333
amphoe khao khao,,65,7.75,99.616667
amphoe khao saming,,49,12.35,102.45
amphoe khao wong,,23,16.633333,104.05
amphoe khao yoi,,56,13.233333,99.833333
amphoe khau khaw,,65,7.75,99.616667
amphoe khemmarat,,71,16,105.183333
amphoe khemmarat,,75,16.05,105.216667
amphoe khemrat,,75,16.05,105.216667
amphoe khiri mat,,09,16.833333,99.8
amphoe khiri rat nikhom,,60,9.033333,98.916667
amphoe khlong khlung,,11,16.2,99.716667
amphoe khlong luang,,39,14.066667,100.65
amphoe khlong san,,40,13.733333,100.5
amphoe khlong thom,,63,7.933333,99.15
amphoe khlong thom,,64,7.866667,99.083333
amphoe khlong yai,,49,11.75,102.783333
amphoe khlung,,48,12.45,102.233333
amphoe khok pho,,69,6.683333,101.066667
amphoe khok samrong,,34,15.064444,100.722778
amphoe khon buri,,27,14.45,102.216667
amphoe khong,,27,15.433333,102.333333
amphoe khong,,30,15.333333,104.15
amphoe khong chiam,,71,15.283333,105.45
amphoe khon san,,26,16.35,101.833333
amphoe kho wang,,72,15.35,104.366667
amphoe khuang nai,,71,15.383333,104.55
amphoe khuan khanun,,66,7.683333,99.983333
amphoe khukhan,,30,14.65,104.15
amphoe khun han,,30,14.55,104.35
amphoe khun yuam,,01,18.828889,97.934167
amphoe king tha chang,,60,9.266667,99.2
amphoe klaeng,,47,12.783333,101.65
amphoe ko chang,,49,12.166667,102.433333
amphoe kohjang,,49,12.166667,102.433333
amphoe kohlanta,,63,7.55,99.083333
amphoe koh sa-mui,,60,9.433333,99.966667
amphoe ko kha,,06,18.19,99.392778
amphoe koksamui,,60,9.433333,99.966667
amphoe ko lanta,,63,7.55,99.083333
amphoe kong krai lat,,09,16.933333,99.966667
amphoe ko samui,,60,9.433333,99.966667
amphoe kosum phisai,,22,16.166667,103.033333
amphoe kosum phisai,,24,16.216667,103.016667
amphoe kotabaru,,70,6.479722,101.4225
amphoe kra buri,,59,10.4,98.783333
amphoe kranuan,,22,16.633333,103.016667
amphoe krasang,,28,14.916667,103.233333
amphoe krok phra,,16,15.55,100.083333
amphoe kuchinarai,,23,16.533333,104.066667
amphoe kuchinarai,,25,16.45,103.966667
amphoe kui buri,,57,12.05,99.866667
amphoe kukhan,,30,14.7,104.2
amphoe kumbhawapi,,76,17.133611,102.9675
amphoe kumphawapi,,19,17.095556,102.94
amphoe kumphawapi,,76,17.133611,102.9675
amphoe kusuman,,20,17.266667,104.233333
amphoe kut bak,,20,17,103.766667
amphoe kut chap,,19,17.423333,102.566389
amphoe kut kao,,22,16.116667,102.55
amphoe kut khao,,22,16.116667,102.55
amphoe lae,,04,19.416667,100.883333
amphoe laem ngop,,49,12.166667,102.433333
amphoe laem sing,,48,12.483333,102.066667
amphoe lahan sai,,28,14.366667,102.766667
amphoe lam luk ka,,39,13.933333,100.75
amphoe lam plai mat,,28,15.016667,102.833333
amphoe lang suan,,58,9.95,99.066667
amphoe langu,,67,6.866667,99.716667
amphoe lan saka,,64,8.35,99.8
amphoe lap lae,,10,17.65,100.033333
amphoe lat bua luang,,36,14.166667,100.316667
amphoe lat hlumkeo,,39,14.033333,100.416667
amphoe lat kabang,,44,13.716667,100.783333
amphoe lat krabang,,44,13.716667,100.783333
amphoe lat lum kaeo,,39,14.033333,100.416667
amphoe lat yao,,16,15.750556,99.790278
amphoe la-un,,59,10.116667,98.766667
amphoe laung,,07,18.074722,99.830278
amphoe li,,05,17.716667,98.9
amphoe loeng nok tha,,71,16.2,104.516667
amphoe loeng nok tha,,72,16.183333,104.516667
amphoe lom kao,,14,16.8,101.15
amphoe lom sak,,14,16.716667,101.15
amphoe long,,07,18.074722,99.830278
amphoe lup,,23,16.433333,103.5
amphoe mae ai,,02,19.983333,99.283333
amphoe mae chaem,,02,18.501389,98.361111
amphoe mae chan,,03,20.147222,99.853889
amphoe mae phrik,,06,17.445278,99.122222
amphoe mae ramat,,08,16.966667,98.516667
amphoe mae rim,,02,18.912222,98.939722
amphoe mae sai,,03,20.43,99.885833
amphoe mae sariang,,01,18.157778,97.933611
amphoe mae saut,,08,16.716667,98.566667
amphoe mae sot,,08,16.633333,98.516667
amphoe mae suai,,03,19.616667,99.466667
amphoe mae taeng,,02,19.083333,98.9
amphoe mae tha,,05,18.461389,99.136111
amphoe mae tha,,06,18.130556,99.509167
amphoe maha chana chai,,72,15.533333,104.25
amphoe maharat,,36,14.533333,100.533333
amphoe makham,,48,12.666667,102.2
amphoe mancha khiri,,22,16.083333,102.466667
amphoe manorom,,32,15.316667,100.083333
amphoe mayo,,69,6.683333,101.35
amphoe ma yo,,69,6.713333,101.412778
amphoe me rim,,02,18.912222,98.939722
amphoe mesoht,,08,16.716667,98.566667
amphoe min buri,,40,13.816667,100.733333
amphoe moeangbhan,,03,19.466667,99.716667
amphoe moeang bhang,,02,19.916667,99.216667
amphoe moeang bha yao,,41,19.166667,99.916667
amphoe moeang dheung,,03,19.683333,100.2
amphoe moeangfhang,,02,19.916667,99.216667
amphoe moeang hohd,,02,18.19,98.608889
amphoe moeang jaiya,,60,9.383333,99.233333
amphoe moeang lohng,,07,18.074722,99.830278
amphoe moeang nagorn dhai,,12,17.116667,100.833333
amphoe moeang ngao,,06,18.7575,99.978333
amphoe moeang thalang,,62,7.983333,98.366667
amphoe moeangthenn,,06,17.6025,99.213889
amphoe moeang theun,,06,17.6025,99.213889
amphoe muang ang thong,,35,14.583333,100.45
amphoe muang buriram,,28,15,103.116667
amphoe muang chachoengsao,,44,13.7,101.083333
amphoe muang chainat,,32,15.183333,100.133333
amphoe muang chaiyaphum,,26,15.8,102.033333
amphoe muang chanthaburi,,48,12.6,102.15
amphoe muang chiang,,18,17.866667,101.6
amphoe muang chiang khan,,18,17.866667,101.6
amphoe muang chiang mai,,02,18.790278,98.981667
amphoe muang chiang rai,,03,19.9,99.833333
amphoe muang chon buri,,46,13.366667,100.983333
amphoe muang chumphon,,58,10.5,99.166667
amphoe muang fang,,02,19.916667,99.216667
amphoe muang gao,,06,18.7575,99.978333
amphoe muang in buri,,33,15,100.333333
amphoe muang kalasin,,23,16.433333,103.5
amphoe muang kamphaeng phet,,11,16.466667,99.5
amphoe muang khong,,30,15.333333,104.15
amphoe muang khon kaen,,22,16.433333,102.833333
amphoe muang krabi,,63,8.066667,98.916667
amphoe muang lampang,,06,18.298333,99.507222
amphoe muang lamphun,,05,18.581111,99.009167
amphoe muang loei,,18,17.433333,101.633333
amphoe muang long,,07,18.074722,99.830278
amphoe muang lop buri,,34,14.8,100.616667
amphoe muang mae hong son,,01,19.266667,97.933333
amphoe muang maha sarakham,,24,16.183333,103.3
amphoe muang nakawn tai,,12,17.116667,100.833333
amphoe muang nakhon nayok,,43,14.203056,101.214722
amphoe muang nakhon pathom,,53,13.816667,100.05
amphoe muang nakhon phanom,,73,17.4,104.783333
amphoe muang nakhon ratchasima,,27,14.966667,102.116667
amphoe muang nakhon sawan,,16,15.683333,100.116667
amphoe muang nakhon si thammarat,,64,8.433333,99.966667
amphoe muang nakhon thai,,12,17.116667,100.833333
amphoe muang nakorn thai,,12,17.116667,100.833333
amphoe muang nam,,04,18.783333,100.783333
amphoe muang ngao,,06,18.7575,99.978333
amphoe muang nong khai,,17,17.876111,102.744444
amphoe muang nonthaburi,,38,13.833333,100.483333
amphoe muang pathum thani,,39,14.016667,100.533333
amphoe muang phan,,03,19.466667,99.716667
amphoe muang phannanikhom,,20,17.35,103.783333
amphoe muang phatthalung,,66,7.616667,100.083333
amphoe muang phayao,,41,19.166667,99.916667
amphoe muang phet buri,,56,13.1,99.95
amphoe muang phetchabun,,14,16.416667,101.133333
amphoe muang phichit,,13,16.433333,100.366667
amphoe muang phimai,,27,15.216667,102.5
amphoe muang phitsanulok,,12,16.833333,100.25
amphoe muang phrae,,07,18.15,100.133333
amphoe muang phuket,,62,7.883333,98.4
amphoe muang prachin buri,,45,14.050278,101.370278
amphoe muang prachuap khim khan,,57,11.816667,99.8
amphoe muang pra yao,,41,19.166667,99.916667
amphoe muang ranong,,59,9.966667,98.633333
amphoe muang rat buri,,52,13.533333,99.8
amphoe muang roi et,,25,16.05,103.666667
amphoe muang sakhon nakhon,,20,17.166667,104.15
amphoe muang sam sip,,71,15.516667,104.733333
amphoe muang sing buri,,33,14.883333,100.416667
amphoe muang sisaket,,30,15.116667,104.333333
amphoe muang songkhla,,68,7.2,100.6
amphoe muang suang,,25,15.816667,103.716667
amphoe muang sukhothai,,09,17.006389,99.823333
amphoe muang suphan buri,,51,14.466667,100.116667
amphoe muang surat thani,,60,9.133333,99.316667
amphoe muang thalang,,62,7.983333,98.366667
amphoe muang thoen,,06,17.6025,99.213889
amphoe muang trang,,65,7.55,99.6
amphoe muang wapi pathum,,24,15.85,103.383333
amphoe muang wapipthum,,24,15.85,103.383333
amphoe muang yasothon,,72,15.795278,104.149444
amphoe mukdahan,,78,16.45,104.616667
amphoe na chaluai,,71,14.541944,105.216111
amphoe na kae,,73,16.9,104.433333
amphoe nakel,,73,16.966667,104.5
amphoe nakhon chai,,53,13.8,100.183333
amphoe nakhon chai si,,53,13.8,100.183333
amphoe nakhon luang,,36,14.45,100.616667
amphoe nakhon thai,,12,17.083333,100.783333
amphoe na klang,,79,17.3075,102.179444
amphoe naklua,,46,12.966667,100.9
amphoe nam pat,,10,17.716667,100.683333
amphoe nam phong,,22,16.616667,102.833333
amphoe nam som,,19,17.769722,102.190278
amphoe nam sum,,15,15.366667,100.05
amphoe nam yun,,71,14.535,105.0325
amphoe nang buat,,51,14.75,100.1
amphoe nang rong,,28,14.55,102.766667
amphoe na noi,,04,18.25,100.7
amphoe na thani,,68,6.683333,100.616667
amphoe ngao,,06,18.7575,99.978333
amphoe nong bua,,16,15.866667,100.583333
amphoe nong bua lamphu,,19,17.199444,102.442778
amphoe nong bua lamphu,,79,17.202222,102.438889
amphoe nong chang,,15,15.391944,99.843889
amphoe nong chik,,69,6.766667,101.166667
amphoe nong chok,,40,13.85,100.866667
amphoe nong han,,19,17.356667,103.109444
amphoe nong khae,,37,14.333333,100.866667
amphoe nong kha yang,,15,15.361944,99.929167
amphoe nong phai,,14,15.9825,101.062222
amphoe nong rua,,22,16.433333,102.366667
amphoe nong sua,,39,14.133333,100.833333
amphoe non sang,,19,16.8,102.55
amphoe non sung,,27,15.183333,102.266667
amphoe non thai,,27,15.2,102.066667
amphoe omkoi,,02,17.716667,98.333333
amphoe ongkharak,,43,14.122778,100.997222
amphoe padhio,,58,10.7,99.316667
amphoe pai,,01,19.316667,98.45
amphoe pak chong,,27,14.704167,101.413056
amphoe pakdhongjai,,27,14.716667,102.016667
amphoe pak kret,,38,13.916667,100.5
amphoe pak phanang,,64,8.35,100.2
amphoe pak phayun,,66,7.316667,100.266667
amphoe pak phli,,43,14.163611,101.262222
amphoe pak tho,,52,13.383333,99.85
amphoe pak thong chai,,27,14.716667,102.016667
amphoe palian,,65,7.133333,99.633333
amphoe pa mok,,35,14.483333,100.45
amphoe pa na re,,69,6.766667,101.433333
amphoe panare,,69,6.86,101.490278
amphoe pa sang,,05,18.524444,98.938611
amphoe pathiu,,58,10.7,99.316667
amphoe pathum thani,,39,14.016667,100.533333
amphoe patilieu,,58,10.7,99.316667
amphoe pa tiu,,72,15.833333,104.383333
amphoe peiyua kiri,,16,15.45,100.133333
amphoe phachi,,36,14.45,100.716667
amphoe phaisali,,16,15.6,100.65
amphoe phak hai,,36,14.45,100.366667
amphoe phana,,77,15.698333,104.892778
amphoe phan,,03,19.466667,99.716667
amphoe phanat nikhom,,46,13.45,101.183333
amphoe phang khon,,20,17.35,103.666667
amphoe phanna nikhom,,20,17.266667,103.766667
amphoe phannanikhom,,20,17.35,103.783333
amphoe phannikhom,,20,17.35,103.783333
amphoe phanom phrai,,25,15.683333,104.116667
amphoe phanom sarakham,,44,13.75,101.35
amphoe phanom thuan,,50,14.125833,99.701111
amphoe phan thong,,46,13.466667,101.1
amphoe phasi charoen,,42,13.716667,100.433333
amphoe phayakkhaphum phisai,,24,15.516667,103.2
amphoe phayao,,03,19.066667,99.85
amphoe phayao,,41,19.166667,99.916667
amphoe phayuhakhiri,,16,15.45,100.133333
amphoe phen,,19,17.698333,102.909167
amphoe phibun mangsahan,,71,15.183333,105.183333
amphoe phibun mangsahan,,75,15.233333,105.233333
amphoe phichai,,10,17.287222,100.096667
amphoe phimai,,27,15.216667,102.5
amphoe phimun mangahan,,75,15.233333,105.233333
amphoe phimun mangsahan,,75,15.233333,105.233333
amphoe phon,,22,15.816667,102.6
amphoe phon charoen,,17,18.048333,103.679722
amphoe phon phisai,,17,18.016667,103.083333
amphoe phon thong,,25,16.116667,103.833333
amphoe pho thale,,13,16.083333,100.266667
amphoe photharam,,52,13.683333,99.85
amphoe pho thong,,35,14.666667,100.416667
amphoe phrai bung,,30,14.75,104.366667
amphoe phra khanong,,42,13.7,100.6
amphoe phralap,,22,16.433333,102.833333
amphoe phra nakhon,,40,13.75,100.516667
amphoe phra nakhon si ayutthaya,,36,14.35,100.55
amphoe phran kratai,,11,16.666667,99.6
amphoe phrao,,02,19.35,99.183333
amphoe phra padaeng,,42,13.666667,100.533333
amphoe phra phutthabat,,37,14.716667,100.8
amphoe phra saeng,,60,8.516667,99.116667
amphoe phra sang,,60,8.516667,99.116667
amphoe phrom buri,,33,14.833333,100.45
amphoe phrom phiram,,12,17.033056,100.201944
amphoe phrs saeng,,60,8.516667,99.116667
amphoe phu khieo,,26,16.35,102.083333
amphoe phu kradung,,18,16.8,101.8
amphoe phunphin,,60,9.116667,99.2
amphoe phutthaisong,,28,15.533333,103.016667
amphoe phu wiang,,22,16.616667,102.366667
amphoe pla pak,,73,17.083333,104.516667
amphoe pong,,03,19.066667,100.233333
amphoe pong,,41,19.166667,100.283333
amphoe pong nam ron,,48,12.916667,102.383333
amphoe pon pi sai,,17,18.016667,103.083333
amphoe prachantakham,,45,14.066667,101.516667
amphoe prakhon chai,,28,14.55,103.05
amphoe pralap,,22,16.433333,102.833333
amphoe pran,,57,12.4,100
amphoe pranburi,,57,12.383333,99.916667
amphoe prang ku,,30,14.816667,103.966667
amphoe prao,,02,19.366667,99.216667
amphoe prasat,,29,14.55,103.316667
amphoe prathai,,27,15.516667,102.8
amphoe pua,,04,19.15,100.9
amphoe raman,,70,6.416667,101.35
amphoe rangae,,31,6.233333,101.7
amphoe ranot,,68,7.683333,100.266667
amphoe rasi saila,,30,15.333333,104.15
amphoe rasi salai,,30,15.333333,104.15
amphoe rat burana,,42,13.683333,100.5
amphoe rattanaburi,,29,15.316667,103.85
amphoe rattaphum,,68,7.05,100.166667
amphoe renu nakhon,,73,17,104.616667
amphoe rong kwang,,07,18.35,100.316667
amphoe ron phibun,,64,8.2,99.783333
amphoe ruso,,31,6.316667,101.433333
amphoe sa,,04,18.533333,100.7
amphoe saba yoi,,68,6.6,100.883333
amphoe sadao,,68,6.6,100.35
amphoe saengbadan,,25,16.033333,103.783333
amphoe sahaskhan,,23,16.866667,103.6
amphoe sahatkhan,,23,16.866667,103.6
amphoe sahatsakhan,,23,16.75,103.5
amphoe sai buri,,69,6.683333,101.616667
amphoe sai noi,,38,13.966667,100.316667
amphoe sai yok,,50,14.116944,99.1375
amphoe sa kaeo,,80,13.816667,102.066667
amphoe sakatkhan,,23,16.866667,103.6
amphoe sam chuk,,51,14.75,100.1
amphoe sam khok,,39,14.066667,100.533333
amphoe sam ko,,35,14.604167,100.246944
amphoe sam ngam,,13,16.516667,100.216667
amphoe sam ngao,,08,17.183333,98.983333
amphoe samoeng,,02,18.850278,98.732778
amphoe sam phran,,53,13.716667,100.216667
amphoe samrong thap,,29,15.016667,103.95
amphoe san buri,,32,15.05,100.166667
amphoe sangkha,,29,14.55,103.783333
amphoe sangkhah,,29,14.65,103.866667
amphoe sangkhlaburi,,50,14.733333,98.633333
amphoe sangkhla buri,,50,15.1,98.466667
amphoe sangkla buri,,50,14.733333,98.633333
amphoe sangu,,67,6.883333,99.783333
amphoe san kamphaeng,,02,18.742222,99.1225
amphoe sanom,,29,15.2,103.766667
amphoe san pa tong,,02,18.624722,98.894444
amphoe sanphaya,,32,15.116667,100.266667
amphoe san sai,,02,18.852222,99.045278
amphoe sanzai,,02,18.852222,99.045278
amphoe sao hai,,37,14.55,100.85
amphoe saraphi,,02,18.714167,99.035278
amphoe sarn buri,,32,15.05,100.166667
amphoe sathing phra,,66,7.416667,100.35
amphoe sathing phra,,68,7.466667,100.433333
amphoe satuk,,28,15.3,103.3
amphoe sawaeng ha,,35,14.75,100.333333
amphoe sawang daen din,,20,17.471944,103.458333
amphoe sawankhalok,,09,17.308611,99.834167
amphoe sawi,,58,10.233333,99.116667
amphoe seka,,17,17.9,103.866667
amphoe selabhum,,25,16.033333,103.95
amphoe selaphum,,25,16.033333,103.95
amphoe selephum,,25,16.033333,103.95
amphoe sena,,36,14.316667,100.4
amphoe shai buri,,17,18.383333,103.616667
amphoe si bun ruang,,19,16.883333,102.266667
amphoe si chiang mai,,17,17.956389,102.586667
amphoe si chomphu,,22,16.7,102.183333
amphoe sichon,,64,9,99.9
amphoe sikao,,65,7.566667,99.35
amphoe sikhiu,,27,14.899444,101.708333
amphoe si khoraphum,,29,14.916667,103.683333
amphoe si koraphum,,29,14.95,103.783333
amphoe si maha phot,,45,13.966667,101.516667
amphoe si muang mai,,71,15.366667,105.266667
amphoe si prachan,,51,14.616667,100.15
amphoe si racha,,46,13.166667,100.933333
amphoe sisaket,,30,15.116667,104.333333
amphoe si sakhon,,31,6.230556,101.499722
amphoe si samrong,,09,17.163056,99.867222
amphoe si satchanalai,,09,17.516667,99.766667
amphoe si sawat,,50,14.689167,99.0275
amphoe si songkhram,,73,17.533333,104.233333
amphoe si thep,,14,15.446944,101.0725
amphoe slephum,,25,16.033333,103.95
amphoe somdet,,23,16.633333,103.683333
amphoe song,,07,18.466667,100.183333
amphoe song dao,,20,17.336667,103.475556
amphoe songkla buri,,50,14.733333,98.633333
amphoe song phi nong,,51,14.2,100.066667
amphoe sop prap,,06,17.876111,99.343056
amphoe srihohrabhum,,29,14.95,103.783333
amphoe srikhohrabhum,,29,14.95,103.783333
amphoe srikhonphum,,29,14.95,103.783333
amphoe sukhodhai,,09,17.006389,99.823333
amphoe sukhothai,,09,17.006389,99.823333
amphoe sungai kolok,,31,5.95,101.883333
amphoe sungai padi,,31,6.085833,101.881389
amphoe sung men,,07,18.05,100.116667
amphoe sung noen,,27,14.898889,101.813889
amphoe suwanapum,,25,15.604722,103.8075
amphoe suwan khu ha,,19,17.578611,102.271111
amphoe suwannaphum,,25,15.604722,103.8075
amphoe suwannphum,,25,15.604722,103.8075
amphoe suwarnbhum,,25,15.604722,103.8075
amphoe tak bai,,31,6.266667,102.05
amphoe tak fa,,16,15.333333,100.5
amphoe ta khli,,16,15.25,100.35
amphoe takuadhung,,61,8.4,98.45
amphoe takua pa,,61,8.833333,98.366667
amphoe takuapa,,61,8.866667,98.35
amphoe takua thung,,61,8.4,98.45
amphoe takuatung,,61,8.4,98.45
amphoe taling chan,,38,13.766667,100.45
amphoe ta luang,,13,16.433333,100.366667
amphoe taluban,,69,6.703056,101.620278
amphoe talung,,28,14.616667,103.083333
amphoe taphan hin,,13,16.216667,100.433333
amphoe tasawng yang,,08,17.566667,97.916667
amphoe tawat buri,,25,16.116667,103.833333
amphoe tha bo,,17,17.845,102.584167
amphoe tha chana,,60,9.566667,99.15
amphoe tha chang,,60,9.266667,99.2
amphoe thai muang,,61,8.4,98.266667
amphoe tha kham,,60,9.1,99.233333
amphoe tha khanon,,60,9.033333,98.916667
amphoe tha khantho,,19,16.9,103.2
amphoe thalang,,62,7.95,98.266667
amphoe tha li,,18,17.533333,101.35
amphoe tha luang,,13,16.433333,100.366667
amphoe tha mai,,48,12.616667,102.016667
amphoe tha maka,,50,13.9,99.766667
amphoe tha muang,,50,13.966667,99.633333
amphoe than to,,70,6.166667,101.179167
amphoe thanyaburi,,39,14.016667,100.75
amphoe tha pla,,10,17.8,100.533333
amphoe thap pot,,61,8.516667,98.633333
amphoe thap put,,61,8.516667,98.633333
amphoe thap sakae,,57,11.483333,99.55
amphoe thap than,,15,15.459444,99.8925
amphoe tha rong,,14,15.658889,101.1125
amphoe tha rong chang,,60,9.083333,99.166667
amphoe tha rua,,36,14.566667,100.733333
amphoe tha sae,,58,10.666667,99.166667
amphoe tha sala,,64,8.666667,99.933333
amphoe tha song yang,,08,17.183333,98.15
amphoe tha tako,,16,15.633333,100.483333
amphoe that phanom,,73,16.9,104.716667
amphoe tha tum,,29,15.332778,103.6575
amphoe tha uthen,,73,17.533333,104.516667
amphoe tha wang pha,,04,19.066667,100.8
amphoe thawat buri,,25,16.116667,103.833333
amphoe tha wung,,34,14.816667,100.516667
amphoe tha yang,,56,12.966667,100.9
amphoe thepha,,68,6.766667,100.9
amphoe thoen,,06,17.6025,99.213889
amphoe thoeng,,03,19.616667,100.133333
amphoe thon buri,,42,13.716667,100.483333
amphoe thong pha phum,,50,14.65,98.616667
amphoe thung chang,,04,19.333333,100.8
amphoe thung saliam,,09,17.313611,99.558889
amphoe thung song,,64,8.15,99.733333
amphoe thung yai,,64,8.3,99.366667
amphoe to mo,,31,5.933333,101.916667
amphoe trakan phut phon,,71,15.616667,105.016667
amphoe tron,,10,17.477778,100.118889
amphoe tungsong,,64,8.15,99.733333
amphoe tuyong,,69,6.845278,101.188056
amphoe udhumbhornbhisai,,30,15.113333,104.140833
amphoe umphang,,08,16.016667,98.866667
amphoe u thai,,36,14.366667,100.666667
amphoe u-thong,,51,14.377222,99.894167
amphoe uthumphon phisai,,30,15.113333,104.140833
amphoe waeng,,31,5.866667,101.783333
amphoe wang chin,,07,17.890833,99.606389
amphoe wang ga,,50,15.1,98.466667
amphoe wangka,,50,15.1,98.466667
amphoe wang khanai,,50,13.966667,99.633333
amphoe wang noi,,36,14.216667,100.733333
amphoe wang nua,,06,19.083333,99.566667
amphoe wang saphung,,18,17.25,101.716667
amphoe wang thong,,12,16.833333,100.433333
amphoe wanon niwat,,20,17.633333,103.666667
amphoe wapi pathum,,24,15.85,103.383333
amphoe warin chamrap,,75,15.2,104.883333
amphoe warinjamrap,,75,15.2,104.883333
amphoe waritchaphum,,20,17.266667,103.583333
amphoe wat bot,,12,17,100.316667
amphoe wat pa,,14,16.783333,101.25
amphoe wat sing,,32,15.266667,100.05
amphoe watthana nakhon,,45,13.733333,102.316667
amphoe wiang pa pao,,03,19.25,99.466667
amphoe wichian,,14,15.658889,101.1125
amphoe wichian buri,,14,15.658889,101.1125
amphoe wiengpapao,,03,19.366667,99.5
amphoe wijiern,,14,15.658889,101.1125
amphoe wiset chai chan,,35,14.583333,100.35
amphoe xum seng,,16,15.9,100.316667
amphoe yaha,,70,6.416667,101.066667
amphoe yamu,,69,6.861667,101.365
amphoe yang chum noi,,30,15.266667,104.35
amphoe yangtalat,,23,16.4,103.383333
amphoe yang talat,,24,16.35,103.3
amphoe yan ta khao,,65,7.316667,99.633333
amphoe yarang,,69,6.683333,101.25
amphoe yaring,,69,6.766667,101.35
amphoe yasodhom,,72,15.795278,104.149444
amphoe yasodhorn,,72,15.795278,104.149444
amphoe yasothon,,72,15.795278,104.149444
amphoe yingo,,31,6.316667,101.616667
amphoe yong sata,,65,7.25,99.666667
amphoe zengbadan,,25,16.033333,103.783333
amphor kathum baen,,55,13.65,100.266667
amphu bang raka,,12,16.75,100.116667
amphu bangspan,,57,11.2,99.516667
amphu ban pong,,52,13.816667,99.883333
amphu chai badal,,34,15.207778,101.134722
amphu chorak sam pan,,51,14.328889,99.868333
amphu deum bang,,51,14.85,100.1
amphu keng koi,,37,14.583333,101.016667
amphu khao yoi,,56,13.216667,99.833333
amphu krok pra,,16,15.55,100.083333
amphu luang,,36,14.45,100.616667
amphu lubla,,10,17.65,100.033333
amphu memok,,06,18.366667,99.75
amphu me plick,,06,17.445278,99.122222
amphu metar,,05,18.461389,99.136111
amphu nang buai,,51,14.75,100.1
amphu nong chok,,56,12.95,99.966667
amphu paknam po,,16,15.716667,100.15
amphu panas nikom,,46,13.45,101.183333
amphu panom sarakam,,44,13.75,101.35
amphu phak hai,,36,14.45,100.366667
amphu piak puin pisai,,24,15.516667,103.2
amphu po ta-ram,,52,13.683333,99.85
amphu sao-hai,,37,14.55,100.85
amphu sawng pi nawng,,51,14.216667,100.05
amphu sena,,36,14.316667,100.4
amphu sopwa,,06,17.876111,99.343056
amphu sri maha raja,,46,13.166667,100.933333
amphu sri sawas,,50,14.689167,99.0275
amphu tap tan,,15,15.459444,99.8925
amphu trai yok,,50,14.416667,98.85
amphu yang ryong,,56,12.983333,99.883333
amphu yong star,,65,7.25,99.666667
ampur takbai,,31,6.266667,102.05
ampur tomo,,31,5.933333,101.916667
angdhohng,,35,14.583333,100.45
ang dhong,,57,11.433333,99.566667
anghila,,46,13.333333,100.933333
anghin,,46,13.333333,100.933333
ang let,,48,12.6,102.316667
ang sila,,46,13.333333,100.933333
ang thaung,,35,14.583333,100.45
ang thaung,,52,13.483333,99.8
ang thong,14430,35,14.583333,100.45
ang thuang,,68,6.733333,100.933333
angtong,,55,13.65,100.233333
ang wian,,46,13.266667,101.216667
ao loek,,63,8.383333,98.716667
ao loek tai,,63,8.383333,98.716667
ao luk,13263,63,8.383333,98.716667
ao noi,,57,11.85,99.833333
ao sisiat,,44,13.783333,101.366667
ao yai,,49,12.083333,102.55
ao yang,,57,11.183333,99.566667
ao yuan,,49,12.083333,102.566667
aranh,,80,13.683333,102.5
aran pradhesa,,80,13.683333,102.5
aran pradhet,,80,13.683333,102.5
aran prathet,,80,13.683333,102.5
aranya pradesa,,80,13.683333,102.5
aranya pradhesa,,80,13.683333,102.5
aranyaprathet,,80,13.683333,102.5
arawa,,49,12.116667,102.65
at samat,,25,15.859444,103.859722
aum phanom,,46,13.266667,101.433333
ayouthia,,36,14.35,100.55
ayudhya,,36,14.35,100.55
ayuthaya,,36,14.35,100.55
ayuthia,,36,14.35,100.55
ayuthya,,36,14.35,100.55
ayutia,,36,14.35,100.55
ayutthaya,81962,36,14.35,100.55
ayutthia,,36,14.35,100.55
ayutya,,36,14.35,100.55
baanburaisoi,,46,13.366667,100.983333
bacho,,31,6.616667,101.65
ba cho,,69,6.518889,101.651944
bachok,,31,6.616667,101.65
badalung,,66,7.616667,100.083333
baen,,64,8.35,99.766667
bagan tohit,,67,6.783333,99.816667
ba go pimun,,11,16.616667,99.45
ba go ta liyang,,09,17.129722,99.853611
baheng,,08,16.866667,99.133333
bah jau ta,,08,16,98.866667
bah nong krabu,,71,14.976389,105.087778
ba huai leuk,,06,18.45,99.45
bai huai sing,,01,18.055,97.917778
bakcharang,,29,14.5,103.566667
ba lae,,31,6.6,101.65
bamhnech narong,,26,15.499167,101.689722
bamnech narong,,26,15.499167,101.689722
bamnet narong,14890,26,15.499167,101.689722
bam tum,,24,16.183333,103.45
ba na dok mai,,19,17.730833,102.855278
ban aen,,02,18.030833,98.607222
ban aeng puk,,49,12.566667,102.45
ban a ham,,04,19.066667,100.8
ban a hi,,18,17.616667,101.25
ban a-hong,,17,18.35,103.383333
ban a hong,,17,18.416667,103.466667
ban ai baen,,55,13.65,100.083333
ban ai,,02,19.616667,99.083333
ban ai,,04,18.533333,100.7
ban ai,,30,15.116667,104.1
ban ai batia,,31,6.169444,101.836111
ban ai bu,,03,19.983333,99.666667
ban ai bu tae,,31,6.049722,101.568611
ban ai cha,,27,15.113056,101.908333
ban ai dao,,63,7.583333,98.983333
ban ai hit,,50,14.076389,99.186944
ban ai ja,,27,15.113056,101.908333
ban ai ka se,,31,6.091944,101.541944
ban ai khaem,,44,13.616667,101.133333
ban ai khieo,,64,8.55,99.8
ban ai khong,,26,15.541389,101.488333
ban ai khu,,64,8.566667,99.85
ban ai khwan,,47,12.65,101.316667
ban ai ku bu,,31,6.175556,101.878611
ban ai kwan,,47,12.65,101.316667
ban ai lao,,48,12.55,101.933333
ban ai lim,,07,17.95,99.7
ban ai maeo,,12,16.816667,100.166667
ban ai meo,,12,16.816667,100.166667
ban ai mu,,64,8.633333,99.883333
ban ai mu se,,31,6.016944,101.7
ban ai na lai,,04,18.533333,100.7
ban ai ngam,,48,14.2,100.45
ban ai paet,,36,14.266667,100.366667
ban ai phlai,,43,14.2,101.133333
ban ai rot,,45,13.883333,101.216667
ban ai satia,,31,6.166667,101.833333
ban ai si,,64,8.016667,100.216667
ban ai su rae,,31,6.033333,101.614444
ban ai ta beng,,70,6.236944,101.365
ban ai thui,,48,12.733333,101.816667
ban ai thum,,36,14.25,100.283333
ban ai toem,,36,14.25,100.283333
ban ai tot,,63,7.8,98.983333
ban ai tui,,31,6.186389,101.535278
ban ai waen,,36,14.183333,100.466667
ban ai we,,31,6.171111,101.768611
ban ai yai,,66,7.583333,100.083333
ban ai yoe baro,,70,5.983333,101.166667
ban ai yoe boe chang,,70,5.733333,101.133333
ban ai yoe khem,,70,5.933333,101.183333
ban ai yoe weng,,70,5.916667,101.116667
ban akat,,20,17.6,103.983333
ban a khun,,29,15.209722,103.513056
ban a kian,,28,15.133333,103.283333
ban a kiang,,29,14.933333,103.833333
ban a ku,,03,20.266667,99.633333
ban a lae,,03,20.116667,99.666667
ban alang,,30,15.056111,104.181944
ban a lao,,30,14.833333,104.716667
ban al cha bae,,31,6.309167,101.419167
ban al chu cho,,31,6.137778,101.481944
ban al chu na,,31,6.284444,101.493333
ban al ku bu,,31,6.175556,101.878611
ban alo,,29,15.016667,103.466667
ban al tae tae,,31,6.199722,101.473056
ban amarit,,36,14.466667,100.366667
ban ammarat,,60,8.783333,99.216667
ban ammarit,,36,14.466667,100.366667
ban amnaj,,71,15.683333,104.65
ban amnat,,71,15.683333,104.65
ban ampeng,,55,13.6,100.2
ban amper,,46,12.816667,100.916667
ban amphaeng,,55,13.6,100.2
ban amphawa,,48,12.566667,101.933333
ban amphawa,,54,13.416667,99.95
ban ampheu,,46,12.816667,100.916667
ban amphoe,,46,12.816667,100.916667
ban amphoe kamalasai,,23,16.333333,103.583333
ban amphoe ngao,,06,18.7575,99.978333
ban ampin,,29,14.435278,103.330278
ban ampuen,,29,14.435278,103.330278
ban ampun,,29,14.366667,103.316667
ban amrit,,36,14.466667,100.366667
ban an,,06,18.133333,99.516667
ban ang,,47,12.65,101.633333
ban ang,,48,12.633333,102.216667
ban ang,,61,8.7,98.35
ban ang et,,48,12.6,102.316667
ban ang hin,,51,14.883333,99.966667
ban ang hin yai,,71,15.05,105.283333
ban ang khai,,02,18.953889,98.578056
ban angkon,,27,14.5,102.25
ban ang maha,,45,13.833333,101.616667
ban ang muang,,44,13.633333,101.466667
ban ang phai,,80,13.732222,102.344722
ban ang sila,,46,13.333333,100.933333
ban ang tabaek,,44,13.75,101.633333
ban ang taek,,39,14,100.366667
ban ang thaung,,16,15.85,99.95
ban ang thong,,16,15.85,99.95
ban ang thong,,47,12.716667,101.6
ban ang thong,,52,13.483333,99.8
ban ang thong,,55,13.65,100.233333
ban ang thong,,57,11.433333,99.566667
ban ang thong,,60,8.55,99.283333
ban ang thong,,68,6.733333,100.933333
ban ang thong nai,,52,13.466667,99.783333
ban ang thong yai,,52,13.483333,99.8
ban ang wian,,46,13.266667,101.216667
ban an sam,,29,14.566667,103.266667
ban ao a-rawa,,49,12.116667,102.65
ban ao,,25,16.2,103.583333
ban ao bang khu,,61,8.9,98.266667
ban ao bang rak,,60,9.55,100.05
ban ao bo le,,61,7.916667,98.583333
ban ao bo le,,71,7.45,98.5
ban ao cho,,49,12.066667,102.55
ban ao ek,,61,9.033333,98.35
ban ao fat,,49,11.8,102.483333
ban ao kathum,,51,14.933333,100.05
ban ao kham,,49,12.05,102.566667
ban ao kham,,61,8.216667,98.45
ban ao khian,,64,8.216667,100.1
ban ao kho,,58,10.266667,99.183333
ban ao khoei,,59,9.633333,98.483333
ban ao khoei,,61,9.3,98.383333
ban ao kongkang,,49,12.05,102.383333
ban ao ko thon noi,,62,8.066667,98.283333
ban ao krathum,,51,14.933333,100.05
ban ao kung,,62,8.083333,98.416667
ban ao ku ning,,61,9.183333,98.266667
ban ao ling,,61,8.75,98.266667
ban ao luk nua,,63,8.4,98.75
ban ao luk tai,,63,8.383333,98.716667
ban ao luk tum,,61,9.216667,98.266667
ban ao makham,,61,8.216667,98.45
ban ao makham,,62,7.766667,98.35
ban ao makham,,67,6.567778,99.625278
ban ao makham pom,,47,12.65,101.65
ban ao manao,,31,6.433333,101.845
ban ao muang,,58,10.15,99.166667
ban ao mu,,48,12.483333,102.05
ban ao na,,66,7.45,100.35
ban ao nam mao,,63,8.033333,98.866667
ban ao nang,,63,7.95,98.816667
ban ao noi,,57,11.85,99.833333
ban ao phayom,,45,14.1,101.333333
ban ao phra,,49,11.816667,102.45
ban ao pradu,,47,12.683333,101.15
ban ao prah du,,47,12.683333,101.15
ban ao sai,,68,7.183333,100.55
ban ao salat,,49,11.716667,102.566667
ban ao sapparot,,49,12.133333,102.283333
ban ao sisiat,,44,13.783333,101.366667
ban ao thong khrok,,58,10.05,99.166667
ban ao toei,,59,9.633333,98.483333
ban ao tom,,58,10.066667,99.15
ban ao ton,,59,10.116667,98.683333
ban ao tu,,61,8.9,98.266667
ban ao tu khun,,62,8.15,98.333333
ban ao udom,,46,13.133333,100.9
ban ao we,,61,9.033333,98.35
ban ao yai,,49,11.6,102.583333
ban ao yang,,57,11.116667,99.533333
ban ao yuan,,49,12.083333,102.566667
ban a phat,,66,7.516667,100.183333
ban a phon,,29,14.483333,103.933333
ban aphut,,30,15.166667,103.966667
ban aran,,80,13.683333,102.5
ban arang,,28,15.15,103.216667
ban aranyaprathet,,80,13.683333,102.5
ban aranyik,,36,14.5,100.666667
ban aranyik,,52,13.566667,99.8
ban arawa,,49,12.116667,102.65
ban ardsamard,,25,15.859444,103.859722
ban asa,,43,14.233333,101.066667
ban a sa mat,,73,17.466667,104.733333
ban atchaya,,29,15.355278,103.767778
ban a thi,,30,14.733333,104.25
ban at samat,,25,15.859444,103.859722
ban au,,02,18.724722,98.955556
ban au ek,,61,9.033333,98.35
ban auk,,59,9.6,98.55
ban au koi,,59,9.633333,98.483333
ban au koi,,61,9.3,98.383333
ban au lau,,38,13.833333,100.633333
ban auluek,,63,8.383333,98.716667
ban aum thaung,,12,16.9,100.216667
ban aun,,02,18.770833,99.2575
ban aun,,06,18.762778,99.909444
ban aung raung,,06,17.883333,99.4
ban au ton,,59,10.116667,98.683333
ban au tum,,61,9.216667,98.266667
ban a wae,,29,15.086111,103.751389
ban a woi,,30,14.666667,104.133333
ban a wok,,29,14.7,103.883333
ban aya,,17,18.266667,103.2
ban a-yo,,03,20.031389,99.7575
ban a yo,,29,15.181944,103.713611
ban a yong,,29,15.05,103.683333
ban ba,,29,15.216667,103.566667
ban ba bit,,63,7.766667,98.983333
ban bachock,,31,6.616667,101.65
ban ba dan,,27,14.529444,101.967222
ban ba do,,70,6.577778,101.272222
ban baek,,24,16.35,103.033333
ban baek,,72,15.833333,104.1
ban baek kru,,08,15.85,98.683333
ban baekrukru,,08,15.85,98.683333
ban baeng,,17,18,103.25
ban baeng,,30,14.766667,104.2
ban baeng,,41,19.25,100.366667
ban baeng malu,,30,14.55,104.666667
ban baeng noi,,17,18.016667,103.25
ban baen phichit,,39,13.833333,100.666667
ban bagan yai,,67,6.716667,99.85
ban ba hai,,71,15.366667,105.45
ban ba hi,,20,17.433333,103.9
ban ba hi,,71,15.583333,105.316667
ban ba hua moei,,20,17.433333,103.933333
ban ba ing,,69,6.859444,101.151111
ban bai wai,,50,14.566667,98.716667
ban ba jao,,31,6.616667,101.65
ban ba ka,,31,6.479444,101.7925
ban ba kan,,61,8.166667,98.366667
ban ba kan,,63,7.833333,99.133333
ban ba kan ko,,63,7.683333,99.116667
ban ba kan koei,,67,6.6,99.966667
ban ba kan pa,,61,8.166667,98.616667
ban bakan pao,,61,8.166667,98.616667
ban bakan peng,,61,8.166667,98.616667
ban ba kan to hin,,67,6.683333,99.8
ban bakan tohit,,67,6.783333,99.816667
ban bakan yai,,67,6.716667,99.85
ban ba kan yai,,67,6.716667,99.85
ban bak,,25,15.985,103.513056
ban bak,,45,14.1,101.5
ban bak,,71,15.133333,104.833333
ban bak,,72,15.833333,104.1
ban bak,,78,16.216667,104.866667
ban bak charang,,25,14.466667,103.5
ban bak charang,,29,14.5,103.566667
ban bak dok,,29,14.616667,103.283333
ban bak dong,,30,14.566667,104.45
ban baketa,,31,5.816667,101.866667
ban ba khae,,22,15.933333,102.566667
ban bak klang,,07,18.05,99.8
ban bak lao,,45,14.102778,101.857778
ban bak nam,,71,15.28,104.970556
ban ba kong,,31,6.3225,101.509444
ban ba kong,,69,6.781389,101.395833
ban bak phlu long,,44,13.5,101.583333
ban bak phraek,,31,6.25,102.033333
ban bak rua,,72,15.55,104.316667
ban ba kum,,71,15.566667,105.333333
ban bala,,31,5.833333,101.85
ban bala,,70,6.366667,101.033333
ban ba la,,70,6.381667,101.041389
ban balae,,31,6.6,101.65
ban balae nua,,31,6.583333,101.65
ban bale,,31,6.6,101.65
ban bale nua,,31,6.583333,101.65
ban ba lo,,70,6.45,101.45
ban ba lo ba ta,,70,6.397778,101.206944
ban ba lu ka,,31,6.038056,101.875833
ban ba lu ka hi le,,31,6.371389,101.442778
ban ba lu ka hu lu,,31,6.35,101.466667
ban ba lu ka tu ngo,,69,6.698056,101.4125
ban baluru,,31,6.113333,101.900833
ban bamhnetnarong,,26,15.499167,101.689722
ban ba nam oi,,16,15.416667,100.133333
ban ba nam ron,,67,6.85,100.133333
ban ban bung,,46,13.3,101.116667
ban bang ai rai,,45,13.916667,101.216667
ban ba ngan,,64,8.45,99.966667
ban bang ap,,61,8.783333,98.333333
ban bang ba,,12,16.833333,100.066667
ban bang ba,,61,8.55,98.483333
ban bang bal,,36,14.416667,100.466667
ban bang bal,,60,9.066667,99.15
ban bang bamru,,38,13.783333,100.483333
ban bang ban,,36,14.416667,100.466667
ban bang ban,,60,9.066667,99.15
ban bang,,09,16.966667,99.816667
ban bang,,71,15.316667,105.066667
ban bang bao,,49,11.616667,102.55
ban bang bao,,60,8.916667,99.166667
ban bang baun dai,,59,10.35,98.783333
ban bang baun nua,,59,10.35,98.8
ban bang ben,,59,9.616667,98.483333
ban bang bhlu thoean,,60,8.733333,98.766667
ban bang bo,,42,13.566667,100.833333
ban bang bo,,44,13.6,101.233333
ban bang bo,,54,13.4,100.033333
ban bang bo,,55,13.483333,100.083333
ban bang bon,,51,14.283333,100.05
ban bang bon,,60,8.883333,98.666667
ban bang bon nua,,59,10.35,98.8
ban bang bon tai,,59,10.333333,98.783333
ban bang boribun,,45,14.05,101.4
ban bang bua thong,,38,13.9,100.433333
ban bang bu,,64,8.066667,100.116667
ban bang but,,47,12.8,101.316667
ban bang chaak,,64,8.35,100.083333
ban bang chaang,,53,13.7,100.15
ban bang cha,,16,15.55,100.1
ban bang chai,,16,15.933333,100.366667
ban bang chai,,35,14.65,100.3
ban bang chak,,35,14.5,100.366667
ban bang chak,,42,13.616667,100.55
ban bang chak,,44,13.55,100.966667
ban bang chak,,56,13.15,99.9
ban bang chak,,61,8.133333,98.633333
ban bang chak,,62,7.816667,98.35
ban bang chak,,64,7.966667,100.333333
ban bang chakreng,,54,13.383333,100
ban bang chalong,,42,13.633333,100.75
ban bang cham,,61,8.35,98.4
ban bang chanak,,64,8.366667,100.216667
ban bang chan,,40,13.816667,100.7
ban bang chan,,48,12.333333,102.283333
ban bang chan,,56,13.116667,100
ban bang chan,,59,10.316667,98.8
ban bang chan,,61,8.15,98.383333
ban bang chang,,53,13.7,100.15
ban bang chani,,36,14.433333,100.466667
ban bang chanuan,,43,14.033333,101.083333
ban bang chao cha,,35,14.691944,100.448611
ban bang chao cha tok,,35,14.691944,100.448611
ban bang cha phlung,,48,12.583333,101.933333
ban bang chet ton,,16,15.9,100.183333
ban bang chiang khon,,43,14.183333,101.083333
ban bang chieo,,64,8.45,100.05
ban bang chik,,33,14.8,100.466667
ban bang chik,,44,13.85,101.15
ban bang chik,,51,14.283333,100.016667
ban bang chin,,61,8.15,98.383333
ban bang ching,,61,9.066667,98.35
ban bang choek,,38,13.833333,100.333333
ban bang chong,,56,12.916667,100.033333
ban bang chuak,,38,13.833333,100.333333
ban bang chuak,,44,13.883333,101.133333
ban bang chuak khao,,44,13.883333,101.133333
ban bang chuak nang,,38,13.75,100.416667
ban bang daeng,,61,9.083333,98.45
ban bang daet,,61,9.133333,98.366667
ban bang dan,,68,7.133333,100.6
ban bang dane,,80,13.721111,102.461667
ban bang de,,60,9,99.1
ban bang decha,,45,14.033333,101.35
ban bang ded,,61,9.133333,98.366667
ban bangdeng,,61,9.083333,98.45
ban bang dha-lu,,56,13.016667,100.05
ban bang di,,65,7.833333,99.516667
ban bang dua,,36,14.433333,100.583333
ban bang dua,,39,13.983333,100.533333
ban bang duan,,56,13.233333,99.933333
ban bang duan,,57,11.683333,99.733333
ban bang duan,,58,10.883333,99.45
ban bang duan,,60,9.066667,99.1
ban bang duan,,64,8.066667,100.116667
ban bang duan,,65,7.833333,99.533333
ban bang duk,,62,8.133333,98.333333
ban bang epon,,43,14.133333,101.033333
ban bang gaphi,,34,15.066667,100.616667
ban bang gathum,,12,16.566667,100.3
ban bang gea,,59,10.1,98.766667
ban bang geo,,59,10.166667,98.766667
ban bang gwai,,56,12.716667,99.966667
ban bang hak,,35,14.566667,100.383333
ban bang hak,,36,14.433333,100.433333
ban bang hak,,46,13.55,101.066667
ban bang ham,,56,13.116667,99.9
ban bang hia,,42,13.5,100.816667
ban bang hian,,60,8.583333,98.916667
ban bang hian,,63,8.55,99.883333
ban bang hin,,59,9.533333,98.583333
ban bang hin,,60,9.066667,99.066667
ban bang hin,,63,8.166667,99.3
ban bang hin klang,,59,9.533333,98.583333
ban bang hin ngam,,63,8.533333,98.683333
ban bang hin phu,,63,8.583333,98.75
ban bang hmo,,36,14.283333,100.416667
ban bang hoi,,45,14,101.183333
ban bang hoi,,60,8.466667,99
ban bang hoi,,63,8.633333,98.783333
ban bang hon,,59,10.15,98.783333
ban bang hua lom,,14,16.25,101.066667
ban bang i daeng,,51,14.281111,99.993056
ban bang i ma,,48,12.55,102.033333
ban bang i nang,,34,14.9,100.483333
ban bang in,,49,11.75,102.783333
ban bang i phon,,43,14.133333,101.033333
ban bang i rong,,54,13.483333,99.916667
ban bang i sun,,52,13.45,99.883333
ban bang it,,34,14.933333,100.483333
ban bang it,,64,8.316667,100.116667
ban bang i tong,,42,13.633333,100.9
ban bang kabao,,45,14,101.233333
ban bang kabao,,53,13.8,100.183333
ban bang kacha,,48,12.583333,102.05
ban bang kachae,,13,16.35,100.383333
ban bang kachai,,48,12.516667,102.033333
ban bang ka chap,,56,13.3,99.833333
ban bang kachet,,44,13.833333,101.216667
ban bang kadan,,49,12.266667,102.283333
ban bang kadi,,39,14.016667,100.533333
ban bang kadi pathum thani,,39,14.016667,100.533333
ban bang kae,,36,14.216667,100.5
ban bang kae,,59,10.1,98.766667
ban bang kaen chan,,59,10.116667,98.766667
ban bang kaeo,,11,16,99.866667
ban bang kaeo,,35,14.583333,100.45
ban bang kaeo,,44,13.75,101.1
ban bang kaeo,,52,13.683333,99.766667
ban bang kaeo,,53,13.783333,100.166667
ban bang kaeo,,56,13.1,100.066667
ban bang kaeo,,59,10.166667,98.766667
ban bang kaeo,,60,9.016667,98.733333
ban bang kaeo,,61,8.583333,98.533333
ban bang kaeo,,66,7.5,100.2
ban bang kaeo fa,,53,13.883333,100.216667
ban bang kaeo noi,,59,10.166667,98.766667
ban bang kaeo yai,,42,13.633333,100.683333
ban bang kaeo yai,,59,10.166667,98.766667
ban bang kahai,,44,13.666667,101.016667
ban bang kaho,,34,14.75,100.483333
ban bang kai,,47,12.766667,101.3
ban bang kai,,59,10.033333,98.75
ban bang kai noi,,12,16.6,100.333333
ban bang kai tia,,55,13.533333,100.233333
ban bang kalo,,46,12.966667,100.883333
ban bang kamod,,37,14.616667,100.733333
ban bang kan,,61,8.55,98.466667
ban bang kang,,56,13.25,99.933333
ban bang kan luang,,32,15.233333,100.083333
ban bang kanoi,,12,16.6,100.333333
ban bang kao,,56,12.9,100.016667
ban bang kao tai,,69,6.766111,101.601944
ban bang kaphiang,,34,14.983333,100.466667
ban bang kaphi,,34,15.066667,100.616667
ban bang kaphlo,,45,13.983333,101.216667
ban bang kapho,,44,13.7,101.2
ban bang kapho,,45,13.983333,101.216667
ban bang kaphong,,45,13.966667,101.583333
ban bang kaphro,,44,13.7,101.2
ban bang kapiang,,34,14.983333,100.466667
ban bang kapi,,33,15,100.35
ban bang ka ran,,44,13.516667,101
ban bang ka rong,,51,14.15,100.133333
ban bang kasop,,42,13.666667,100.566667
ban bang katin,,58,10.4,99.2
ban bang ket,,53,13.716667,100.15
ban bang ket,,56,12.85,100
ban bang kew,,53,13.783333,100.166667
ban bang kew,,56,13.1,100.066667
ban bang kha,,42,13.616667,100.916667
ban bang kha,,43,14.073333,101.110833
ban bang kha,,44,13.75,101.283333
ban bang khae,,42,13.716667,100.416667
ban bang khaem,,34,14.733333,100.55
ban bang khaem,,53,13.766667,100.033333
ban bang khaem,,64,8.233333,100.2
ban bang kham,,18,17.533333,101.433333
ban bang kham,,45,13.883333,101.266667
ban bang kham,,56,13.116667,99.9
ban bang khamoi,,53,13.916667,100.216667
ban bang khamot,,37,14.616667,100.733333
ban bang khanak,,35,14.533333,100.366667
ban bang khanak,,44,13.866667,101.133333
ban bang khanak,,64,8.366667,100.216667
ban bang khan,,34,14.7,100.583333
ban bang khan,,39,14.05,100.616667
ban bang khan,,61,8.833333,98.45
ban bang khan chang,,51,14.25,100.133333
ban bang khang,,51,14.283333,100.05
ban bang khang,,61,9.05,98.416667
ban bang khanmak nua,,34,14.816667,100.583333
ban bang khanoi,,12,16.6,100.333333
ban bang khan taek,,54,13.383333,99.933333
ban bang khanthi,,62,7.8,98.35
ban bang khao,,60,8.916667,99.166667
ban bang khao,,69,6.833333,101.15
ban bang khayaeng,,45,14.05,101.466667
ban bang khayaeng,,52,13.683333,99.833333
ban bang khayo,,43,14.15,101.033333
ban bang khem,,64,8.233333,100.2
ban bang khem nua,,64,8.233333,100.2
ban bang khem tai,,64,8.233333,100.2
ban bang khen,,38,13.866667,100.533333
ban bang khian,,16,15.816667,100.183333
ban bang khi nak,,64,8.25,100.033333
ban bang khla,,44,13.716667,101.216667
ban bang khlan,,13,16.016667,100.266667
ban bang khlang,,64,8.216667,100.133333
ban bang khli,,61,8.316667,98.283333
ban bang khlong,,09,17.047778,99.827778
ban bang khluai nai,,59,9.383333,98.416667
ban bang khluai nok,,59,9.4,98.433333
ban bang kho ba,,38,13.866667,100.4
ban bang kho,,38,13.833333,100.416667
ban bang khoei,,64,8.083333,100.316667
ban bang khoi,,58,10.416667,99.216667
ban bang khom,,43,14.083333,101.133333
ban bang khon,,02,18.6575,98.474167
ban bang khon,,66,7.4,100.25
ban bang khonthi,,33,14.883333,100.366667
ban bang khonthi,,54,13.466667,99.933333
ban bang khram,,63,7.866667,99.166667
ban bang khrang,,61,9.05,98.416667
ban bang khrok,,44,13.533333,100.9
ban bang khrok,,56,13.2,99.95
ban bang khrok,,61,8.783333,98.266667
ban bang khuan,,65,7.766667,99.533333
ban bang khuan,,66,7.4,100.25
ban bang khuat,,36,14.383333,100.55
ban bang khu,,34,14.8,100.533333
ban bang khu,,53,13.766667,100.05
ban bang khu,,60,9.216667,99.816667
ban bang khu,,62,7.866667,98.35
ban bang khuk,,62,8.133333,98.333333
ban bang khun long,,59,9.566667,98.666667
ban bang khun sai,,56,13.183333,100.016667
ban bang khun zai,,56,13.183333,100.016667
ban bang khu rot,,61,9.1,98.45
ban bang khut,,55,13.483333,100.183333
ban bang khu wat,,39,13.95,100.516667
ban bang khu wiang,,38,13.816667,100.4
ban bang khwai,,34,14.983333,100.466667
ban bang khwai,,39,14.066667,100.516667
ban bang khwai,,44,13.583333,100.983333
ban bang khwai,,52,13.466667,99.85
ban bang khwai,,56,12.716667,99.966667
ban bang khwak,,51,14.733333,100.1
ban bang khwan,,37,14.583333,100.766667
ban bang khwan,,44,13.7,101.1
ban bang khwan,,53,13.716667,100.1
ban bang khwan,,61,8.216667,98.283333
ban bang khwang,,36,14.233333,100.45
ban bang khwang,,38,13.833333,100.5
ban bang khwan ma,,12,16.666667,100.283333
ban bang kian,,16,15.816667,100.183333
ban bang klak,,61,8.85,98.366667
ban bang klak nai,,61,8.866667,98.383333
ban bang klam,,68,7.1,100.416667
ban bang klam ban tai,,68,7.1,100.416667
ban bang klan,,13,16.016667,100.266667
ban bang klang,,13,16.016667,100.266667
ban bang klat,,61,8.85,98.366667
ban bang klaung,,09,17.047778,99.827778
ban bang klee,,61,8.316667,98.283333
ban bang klong,,61,8.8,98.516667
ban bang klua,,44,13.516667,100.95
ban bang kluai nai,,59,9.383333,98.416667
ban bang kluai nok,,59,9.4,98.433333
ban bang klui nai,,59,9.383333,98.416667
ban bang klui nok,,59,9.4,98.433333
ban bang knag,,64,8.366667,100.216667
ban bang kom,,68,6.75,100.366667
ban bang kong,,60,8.516667,99.1
ban bang kong,,64,8.2,99.716667
ban bang kraba,,53,13.9,100.216667
ban bang kraban,,09,16.966667,99.816667
ban bang kra,,52,13.6,99.8
ban bang krabao,,45,13.966667,101.166667
ban bang krabu,,33,14.916667,100.383333
ban bang krabu,,38,13.866667,100.416667
ban bang krabu,,39,14.1,100.533333
ban bang krabu tai,,33,14.916667,100.383333
ban bang krachai,,48,12.516667,102.033333
ban bang krachao,,55,13.516667,100.2
ban bang kra chik,,43,14.083333,101.05
ban bang kradan,,49,12.266667,102.283333
ban bang kradi,,39,13.983333,100.55
ban bang krado,,52,13.65,99.9
ban bang krahtum,,12,16.566667,100.3
ban bang kran,,44,13.516667,101
ban bang krang,,38,13.833333,100.45
ban bang krang,,61,9.05,98.416667
ban bang kraphi,,34,15.066667,100.616667
ban bang krasan,,36,14.2,100.566667
ban bang krasan,,53,13.7,100.2
ban bang kra son,,36,14.2,100.566667
ban bang krasop,,42,13.666667,100.566667
ban bang krasu,,39,13.983333,100.55
ban bang krathep,,51,14.666667,100.216667
ban bang kret,,44,13.766667,101.25
ban bang krok,,44,13.533333,100.9
ban bang krok,,51,14.703333,99.966667
ban bang krut,,64,8.3,100.233333
ban bang kula,,51,14.883333,100.116667
ban bang kula,,56,12.983333,100.05
ban bang kum,,36,14.533333,100.616667
ban bang kum,,61,9.216667,98.433333
ban bang kung,,44,13.783333,101.2
ban bang kung,,45,13.983333,101.466667
ban bang kung,,51,14.4575,99.986944
ban bang kung,,62,8.083333,98.416667
ban bang kurod,,61,9.1,98.45
ban bang kwian,,39,14.066667,100.55
ban bang la,,61,8.816667,98.366667
ban bang la,,62,7.983333,98.383333
ban bang lahung,,52,13.583333,99.783333
ban bang lai,,13,16.183333,100.25
ban bang lam,,61,8.25,98.4
ban bang lam,,62,7.983333,98.383333
ban bang lamphu,,42,13.6,100.733333
ban bang lam phu,,59,9.583333,98.6
ban bang lamphu,,61,8.8,98.266667
ban bang lampu,,59,9.583333,98.6
ban bang lamung,,46,13.05,100.933333
ban bang lamut,,58,10.016667,99.133333
ban bang lan,,52,13.633333,99.866667
ban bang lan,,61,8.816667,98.366667
ban bang lan,,63,8.283333,99.033333
ban bang lang,,70,6.206944,101.272222
ban bang lan khwai,,64,8.066667,100.133333
ban bang lao,,31,6.383333,101.766667
ban bang lao,,33,14.916667,100.383333
ban bang lao,,42,13.583333,100.75
ban bang lao,,44,13.7,101.166667
ban bang lao,,52,13.7,99.85
ban bang lao,,63,8.4,98.666667
ban bang lao,,64,8.683333,99.783333
ban bang lao,,68,6.933333,100.45
ban bang la on,,61,8.65,98.25
ban bang larm,,61,8.25,98.4
ban bang lat,,59,10.2,98.733333
ban bang latho,,53,13.75,100.1
ban bang lau,,31,6.383333,101.766667
ban bang lau,,42,13.583333,100.75
ban bang len(2),,51,14.3,100.15
ban bang len,,38,13.833333,100.433333
ban bang len,,51,14.2,100.066667
ban bang len,,53,14.016667,100.166667
ban bang le nua,,64,7.95,100.316667
ban bang li(1),,34,14.833333,100.516667
ban bang liang,,63,8.316667,99.25
ban bang liang,,68,7.05,100.35
ban bang liap,,58,10.666667,99.3
ban bangli,,51,14.233333,100.033333
ban bang lin,,59,9.916667,98.633333
ban bang lo,,60,8.55,99.116667
ban bang lord,,68,7.883333,100.316667
ban bang lot,,44,13.766667,101.2
ban bang lot,,68,7.883333,100.316667
ban bang luang,,36,14.383333,100.433333
ban bang luang,,53,14.116667,100.116667
ban bang luang,,63,8.2,99.316667
ban bang luang dod,,36,14.4,100.433333
ban bang luang dot,,36,14.4,100.433333
ban bang luang muang,,36,14.383333,100.433333
ban bang lu,,61,9.183333,98.416667
ban bang luk,,58,10.533333,99.166667
ban bang luk,,60,8.666667,98.7
ban bang luk,,64,8.366667,100.15
ban bang luk sua,,43,14.03,101.06
ban bang ma,,12,16.833333,100.066667
ban bang ma,,61,8.516667,98.433333
ban bang madua,,38,13.866667,100.433333
ban bang mae mai,,51,14.283333,100.133333
ban bang maeo,,35,14.633333,100.466667
ban bang mafau,,16,15.6,100.1
ban bang mafo,,16,15.6,100.1
ban bang mafo nai,,16,15.6,100.1
ban bang mafuang,,44,13.666667,101.45
ban bang mai mok,,64,8.3,100.05
ban bang mai muk,,64,8.3,100.05
ban bang makap,,61,8.933333,98.266667
ban bang mak,,58,10.483333,99.2
ban bang mak,,61,8.416667,98.45
ban bang mak,,65,7.416667,99.533333
ban bang makham,,60,9.55,99.933333
ban bang mak khan,,42,13.55,100.6
ban bang mak noi,,65,7.5,99.566667
ban bangmalu,,30,14.55,104.666667
ban bang man,,33,14.916667,100.4
ban bang man,,58,9.833333,99.133333
ban bang ma ni,,61,9.1,98.366667
ban bang ma noi,,61,8.55,98.416667
ban bang marako,,61,8.633333,98.533333
ban bang mato,,16,15.6,100.1
ban bang mayom,,34,14.85,100.533333
ban bang me hmai,,51,14.283333,100.133333
ban bang mek khao,,42,13.55,100.6
ban bang-me-maj,,51,14.283333,100.133333
ban bang mi dai,,59,10.35,98.75
ban bang mi nua,,59,10.35,98.766667
ban bang mi tai,,59,10.35,98.75
ban bang mo,,36,14.283333,100.416667
ban bang mo,,64,8.433333,100.016667
ban bang mod,,42,13.65,100.466667
ban bang moi,,64,8.433333,100.016667
ban bang mon,,33,14.866667,100.416667
ban bang mon,,36,14.583333,100.583333
ban bang mot,,42,13.65,100.466667
ban bang mot,,58,10.016667,99.133333
ban bang mot,,64,8.133333,100.15
ban bang muang,,13,16.033333,100.383333
ban bang muang,,16,15.766667,100.083333
ban bang muang,,38,13.833333,100.416667
ban bang muang,,53,13.7,100.216667
ban bang muang,,61,8.833333,98.283333
ban bang muang,,66,7.316667,100.266667
ban bang mu,,33,14.883333,100.416667
ban bang mun,,64,8.333333,100.216667
ban bang mun nak,,13,16.033333,100.383333
ban bang mut,,47,12.8,101.316667
ban bang mut,,58,10.016667,99.133333
ban bang mut,,61,8.55,98.466667
ban bang mut,,63,8.1,99.25
ban bang na,,42,13.666667,100.583333
ban bang na,,61,8.533333,98.5
ban bang na,,65,7.583333,99.35
ban bang nai ling,,61,8.933333,98.4
ban bang nai phon,,64,8.15,100.15
ban bang nai sang,,61,8.933333,98.4
ban bang nai si,,61,8.883333,98.333333
ban bang nak,,61,8.8,98.266667
ban bang nakkharat,,66,7.4,100.35
ban bang nakraj,,66,7.4,100.35
ban bang nam cham,,53,13.733333,100.15
ban bang nam chieo,,33,14.8,100.45
ban bang nam chut,,55,13.55,100.216667
ban bang nam chut,,60,9.3,99.216667
ban bang nam prieo,,44,13.85,101.066667
ban bang nam tal,,61,8.833333,98.45
ban bang namtan,,61,8.833333,98.45
ban bang nam tham,,63,8.533333,98.716667
ban bang nam tok,,52,13.666667,99.8
ban bang nam won,,55,13.5,100.183333
ban bang nang,,44,13.5,101.05
ban bang nang,,60,9.283333,99.7
ban bang nang sun,,52,13.45,99.883333
ban bang nao,,60,8.933333,98.916667
ban bangnara,,31,6.424444,101.823611
ban bang nau,,59,10.15,98.783333
ban bang naun,,59,10,98.65
ban bang nga,,33,14.85,100.45
ban bang ngam,,51,14.616667,100.083333
ban bang ngiu,,39,13.983333,100.566667
ban bang ngok,,51,14.65,100.166667
ban bang ngua,,44,13.55,100.966667
ban bang niang,,61,8.666667,98.266667
ban bang nieo dam,,61,8.683333,98.266667
ban bang noi,,42,13.75,100.45
ban bang noi,,54,13.483333,99.966667
ban bang nok,,47,12.633333,101.35
ban bang nok kathung,,53,13.983333,100.233333
ban bang nom kho,,36,14.316667,100.433333
ban bang nom khwai,,68,6.733333,100.383333
ban bang nom ko,,36,14.316667,100.433333
ban bang nom kwai,,68,6.733333,100.383333
ban bang non,,59,10,98.65
ban bang non nai,,59,10,98.65
ban bang not,,64,8.1,100.283333
ban bang not,,68,7.116667,100.483333
ban bang not tai,,64,8.1,100.316667
ban ba ngo ai sa,,31,6.16,101.850833
ban bang o,,43,14.183333,101.066667
ban bang o,,44,13.083333,101.116667
ban bang o,,60,9.066667,99.233333
ban ba ngo,,69,6.733333,101.616667
ban ba ngo bu lo,,31,6.385556,101.458889
ban ba ngo bu ma,,31,6.15,101.666667
ban bang o nok,,43,14.177222,101.063333
ban ba ngo pa o,,70,6.416667,101.083333
ban ba ngo pa tae,,31,6.299444,101.465833
ban ba ngo pu lo,,31,6.385556,101.458889
ban ba ngo tu ngo,,70,6.246667,101.270556
ban ba ngo yu ring,,69,6.716667,101.566667
ban bang pa,,09,16.933333,99.916667
ban bang pa,,12,16.833333,100.066667
ban bang paen,,65,7.633333,99.433333
ban bang pahan,,36,14.45,100.55
ban bang pai,,64,8.266667,100.166667
ban bang pakong,,44,13.5,101
ban bang pa luang,,16,15.783333,100.183333
ban bang pamah,,61,8.533333,98.433333
ban bang pamung,,16,15.616667,100.033333
ban bang pa nai,,52,13.566667,99.866667
ban bang pa nok,,52,13.55,99.866667
ban bang pao,,65,7.416667,99.533333
ban bang pasi,,11,13.983333,100.2
ban bang pasi,,53,13.966667,100.183333
ban bang pe,,35,14.5,100.433333
ban bang phae,,35,14.5,100.433333
ban bang phae,,52,13.7,99.933333
ban bang phae nua,,52,13.7,99.933333
ban bang phae tai,,52,13.7,99.933333
ban bang phai,,13,16.116667,100.416667
ban bang phai,,16,15.683333,100.083333
ban bang phai,,38,13.833333,100.483333
ban bang phai,,44,13.666667,101.116667
ban bang phai,,45,14.027222,101.466667
ban bang phai,,52,13.533333,100.033333
ban bang phai,,64,8.266667,100.166667
ban bang phai dam,,33,14.783333,100.433333
ban bang phai liu,,43,14.183333,101.116667
ban bang phai lui,,43,14.183333,101.116667
ban bang phai noi,,45,14.033333,101.45
ban bang pha luang,,16,15.783333,100.183333
ban bang phama,,61,8.533333,98.433333
ban bang pham,,34,15.016667,100.45
ban bang pha nai,,52,13.566667,99.866667
ban bang phan,,34,14.916667,100.416667
ban bang phang,,38,13.933333,100.533333
ban bang phang,,52,13.85,99.833333
ban bang phang,,61,8.716667,98.45
ban bang phang mo,,64,8.016667,100.083333
ban bang phaniang,,42,13.566667,100.45
ban bang phaniang,,44,13.633333,101.466667
ban bang phao,,64,8.266667,99.35
ban bang phasi,,11,13.983333,100.2
ban bang phasi,,53,13.966667,100.183333
ban bang phatthasima,,64,8.15,100.25
ban bang phayaum,,13,16.516667,100.15
ban bang phayom,,12,16.85,100.25
ban bang phayom,,13,16.516667,100.15
ban bang phet,,49,12.233333,102.616667
ban bang phian,,13,16.366667,100.383333
ban bang phi,,36,14.266667,100.583333
ban bang phi,,53,13.8,100.116667
ban bang phikun,,53,13.783333,100.25
ban bang phi lok,,54,13.35,99.883333
ban bang phlap,,35,14.65,100.416667
ban bang phlap,,38,13.916667,100.466667
ban bang phlap,,51,14.266667,100.05
ban bang phlap phai,,36,14.216667,100.416667
ban bang phlap phlai,,36,14.216667,100.416667
ban bang phlat,,38,13.783333,100.5
ban bang phli noi,,42,13.583333,100.9
ban bang phli nua,,36,14.233333,100.483333
ban bang phli tai,,36,14.216667,100.483333
ban bang phli yai,,42,13.6,100.7
ban bang phlu,,38,13.883333,100.45
ban bang phlup,,35,14.65,100.416667
ban bang phlu thuan,,60,8.733333,98.766667
ban bang pho,,34,15.016667,100.5
ban bang pho,,39,14.033333,100.55
ban bang pho,,51,14.416667,100.066667
ban bang pho,,53,13.733333,100.1
ban bang pho,,60,8.833333,98.833333
ban bang pho,,63,8.316667,99.283333
ban bang phok,,60,8.833333,98.833333
ban bang phon,,66,7.466667,100.2
ban bang phong phang,,54,13.4,99.95
ban bang pho nua,,39,14.033333,100.55
ban bang phra,,44,13.65,101.066667
ban bang phra,,46,13.2,100.933333
ban bang phra,,49,12.233333,102.5
ban bang phra,,53,13.9,100.2
ban bang phra,,64,8.2,100.233333
ban bang phra,,65,7.583333,99.35
ban bang phraek,,38,13.883333,100.433333
ban bang phra luang,,16,15.783333,100.183333
ban bang phrao,,42,13.6,100.866667
ban bang phriang,,42,13.533333,100.816667
ban bang phrik,,61,8.333333,98.4
ban bang phrong,,45,13.95,101.166667
ban bang phruang,,45,13.966667,101.333333
ban bang phru,,59,9.6,98.6
ban bang phru sai,,61,8.716667,98.266667
ban bang phum,,38,13.933333,100.466667
ban bang phun,,39,13.983333,100.583333
ban bang phung,,34,15.016667,100.45
ban bang phung,,63,7.95,98.983333
ban bang phut,,38,13.933333,100.5
ban bang phut,,39,14.066667,100.6
ban bang phut,,64,8.133333,100.266667
ban bang phutsa,,33,14.883333,100.416667
ban bang phutsa,,64,8.383333,100.05
ban bang phuttho,,34,14.75,100.616667
ban bang pia,,53,13.983333,100.183333
ban bang pi,,34,14.783333,100.616667
ban bang pin,,66,7.45,100.233333
ban bang ping,,55,13.583333,100.283333
ban bang pin nam,,16,15.845,99.639444
ban bang pit bon,,49,12.216667,102.3
ban bang pit lang,,49,12.2,102.283333
ban bang pla au,,50,15.133333,98.466667
ban bang pla,,42,13.583333,100.75
ban bang pla,,53,13.983333,100.183333
ban bang pla,,55,13.583333,100.233333
ban bang pla,,61,8.283333,98.35
ban bang plab,,51,14.266667,100.05
ban bang pla daeng,,53,13.683333,100.25
ban bang pla duk,,53,13.866667,100.216667
ban bang pla hom,,43,14.166667,101.05
ban bang pla klai,,39,14.25,100.95
ban bang pla kod,,35,14.533333,100.466667
ban bang pla kod,,43,14.166667,100.933333
ban bang pla kot,,16,15.816667,100.283333
ban bang pla kot,,35,14.483333,100.45
ban bang pla kot,,43,14.166667,100.933333
ban bang pla kot noi,,36,14.216667,100.733333
ban bang pla kot noi,,43,14.183333,101.083333
ban bang pla ma,,51,14.422778,100.138056
ban bang plamo,,36,14.333333,100.433333
ban bang plamo,,51,14.45,100.083333
ban bang pla nak,,44,13.733333,100.983333
ban bang plang,,43,14.074722,101.142778
ban bang pla o,,50,15.133333,98.466667
ban bang pla ra,,45,13.9,101.316667
ban bang pla ra,,51,14.216667,100.133333
ban bang pla soi,,46,13.366667,100.983333
ban bang plung,,16,15.683333,100.133333
ban bang po,,31,6.3125,101.830556
ban bang po,,42,13.516667,100.65
ban bang po,,60,9.566667,99.95
ban bang po,,64,7.983333,100.316667
ban bang-poh,,43,14.183333,101.066667
ban bang po nua,,39,14.033333,100.55
ban bang pra,,09,16.933333,99.916667
ban bang pra,,53,13.9,100.2
ban bang pra,,60,8.816667,99.2
ban bang pra daeng,,36,14.283333,100.566667
ban bang prah klang,,60,8.816667,99.2
ban bang pra klang,,60,8.816667,99.2
ban bang pramung,,16,15.616667,100.033333
ban bang prang,,43,14.066667,101.15
ban bang prap,,16,15.516667,100.116667
ban bang pron,,64,8.2,99.35
ban bang prong,,16,15.683333,100.133333
ban bang prong,,42,13.616667,100.566667
ban bang pru,,59,9.6,98.6
ban bang pru nua,,59,9.616667,98.6
ban bang pu,,42,13.516667,100.65
ban bang pu,,57,12.2,100
ban bang pud,,39,14.066667,100.6
ban bang pud,,64,8.133333,100.266667
ban bang pu kao,,42,13.5,100.766667
ban bang pun,,33,15.066667,100.316667
ban bang putsa,,33,14.883333,100.416667
ban bang ragam,,12,16.75,100.116667
ban bang rakam,,12,16.75,100.116667
ban bang rakam,,35,14.716667,100.416667
ban bang rakam,,36,14.45,100.6
ban bang rakam,,53,13.933333,100.2
ban bang rakam yai,,53,13.766667,100.133333
ban bang ra ko,,61,8.633333,98.533333
ban bang ramab,,38,13.766667,100.433333
ban bang ramat,,38,13.766667,100.433333
ban bang ranok,,38,13.816667,100.416667
ban bang ra pha,,68,6.852778,101.066389
ban bang ra pho,,64,8.266667,99.333333
ban bang rathuk,,53,13.766667,100.283333
ban bang riang,,61,8.566667,98.666667
ban bang riang,,63,8.283333,99.333333
ban bang riang,,68,7.133333,100.416667
ban bang riang nua,,61,8.6,98.666667
ban bang rin,,59,9.916667,98.633333
ban bang rong,,44,13.816667,101.166667
ban bang rong,,62,8.05,98.416667
ban bang rong chaang,,36,14.583333,100.566667
ban bang rong chang,,36,14.583333,100.566667
ban bang rong krong,,61,8.55,98.533333
ban bang rua hak,,54,13.383333,99.983333
ban bang ru,,58,9.816667,99.133333
ban bang rup,,60,8.416667,99.25
ban bang sadet,,35,14.466667,100.466667
ban bang saen,,46,13.266667,100.933333
ban bang sagea,,12,16.85,100.25
ban bang sai,,16,15.933333,100.366667
ban bang sai,,36,14.2,100.5
ban bang sai,,44,13.9,101.15
ban bang sai,,46,13.383333,100.983333
ban bang sai,,59,10.433333,98.8
ban bang sai,,61,8.383333,98.416667
ban bang sai,,63,8.283333,99.266667
ban bang sai,,64,8.083333,100.3
ban bang sai nai,,36,14.333333,100.333333
ban bang sai noi,,78,16.666667,104.716667
ban bang sai nok,,36,14.333333,100.283333
ban bang sai pa,,53,14.083333,100.166667
ban bang sai yai,,78,16.6,104.733333
ban bang sai yoi,,56,12.716667,99.966667
ban bang sakae,,12,16.85,100.25
ban bang sakae,,38,13.85,100.433333
ban bang sakae,,39,14.016667,100.4
ban bang sakae,,51,14.233333,100.116667
ban bang sa kao,,48,12.516667,102.116667
ban bang sak,,61,8.783333,98.266667
ban bang sak,,65,7.316667,99.35
ban bang sake,,51,14.233333,100.116667
ban bang sala,,35,14.65,100.466667
ban bang sala,,68,6.933333,100.433333
ban bang samak,,44,13.55,100.95
ban bang saman,,46,13,100.983333
ban bang sam,,60,8.333333,99
ban bang samran,,42,13.5,100.7
ban bang samrong,,34,14.866667,100.466667
ban bang samrong,,54,13.45,99.916667
ban bang san,,60,8.933333,98.916667
ban bang san,,63,8.283333,99.033333
ban bang sang,,36,14.283333,100.683333
ban bang sang taung,,59,10.083333,98.783333
ban bang sang ti,,59,9.966667,98.683333
ban bang sang tong,,59,10.083333,98.783333
ban bang sano,,38,13.833333,100.4
ban bang sano,,60,8.933333,98.916667
ban bang sao,,42,13.666667,100.866667
ban bang sao thong,,42,13.666667,100.816667
ban bang saphan noi,,57,11.083333,99.483333
ban bang saphan yai,,57,11.2,99.516667
ban bang sare,,46,12.766667,100.9
ban bang saung la,,59,10.283333,98.766667
ban bang siap,,58,10.666667,99.3
ban bang si khot,,55,13.516667,100.216667
ban bang si thong,,38,13.816667,100.466667
ban bang sitong,,38,13.816667,100.466667
ban bang so,,51,14.2,100.133333
ban bang som kling,,53,14.066667,100.183333
ban bang son,,44,13.566667,101.066667
ban bang son,,58,10.7,99.316667
ban bang son,,61,8.266667,98.383333
ban bang song,,34,14.933333,100.483333
ban bang song la,,59,10.283333,98.766667
ban bang song la nua,,59,10.3,98.766667
ban bang song la tai,,59,10.283333,98.766667
ban bang song siang,,64,7.983333,100.3
ban bangspanoi,,57,11.083333,99.483333
ban bang sua hung,,64,8.166667,100.266667
ban bang suan,,44,13.7,101.166667
ban bang suan,,63,8.283333,99.016667
ban bang sua rong,,64,8.2,100.216667
ban bang suat,,63,7.583333,98.983333
ban bang su,,61,9.183333,98.416667
ban bang ta,,62,7.966667,98.3
ban bang tabum,,56,13.25,99.933333
ban bang tabun,,56,13.25,99.933333
ban bang tabun nua,,60,9.6,99.2
ban bang taen,,45,13.9,101.166667
ban bang taen noi,,45,13.866667,101.166667
ban bang ta in,,44,13.866667,101.2
ban bang ta khang,,43,14.166667,101.133333
ban bang takhian,,51,14.216667,100.133333
ban bang ta khreng,,64,8.033333,100.133333
ban bang taku,,51,14.216667,99.933333
ban bang talai,,36,14.533333,100.7
ban bang talat,,23,16.4,103.383333
ban bang talat,,38,13.883333,100.516667
ban bang talat,,44,13.733333,101.183333
ban bang tamru,,34,14.75,100.566667
ban bang tanai,,39,13.95,100.5
ban bang tan,,66,7.3,100.383333
ban bang tan,,68,7.133333,100.6
ban bang ta ngai,,16,15.916667,100.016667
ban bang tanot,,52,13.65,99.816667
ban bang tao,,65,7.466667,99.533333
ban bang tao tai,,65,7.466667,99.533333
ban bang taphan,,61,8.516667,98.333333
ban bang taphao,,64,8.266667,99.35
ban bang ta phet,,33,14.916667,100.383333
ban bang tater,,51,14.183333,100.116667
ban bang ta then,,51,14.183333,100.116667
ban bang tawa,,69,6.766667,101.166667
ban bang ta wa,,69,6.863333,101.171667
ban bang ta yong,,34,14.866667,100.45
ban bang tek,,64,7.95,99.533333
ban bang thai,,63,8.5,98.716667
ban bang thalu,,56,13.016667,100.05
ban bang tha mai,,53,13.666667,100.266667
ban bang thao,,62,7.966667,98.3
ban bang thao mae,,63,8.533333,98.716667
ban bang thian,,63,8.533333,98.816667
ban bang tho lak,,55,13.5,100.166667
ban bang thong,,60,8.9,98.6
ban bang thong,,61,8.4,98.366667
ban bang thong,,68,7.066667,100.483333
ban bang thong di,,33,14.85,100.4
ban bang tho rat,,55,13.5,100.166667
ban bang thuai,,64,8.183333,100.183333
ban bang thuk,,53,13.766667,100.283333
ban bang toei,,39,14.066667,100.516667
ban bang toei,,40,13.8,100.65
ban bang toei,,45,13.933333,101.2
ban bang toei,,53,13.8,100.083333
ban bang toei,,61,8.433333,98.583333
ban bang toei noi,,43,14.016667,101.116667
ban bang toek,,53,13.766667,100.283333
ban bang tok,,60,8.866667,99.233333
ban bang tong,,61,8.483333,98.5
ban bang tong,,65,7.266667,99.766667
ban bang torad,,55,13.5,100.166667
ban bang trong,,64,8.6,99.95
ban bang tuei noi,,43,14.016667,101.116667
ban bang wa,,64,8.183333,100.116667
ban bang wae,,66,7.55,100.166667
ban bang waek,,53,13.733333,100.4
ban bang wai,,39,14.066667,100.65
ban bang wai,,52,13.483333,99.866667
ban bang wai,,53,14.133333,100.133333
ban bang wai noi,,53,14.1,100.15
ban bang wan,,09,16.983333,99.833333
ban bang wan,,61,8.15,98.383333
ban bang wan thong,,54,13.45,99.916667
ban bang wek,,53,13.733333,100.4
ban bang weng,,61,8.566667,98.55
ban bang wi,,65,7.266667,99.6
ban bang wo,,62,8.683333,98.733333
ban bang wua,,44,13.55,100.966667
ban bang ya,,61,8.716667,98.25
ban bang yai,,38,13.8,100.483333
ban bang yai,,42,13.616667,100.583333
ban bang yai,,43,14.156944,101.035
ban bang yai,,51,14.316667,100.15
ban bang yai,,58,10.383333,99.15
ban bang yai,,59,10.033333,98.75
ban bang yai,,60,9.183333,99.233333
ban bang yai,,61,8.533333,98.65
ban bang yai,,64,8.233333,99.933333
ban bang yai chuai,,44,13.733333,100.233333
ban bang yai lang,,59,10.233333,98.75
ban bang yai tai,,59,10.233333,98.75
ban bang yang,,45,13.933333,101.183333
ban bang yang,,53,13.75,100.283333
ban bang yang,,55,13.633333,100.216667
ban bang yao,,45,13.933333,101.183333
ban bang ya phraek,,42,13.65,100.55
ban bang ya phraek,,55,13.516667,100.266667
ban bang ya rom,,65,7.516667,99.533333
ban bang yi,,58,10,99.15
ban bang yi,,64,8.35,99.25
ban bang yi,,68,7.116667,100.433333
ban bang yilon,,35,14.583333,100.333333
ban bang yi long,,54,13.483333,99.916667
ban bang yirong,,52,13.5,99.9
ban bang yirong,,54,13.483333,99.916667
ban bang yisibkao,,43,14.133333,100.966667
ban bang yi tho,,36,14.3,100.45
ban bang yo,,43,14.15,101.116667
ban bang yuan,,60,8.833333,98.833333
ban bang yuan,,61,8.433333,98.483333
ban bang yung,,53,14,100.166667
ban bang zai nie,,36,14.333333,100.333333
ban bang zai nok,,36,14.333333,100.283333
ban bang zai pa,,53,14.083333,100.166667
ban banj phli yai,,42,13.6,100.7
ban ban khua noi,,25,16.05,103.9
ban ban kong khong,,64,8.4,100.2
ban banlang,,27,15.188611,101.981667
ban ban mai,,44,13.7,101.116667
ban ban mai,,68,6.683333,100.433333
ban banna,,68,6.916667,100.733333
ban ban na la,,70,5.8,101.15
ban ban nam chiew,,33,14.8,100.45
ban ban nang bu bo,,70,6.243056,101.166667
ban ban nang bu no,,70,6.243056,101.166667
ban ban nang da ma,,70,6.462222,101.025833
ban bannang sata,,70,6.266667,101.266667
ban ban noi si,,61,8.883333,98.333333
ban ba nok tha,,20,17.566667,103.85
ban banpot pisai,,16,15.934167,99.978889
ban ban sang,,36,14.283333,100.683333
ban banthao,,62,7.95,98.266667
ban bao,,06,18.833333,99.95
ban bao,,23,16.883333,103.683333
ban bao yai,,28,15.466667,103
ban bapit,,63,7.833333,99.05
ban ba raket,,67,6.683333,99.9
ban baraket,,67,6.75,99.916667
ban bara nae,,28,14.283333,102.95
ban barchoh,,31,6.616667,101.65
ban bare,,69,6.7,101.583333
ban barek,,69,6.7,101.583333
ban bare nua,,31,6.616667,101.65
ban ba ro,,70,6.444167,101.136389
ban baru,,31,5.783333,101.7
ban bathu ngo,,70,6.233333,101.25
ban bat luang,,54,13.483333,99.916667
ban bato bulong,,70,6.466667,101.033333
ban ba tong,,31,6.311667,101.484722
ban batu boe la,,70,6.421389,101.217778
ban ba tu bu la,,70,6.421389,101.217778
ban batubute,,65,7.233333,99.35
ban bau,,04,19.033333,100.8
ban bau,,06,18.833333,99.95
ban bau,,07,18.1,99.883333
ban bau,,29,15.1,103.783333
ban bau bia,,04,18.333333,101.083333
ban bau ched luk,,67,6.883333,99.683333
ban bau geo,,04,18.2,100.666667
ban bau heo,,03,19.133333,99.866667
ban bau heo,,06,18.3,99.433333
ban bau jum,,05,18.5,98.983333
ban bauk man,,05,17.733333,99.033333
ban bauk paung,,07,18.033333,100.1
ban bau luang,,02,18.150556,98.355
ban bau luang,,04,19.15,101.183333
ban bau muang noi,,18,17.55,101.016667
ban bau ngau,,31,6.166667,101.716667
ban baung ti bon,,50,14.061667,99.02
ban bau pak,,10,17.533333,100.833333
ban bau rang,,14,15.6025,101.178889
ban bau rea,,32,15.283333,99.983333
ban bau sri,,02,18.116667,98.233333
ban bau tham,,11,15.9625,99.766944
ban bau thong,,38,13.9,100.433333
ban baut wat luang,,13,16.083333,100.35
ban ba wa,,20,17.483333,103.983333
ban bawi,,65,7.233333,99.533333
ban ba yai,,27,14.554722,101.973333
ban ba yao,,19,17.127778,103.396667
ban ba yao,,20,17.483333,103.95
ban ba yao,,22,16.516667,102.583333
ban ba yo,,70,6.370833,101.096667
ban bea gru gru,,08,15.85,98.683333
ban be,,03,20.087778,99.815
ban bencha,,48,12.7,101.966667
ban bencha,,60,8.75,98.75
ban ben pas,,43,14.154444,101.293333
ban ben pat,,50,14.166667,99.75
ban benyaphat,,43,14.154444,101.293333
ban benyaphat,,50,14.166667,99.75
ban benyaphat,,57,12.4,99.95
ban bera nua,,31,6.616667,101.65
ban betong,,70,5.75,101.083333
ban beung au,,27,15.020278,101.951111
ban beung,,14,16.816667,101.233333
ban beung gadan,,12,16.916667,100.316667
ban beung gauk,,12,16.683333,100.033333
ban beung kal,,17,18.383333,103.616667
ban beung lam,,12,16.616667,100.316667
ban beung nam sai nua,,16,15.8,100.15
ban beung na rang,,13,16.183333,100.15
ban beung pauk,,27,15.25,101.783333
ban beung phing,,12,16.666667,99.933333
ban beung phlap,,13,16.5,100.333333
ban beung preu,,27,15.15,101.85
ban beung tagaun,,13,16.416667,100.383333
banbhaji,,36,14.45,100.716667
ban bhang muang,,16,15.533333,100.65
ban bhaui,,36,14.45,100.716667
ban bhe,,47,12.633333,101.433333
ban bheng karn,,60,8.866667,98.85
banbho,,44,13.6,101.083333
ban bho hak,,52,13.633333,100.033333
ban bhoj,,14,15.927778,101.027222
ban bhrik,,43,14.283333,101
ban bhrong khe,,50,14.853611,99.041389
ban bhum rieng,,60,9.383333,99.233333
ban bien,,64,8.783333,99.633333
ban bi krim,,80,13.638889,102.395833
ban bing,,09,17.256111,99.963056
ban bing,,16,15.966667,100.1
ban bing,,27,14.716667,102.166667
ban bing,,28,15.3,103.45
ban bing,,30,14.766667,104.2
ban bin pui,,30,14.75,104.45
ban bin tong,,23,16.433333,103.5
ban bin yi,,65,7.483333,99.55
ban bo,,04,19.033333,100.8
ban bo,,07,18.1,99.883333
ban bo,,12,16.85,100.583333
ban bo,,22,16.716667,102.65
ban bo,,29,15,103.466667
ban bo,,48,12.416667,102.333333
ban bo,,52,13.533333,99.333333
ban bo,,55,13.5,100.183333
ban bo,,72,15.8,104.133333
ban bo bia,,04,18.333333,101.083333
ban bo bia,,10,18.1,101.133333
ban bo bo,,77,15.8,104.633333
ban boboh,,77,15.8,104.633333
ban bo bu,,77,15.8,104.633333
ban bo chaneng,,77,15.683333,104.5
ban bo chek,,52,13.816667,99.783333
ban bo cheta luk,,67,6.883333,99.683333
ban bo chet luk,,67,6.866667,99.633333
ban bo chik,,51,14.9,99.95
ban bo chong,,05,18.5,98.983333
ban bo chum,,05,18.5,98.983333
ban bo daeng,,28,15.15,103.183333
ban bo daeng,,68,7.316667,100.433333
ban bo dan,,61,8.316667,98.266667
ban bo dan,,68,7.4,100.433333
ban bodeng,,68,7.4,100.466667
ban boe,,02,18.704444,98.960833
ban boek phrai,,52,13.783333,99.866667
ban boeng,,46,12.866667,100.966667
ban boeng,,50,14,99.766667
ban boeng,,51,14.55,100.066667
ban boeng,,57,11.866667,99.8
ban boeng hua hwen,,50,14.316667,99.5
ban boeng katlem,,51,14.45,99.983333
ban boeng khan,,51,14.533333,100.066667
ban boeng luk soea,,43,14.03,101.06
ban boeng mai,,37,14.414167,101.1475
ban boet,,29,15.283333,103.916667
ban boet,,57,10.983333,99.483333
ban boet yai,,17,17.87,102.813333
ban bo fai,,57,12.616667,99.95
ban bo haeo,,03,19.133333,99.866667
ban bo haeo,,06,18.3,99.433333
ban bo han,,62,8.1,98.3
ban boh fhai,,57,12.616667,99.95
ban bo hin,,49,12.216667,102.466667
ban bo hin,,64,7.983333,99.583333
ban bo hin,,68,7.15,100.55
ban bohng ti,,50,14.106667,99.001111
ban boh tham,,11,15.9625,99.766944
ban bo hut,,68,7.683333,100.4
ban boi,,28,15.083333,103.016667
ban bo in,,51,14.766667,100.016667
ban bo i rem,,48,12.583333,102.35
ban bo i rem,,49,12.583333,102.35
ban bo it,,58,10.683333,99.35
ban bo kadan,,54,13.466667,99.833333
ban bo kadan,,56,13.033333,99.966667
ban bo kae,,24,16.016667,102.983333
ban bo kae,,29,15.333333,103.5
ban bo kae noi,,20,17.3,103.516667
ban bo kaeo,,02,18.837778,98.566111
ban bo kaeo,,04,18.166667,100.6
ban bo kaeo,,07,17.9,99.883333
ban bo kaeo,,20,17.866667,103.6
ban bo kaeo,,57,12.433333,99.983333
ban bo kai,,60,8.533333,99.116667
ban bo kang,,03,20.194167,99.903611
ban bo kasang,,46,13.383333,101.083333
ban bok,,05,18.040278,98.885
ban bok,,19,17.094722,102.389444
ban bok,,29,14.583333,104.033333
ban bok,,45,14.033333,101.583333
ban bok,,64,8.283333,99.9
ban bok,,71,14.683333,105.416667
ban bok cham,,58,10.05,99.033333
ban bok fai,,58,9.733333,98.716667
ban bo kha,,58,10.266667,99.2
ban bo kha,,60,9.483333,99.233333
ban bo khaem,,56,12.75,99.966667
ban bo khan,,69,6.633333,101.3
ban bo khem,,37,14.383333,100.916667
ban bo khiam,,58,10.133333,99.133333
ban bok hin,,02,18.390556,98.650833
ban bo khlop,,64,8.333333,99.9
ban bo kho,,31,6.166667,102.066667
ban bokho,,68,6.716667,100.983333
ban bo khon thi,,64,8.166667,100.3
ban bo khonthi,,64,8.183333,100.3
ban bok kradon,,37,14.583333,100.666667
ban bok man,,05,17.733333,99.033333
ban bok noi,,37,14.433333,100.85
ban bo ko,,60,9.266667,99.833333
ban bok phra,,61,8.7,98.416667
ban bo kradan,,54,13.466667,99.833333
ban bo kradan,,56,13.033333,99.966667
ban bo kradon,,37,14.583333,100.666667
ban bo krang,,15,15.4,99.85
ban bo krang,,60,9.008333,99.275
ban bo kru,,51,14.866667,99.9
ban bok wan,,17,17.768889,102.775556
ban bo kwang thong,,46,13.283333,101.316667
ban bok yut,,61,8.8,98.3
ban bo lek,,55,13.566667,100.216667
ban bo lo,,64,8.1,100.1
ban bo luang,,02,18.150556,98.355
ban bo luang,,04,19.066667,101.083333
ban bo luang,,45,13.816667,102.4
ban bo luang,,56,12.7,99.816667
ban bo luk,,32,15.277778,99.774722
ban bo lung,,49,12.35,102.383333
ban bo ma,,31,6.166667,101.8
ban bo mai wa,,08,16.883333,99.183333
ban bo makrut,,52,13.683333,99.9
ban bo mang,,63,7.683333,99.216667
ban bo mao,,58,10.7,99.35
ban bo mat,,15,15.383333,99.866667
ban bom,,06,18.065833,99.491389
ban bo met chun,,69,6.8,101.15
ban bom lao,,10,17.483333,100.6
ban bom nang,,17,18.016667,103.083333
ban bo mon,,29,15.449167,103.648611
ban bo muang,,32,14.95,99.983333
ban bo muang,,58,10.15,99.166667
ban bo muang,,63,7.683333,99.216667
ban bo muang,,69,6.766667,101.35
ban bo muang noi,,18,17.533333,100.966667
ban bo nam,,19,17.363611,102.721389
ban bo nam,,35,14.633333,100.466667
ban bo nam chut,,53,14.016667,100.016667
ban bo nam khao,,03,20.269167,99.853333
ban bo nam phu,,53,13.966667,99.95
ban bo nam ron,,70,5.833333,101.033333
ban bo nam som,,68,6.833333,100.916667
ban bo nan,,19,17.440556,102.779167
ban bo nang,,37,14.6,100.666667
ban bo nang ching,,45,13.7,102.216667
ban bo na wong,,49,12.533333,102.383333
ban bon,,04,19.15,100.9
ban bon,,16,15.416667,100.133333
ban bon,,17,17.931667,102.808056
ban bon,,23,16.516667,103.966667
ban bon,,64,8.116667,100.066667
ban bon,,71,15.05,104.783333
ban bon doi suthep,,02,18.802778,98.918611
ban bon don,,60,9.216667,99.8
ban bong,,02,18.909722,98.590833
ban bong,,03,19.883333,100.233333
ban bong,,04,18.3,100.7
ban bong,,06,18.916667,99.666667
ban bong,,07,18.083333,100.2
ban bong,,12,17.159722,100.100833
ban bong,,14,16.35,101.15
ban bong,,17,17.950278,102.883333
ban bong,,18,17.333333,101.716667
ban bong,,27,15.233333,102.75
ban bong,,28,15.7,102.9
ban bong,,50,14.061667,99.02
ban bong chong,,50,15.3,98.6
ban bong gauk,,02,18.516667,98.35
ban bong jong,,50,15.3,98.6
ban bong kok,,02,18.516667,98.35
ban bong luang,,03,19.85,99.95
ban bong maraeng,,71,15.266667,105.033333
ban bong ngam,,03,19.866667,99.516667
ban bong nua,,19,17.257222,103.201111
ban bong nua,,20,17.320833,103.46
ban bo ngoen,,34,14.766667,100.566667
ban bong pa wai,,07,18.016667,100.066667
ban bong ti,,50,14.061667,99.02
ban bongti bon,,50,14.061667,99.02
ban bong ti bon,,50,14.016667,98.983333
ban bongti lang,,50,14.106667,99.001111
ban bong ti lang,,50,14.016667,98.983333
ban bon kai,,60,8.533333,99.116667
ban bon kai,,65,7.266667,99.533333
ban bon khao,,60,8.366667,98.916667
ban bon khao,,68,7.05,100.433333
ban bon khuan,,63,7.95,98.983333
ban bon khuan,,65,7.583333,99.633333
ban bon khuan,,68,7.016667,100.166667
ban bon na,,02,18.305833,98.495833
ban bon na,,60,8.6,98.966667
ban bo noen,,61,8.25,98.3
ban bo noi,,19,17.438056,102.625833
ban bo nok,,57,11.933333,99.816667
ban bon thanon,,64,8.483333,99.933333
ban bon thung,,60,8.95,98.9
ban bon yai,,30,15.183333,104.216667
ban bo paen,,06,18.283333,99.4
ban bo pa kaeo,,52,13.483333,99.75
ban bo pak,,10,17.533333,100.833333
ban bo pat,,19,17.462222,103.110833
ban bo phak,,10,17.533333,100.833333
ban bo phak,,12,17.433333,100.783333
ban bo phlap,,16,15.383333,100.216667
ban bo phlap,,53,13.833333,100.083333
ban bo phloi,,50,14.323611,99.516111
ban bo pho,,12,17.216667,101.083333
ban bo pho,,32,15.366667,100.166667
ban bo pho,,64,8.466667,100
ban bo phong,,56,12.983333,100
ban bo phra,,32,15.105,99.896944
ban bo phran,,27,14.755556,101.934167
ban bo phrao,,65,7.766667,99.45
ban bo phu,,48,12.6,102.033333
ban bo phut,,58,10.216667,99.083333
ban bo phut,,64,8.083333,100.25
ban bo phutsa,,34,15.066667,100.433333
ban bo pradu,,68,7.383333,100.466667
ban bo prakhon,,56,12.833333,99.983333
ban borabu,,24,16.033333,103.116667
ban bo rae,,15,15.4,99.833333
ban bo rae,,32,15.283333,99.983333
ban bo rae,,35,14.633333,100.383333
ban bo rae,,45,14.191944,101.361111
ban bo rae,,62,7.85,98.383333
ban bo rai,,49,12.569167,102.527222
ban bo rai,,56,12.916667,100.016667
ban bo rak,,68,7.766667,100.35
ban bo rang,,14,15.6025,101.178889
ban bo rang,,20,17.452222,103.303889
ban bo saen,,61,8.483333,98.616667
ban bo saeng,,03,19.933333,100.233333
ban bo saen khaek,,61,8.45,98.65
ban bo sai,,53,13.8,100.133333
ban bo sai,,62,8.116667,98.316667
ban bo sai,,64,8.116667,99.933333
ban bo sai klang,,62,8.116667,98.316667
ban bo sakae,,36,14.216667,100.45
ban bo sakae,,56,12.95,99.983333
ban bo sali,,02,18.101111,98.227778
ban bo samrong,,58,10.866667,99.45
ban bo sang,,51,14.9,99.95
ban bo sawai,,51,14.35,100.266667
ban bo si,,02,18.116667,98.233333
ban bo sieop,,71,15.5,104.966667
ban bo si siat,,65,7.616667,99.6
ban bo si songkhram,,73,17.65,104.216667
ban bo so,,68,7.283333,100.533333
ban bo sok,,37,14.65,100.766667
ban bo son,,65,7.133333,99.533333
ban bo suphan,,51,14.112778,99.775278
ban bo takhro,,52,13.433333,99.833333
ban bo takua,,56,12.966667,99.866667
ban bo ta lo,,36,14.25,100.7
ban bo talung,,56,12.733333,99.966667
ban botan,,68,7.433333,100.45
ban bo ta sing,,46,12.933333,100.916667
ban bot,,27,14.9,101.85
ban bot,,45,13.75,102.416667
ban bot,,46,13.5,101.15
ban bo thai,,14,16.083333,101.15
ban bo tham,,11,15.9625,99.766944
ban bo thong,,03,20.093889,99.870278
ban bo thong,,09,17.333333,99.483333
ban bo thong,,34,15.3,100.616667
ban bo thong,,45,13.95,101.833333
ban bo thong,,46,13.183333,101.483333
ban bo thong,,60,9.15,99.383333
ban bo thong,,69,6.784722,101.141944
ban bo thong lang,,57,11.216667,99.583333
ban bo thung,,66,7.316667,100.266667
ban bo to,,68,6.716667,100.983333
ban bot wat luang,,13,16.083333,100.35
ban bo wa,,50,14.133333,99.666667
ban bo wa,,51,14.800556,99.886667
ban bo wa,,69,6.604722,101.193333
ban bo wai,,56,13.05,99.983333
ban bo wai,,71,15.333333,104.966667
ban bo wi,,52,13.466667,99.266667
ban bo yai,,22,16.5,103.05
ban bo yai,,24,16.1,103.183333
ban bo yai,,56,12.883333,100.016667
ban bra,,69,6.798056,101.2775
ban bra-de nua,,08,17.5,98.15
ban bra ngae,,31,6.183333,101.8
ban bua,,03,19.15,99.833333
ban bua,,17,17.959167,103.17
ban bua,,20,17.066667,103.783333
ban bua,,22,16.15,102.516667
ban bua,,23,16.85,103.7
ban bua,,24,16.083333,103
ban bua,,25,16.016667,103.6
ban bua,,28,14.483333,103
ban bua,,30,15,104.316667
ban bua,,71,14.816667,104.916667
ban bua,,73,17.216667,104.8
ban bua bu,,77,15.8,104.633333
ban bua chet,,29,14.466667,103.883333
ban bua chum,,34,15.25,101.2
ban bua daeng,,51,14.15,99.983333
ban buai,,25,16.183333,103.583333
ban bua jum,,34,15.25,101.2
ban buak ang,,18,17.583333,101.466667
ban bua kau,,26,15.783333,101.95
ban buak,,02,18.666667,98.933333
ban buak,,05,17.716667,98.983333
ban buak,,17,18.016667,104.183333
ban buak gang,,02,18.716667,99.116667
ban buak ha,,02,18.666667,98.916667
ban bua khao,,23,16.533333,104.066667
ban bua khao,,25,15.566667,103.416667
ban bua khao,,26,15.783333,101.95
ban bua khok,,17,17.916667,104.066667
ban bua khok,,29,15.256667,103.714722
ban buak kang,,02,18.716667,99.116667
ban buak khang,,02,18.716667,99.116667
ban buak khok,,02,18.666667,98.983333
ban buak makang,,05,18.466667,98.983333
ban buak mu,,45,14.016667,101.65
ban buak phayom,,05,18.458333,98.888333
ban buak pong,,07,18.033333,100.1
ban buak tao,,03,19.266667,99.483333
ban bua loi,,37,14.4,100.85
ban bua lol,,37,14.4,100.85
ban bua luang,,25,15.968333,103.830278
ban bua mat,,24,15.883333,103.216667
ban bua mong,,64,8.05,99.583333
ban bua mung,,02,18.683333,98.983333
ban bua ngam,,52,13.6,100.033333
ban bua ngam,,64,8.2,99.883333
ban bua ngam,,71,14.316667,105.933333
ban buang mo,,19,17.467778,102.678056
ban bua noi,,27,15.5,102.4
ban bua pae,,24,15.616667,103.133333
ban bua pak tah,,53,14.116667,100.233333
ban bua pak tha,,53,14.116667,100.233333
ban bua phut,,47,12.666667,101.616667
ban bua rai,,62,14.066667,101.366667
ban bua sathan,,03,19.25,100.033333
ban bua sathon,,03,19.333333,100.133333
ban bua sieo,,29,15.345833,104.035556
ban bua ta rung,,28,14.683333,102.816667
ban bua tha,,71,15.233333,104.95
ban bua thiam,,71,14.742778,105.165833
ban bua thong,,71,14.780833,105.180833
ban bua toei,,30,15.074167,104.428056
ban bua wa,,16,15.366667,100.216667
ban bua wan,,51,14.166667,100.183333
ban bua yai,,20,17.383333,103.983333
ban bua yai,,22,16.616667,102.95
ban bua yai,,27,15.55,102.433333
ban bua yai phae,,37,14.283333,100.9
ban bua yang,,12,16.583333,100.133333
ban bua yang,,71,15.615556,104.76
ban bua yei,,27,15.55,102.433333
ban bu,,27,15.033333,102.033333
ban bu,,28,14.366667,102.95
ban bu bok kung,,45,14.2375,101.601667
ban bucha,,05,18.516667,98.966667
ban bu chan,,45,13.883333,101.85
ban bu chanuan,,14,16.316667,101.216667
ban bu cha-om,,27,14.678333,101.910833
ban bu chieo,,45,13.9,101.833333
ban bu cho ri mat,,70,6.5375,101.476667
ban buda,,26,15.365,101.652222
ban buda mai,,26,15.332778,101.656667
ban bu di,,70,6.513333,101.318611
ban bu don,,69,6.661111,101.344722
ban bue be,,71,14.544167,105.053056
ban bueng gwang,,12,16.65,99.983333
ban bu fai,,45,14.116667,101.566667
ban bu hom,,18,17.95,101.65
ban bu hua chaang,,27,14.6,101.85
ban bu hua chang,,27,14.6,101.85
ban bu kasang,,45,13.783333,102.366667
ban bu ka su do,,31,6.548611,101.722778
ban bu kathin,,27,15.033333,102.033333
ban bu ke ba kong,,31,6.46,101.680833
ban buke,,31,5.85,101.866667
ban bu ke ta mong,,31,6.201111,101.846389
ban buk fai,,58,9.733333,98.716667
ban bu kha,,27,15.331389,101.659444
ban bu khanun,,27,14.428333,101.677778
ban bu khi lek,,28,14.916667,102.95
ban buk hoi,,43,14.278889,101.175833
ban bu kit,,31,6.197778,101.821667
ban bu kluai,,45,14.055833,101.900556
ban bu klui,,45,14.055833,101.900556
ban buk noi,,50,14.506389,99.054444
ban bu knun,,27,14.428333,101.677778
ban bu ko ba tu,,69,6.606944,101.307222
ban bu kraeng,,29,15.060278,103.662778
ban bu krok,,27,14.7,102.066667
ban buk yai,,50,14.506389,99.054444
ban bu lamduan,,28,14.983333,103.1
ban bu lao,,28,14.85,102.983333
ban bu lu,,65,7.316667,99.4
ban bu ma no,,08,16.066667,98.85
ban bu nae,,31,6.466667,101.666667
ban bu nae ku bae,,70,6.391111,101.375278
ban bunae sato,,70,6.416667,101.133333
ban bu na to,,70,6.415,101.351389
ban bun bang pla ra,,39,14.2,100.916667
ban bun chaem,,07,18.266667,100.333333
ban bung am ka,,12,16.65,100
ban bung ba,,39,14.133333,100.833333
ban bung,,04,18.3,100.7
ban bung,,09,17.213056,100.029167
ban bung,,10,17.9,100.783333
ban bung,,12,17.159722,100.100833
ban bung,,13,16.383333,100.4
ban bung,,14,16.816667,101.233333
ban bung,,15,15.1275,99.463056
ban bung,,16,15.966667,100.1
ban bung,,27,14.5,102.25
ban bung,,29,14.816667,103.883333
ban bung,,32,15.3,99.983333
ban bung,,35,14.716667,100.316667
ban bung,,36,14.55,100.683333
ban bung,,37,14.55,100.833333
ban bung,26113,46,12.866667,100.966667
ban bung,,50,14,99.766667
ban bung,,51,14.55,100.066667
ban bung,,52,13.45,99.4
ban bung,,57,11.866667,99.8
ban bung,,71,15.683333,104.65
ban bung,,73,16.983333,104.716667
ban bung,,77,15.85,104.633333
ban bung,,78,16.45,104.416667
ban bung bang pla ra,,39,14.2,100.916667
ban bung bang sai,,44,13.816667,101.066667
ban bung boek,,10,17.209722,100.139444
ban bung bon,,09,17.483333,99.5
ban bung bon,,12,16.6,99.933333
ban bung bon,,36,14.166667,100.6
ban bung bon,,46,13.25,101.133333
ban bung bon,,49,12.283333,102.466667
ban bung bua,,13,16.483333,100.05
ban bung bua,,46,13.316667,101.416667
ban bung chanang,,48,13.033333,102.45
ban bung chan,,34,15.419167,101.072778
ban bung chik,,10,17.566667,100.133333
ban bung gum,,18,17.3,101.15
ban bung hak kong sin,,32,15.216667,100.116667
ban bung hoi,,43,14.216667,101.366667
ban bung ho khoi,,44,13.833333,101.016667
ban bung hok rong,,40,13.816667,100.9
ban bung hua waen,,50,14.316667,99.5
ban bung kabao,,43,14.216667,101.25
ban bung kachap,,44,13.7,101.35
ban bung kachap,,52,13.8,99.933333
ban bung kadan,,12,16.916667,100.316667
ban bung kae,,22,16.6,102.85
ban bung kae,,72,15.516667,104.333333
ban bung kaeo,,19,16.966667,102.983333
ban bung kanau,,43,14.216667,101.25
ban bung kan,,17,18.383333,103.616667
ban bung kathiam,,51,14.45,99.983333
ban bung kau,,18,17.25,101.716667
ban bung kha,,71,16.15,104.65
ban bung khaen,,45,13.583333,102.466667
ban bung kham,,71,14.610556,105.165
ban bung khan,,51,14.533333,100.066667
ban bung khe,,43,14.241111,101.31
ban bung khi lek,,27,14.922778,101.843611
ban bung khla,,14,16.616667,101.15
ban bung khla,,17,18.283333,104
ban bung khla,,26,15.766667,102.083333
ban bung khla,,71,16.15,104.65
ban bung kho,,18,17.25,101.716667
ban bung khup mu,,40,13.833333,100.716667
ban bung kip mu,,40,13.833333,100.716667
ban bung klao,,35,14.733333,100.25
ban bung kok,,12,16.683333,100.033333
ban bung kok,,13,16.3,100.166667
ban bung kok tan,,18,17.266667,101.766667
ban bung krabao,,43,14.216667,101.25
ban bung krachap,,44,13.7,101.35
ban bung kradan,,12,16.916667,100.316667
ban bung kradan,,13,16.1,100.15
ban bung kradon,,46,13.3,101.216667
ban bung krao,,35,14.733333,100.25
ban bung krathiam,,51,14.45,99.983333
ban bung kum,,18,17.3,101.15
ban bung kwang,,12,16.65,99.983333
ban bung lad,,27,14.666667,102.15
ban bung lak,,10,17.583333,100.166667
ban bung lam,,12,16.616667,100.316667
ban bung lam nam,,39,14.216667,100.883333
ban bung lamyai,,27,14.7,101.983333
ban bung lao,,27,14.666667,102.15
ban bung len,,45,13.933333,101.8
ban bung li,,13,16.1,100.116667
ban bung lom,,16,15.818056,99.749167
ban bung lom,,73,17.183333,104.8
ban bung mai,,37,14.414167,101.1475
ban bung mai,,71,15.233333,104.916667
ban bung mai kaen,,46,13.266667,101.15
ban bung malaeng,,71,15.266667,105.033333
ban bung malu,,30,14.466667,104.616667
ban bung mo,,19,17.467778,102.678056
ban bung mok,,30,15.3,104.216667
ban bung mon thong,,44,13.9,101.066667
ban bung nam daeng,,44,13.733333,100.966667
ban bung nam krat,,13,16.266667,100.3
ban bung nam sai,,16,15.8,100.15
ban bung nam sai nua,,16,15.8,100.15
ban bung nam sai tai,,16,15.8,100.15
ban bung na noi,,52,13.45,99.4
ban bung na rang,,13,16.183333,100.15
ban bung no,,20,17.600556,103.456667
ban bung nua,,14,16.816667,101.233333
ban bung nua,,43,14.226944,101.268056
ban bung o,,27,15.020278,101.951111
ban bung pa,,39,14.133333,100.833333
ban bung phak nam,,57,11.233333,99.466667
ban bung pham,,12,17.433333,100.833333
ban bung phing,,12,16.666667,99.933333
ban bung phlap,,13,16.5,100.333333
ban bung phra achan,,43,13.983333,101.083333
ban bung phra,,12,16.75,100.283333
ban bung phrao,,12,16.833333,100.466667
ban bung pok,,27,15.25,101.783333
ban bung pru,,27,15.15,101.85
ban bung ram,,12,16.616667,100.316667
ban bung rua yai,,22,16.45,102.916667
ban bung sam phan nai,,14,15.783056,101.030833
ban bung sam phan nok,,14,15.786667,101.0075
ban bung sanan,,39,14.05,100.85
ban bung saphang,,13,16.616667,100.216667
ban bung sawai,,71,16.083333,105.116667
ban bung si bua thong,,35,14.8,100.25
ban bung sisiat,,12,17.2,100.883333
ban bung suai,,09,17.474444,99.961667
ban bung suai noi,,71,16.083333,105.1
ban bung suai yai,,71,16.083333,105.116667
ban bung tako,,27,15.033333,102.016667
ban bung takon,,13,16.416667,100.383333
ban bung taku,,46,13.333333,101.366667
ban bung ta sa,,36,14.233333,100.783333
ban bung ta ta,,47,13.05,101.316667
ban bung tei,,27,14.552778,101.461389
