names,population,state_code,lat,lon
10 de novembro,,26,-27.0333333,-50.9333333
13 de maio,,26,-28.5833333,-49.1666667
14 de maio,,11,-22.5333333,-54.35
15 de novembro,,23,-28.75,-53.1
21 de abril,,23,-28.6333333,-54.1166667
23 de julho,,23,-27.9666667,-54.6166667
25 de julio,,08,-19.7666667,-40.6
28 de setembro,,23,-29.1,-51.8666667
2 de julho,,05,-12.0666667,-38.9666667
2 de novembro,,24,-8.85,-62.2833333
3 buritys,,24,-12.1666667,-60.0833333
3 de maio,,23,-27.7833333,-54.2333333
3 do maio,,23,-27.7833333,-54.2333333
3 ilhas,,15,-22.0322222,-43.4894444
3 vendas,,23,-29.85,-53.0166667
7 voltas,,11,-21.7833333,-55.1833333
a. alvarenga,,15,-20.7,-45.3666667
aba,,17,-6.7166667,-37.9833333
abacate,,03,0.3166667,-50.8833333
abacate,,04,-3.9463889,-62.9038889
abacate,,16,-1.1166667,-49.65
abacaxi,,04,-3.9166667,-58.75
abacaxis,,04,-3.9166667,-58.75
abacaxy,,04,-3.9166667,-58.75
aba da serra,,06,-5.9166667,-39.5166667
abade,,16,-0.7,-47.8833333
abadia,,05,-11.5666667,-37.5
abadia,,15,-17.7166667,-43.1
abadia,,21,-21.7333333,-41.2333333
abadia de pitangui,,15,-19.3333333,-45.2166667
abadia do pitangui,,15,-19.3333333,-45.2166667
abadia dos dourados,,15,-18.4666667,-47.4
abadiania,7062,29,-16.1,-48.8
abaete,20371,15,-19.15,-45.45
abaete,,16,-1.7,-48.9
abaetetuba,78052,16,-1.7,-48.9
abaetezinho,,16,-1.0333333,-47.7
abaiara,,06,-7.35,-39.05
abaiba,,15,-21.6,-42.5
abaira,,05,-13.2833333,-41.7
abaitinga,,27,-24.0333333,-48.05
abapa,,18,-24.95,-49.8166667
abapan,,18,-24.95,-49.8166667
a. barauna,,17,-7.1166667,-36.95
a. barbosa,,11,-21.6333333,-55.5333333
abare,,05,-8.7166667,-39.1166667
abarracamento,,21,-22.2,-43.5
abate,,23,-28.1,-52.9166667
abatia,,18,-23.3166667,-50.3
abbadia,,05,-11.5666667,-37.5
abbadia,,15,-19.3333333,-45.2166667
abbadia dos dourados,,15,-18.4666667,-47.4
abdon batista,,26,-27.6166667,-50.9833333
abel,,15,-22.9,-46.1333333
abelardo luz,,26,-26.6,-52.35
abelar do luz,,26,-27.35,-51.6833333
abelha,,11,-21.3333333,-57.7
abelhas,,11,-21.3333333,-57.7
abelhas,,22,-5.9480556,-36.0619444
abertao,,15,-22.3,-45.7833333
abico,,04,-3.15,-64.2666667
abismo,,01,-10.7166667,-70.45
abobora,,06,-5.85,-40.4166667
abobora,,20,-10.7041667,-45.0558333
aboboras,,05,-9.8166667,-40.05
aboboras,,20,-10.7041667,-45.0558333
aboboras,,30,-7.8666667,-38.2333333
abobral,,11,-21.2,-56.8333333
abolicao,,14,-15.7333333,-55.6666667
abolicao,,23,-30.8666667,-52.25
aborrecido,,06,-2.8938889,-40.9186111
abraao,,21,-23.1333333,-44.1666667
abraao,,24,-9.0,-63.2666667
abrahao,,21,-23.1333333,-44.1666667
abrahao,,24,-9.0,-63.2666667
abranches,,18,-25.2666667,-49.8166667
abrantes,,05,-12.8166667,-38.2666667
abre campo,,15,-20.3,-42.4833333
abreu,,13,-3.3502778,-42.4197222
abreu,,20,-7.8,-45.5
abreu,,23,-29.9333333,-57.1833333
abreu e lima,81960,30,-7.9,-34.8833333
abreulandia,,31,-9.5655556,-49.0563889
abreus,,05,-10.0,-40.6833333
abreus,,15,-21.0,-43.3
abucari,,04,-5.0166667,-62.7833333
abufari,,04,-5.3963889,-63.0905556
abufary,,04,-5.3963889,-63.0905556
abuna,,24,-9.7,-65.3833333
abunai,,04,-1.8333333,-66.55
abunan,,24,-9.7,-65.3833333
abundancia,,13,-4.1166667,-44.6
abura,,17,-7.35,-35.4333333
abutari,,04,-5.3963889,-63.0905556
acaa,,05,-12.3666667,-43.3
acaam,,05,-12.3666667,-43.3
academia,,04,-6.95,-71.2511111
acaiaca,,15,-20.35,-43.15
acai,,01,-8.2666667,-73.1
acai,,18,-23.3666667,-50.8166667
acai,,27,-21.3833333,-48.9833333
acaituba,,04,-7.0166667,-64.5833333
acaituba,,25,0.65,-61.55
acaju,,05,-13.0333333,-39.5333333
acajutiba,14349,05,-11.6666667,-38.0166667
acampamento,,01,-7.45,-73.6666667
acampamento,,13,-3.6483333,-42.9625
acampamento,,16,-1.0,-57.0166667
acampamento grande,,03,0.3,-53.0666667
acampamonte,,20,-6.9833333,-41.1666667
acapucai,,23,-29.8333333,-51.15
acara,,04,-4.3694444,-59.6602778
acara,,13,-3.4166667,-45.3166667
acara,12803,16,-1.95,-48.1833333
acarahu,,06,-2.8833333,-40.1166667
acarahy,,04,-3.4166667,-68.25
acarai,,04,-3.4166667,-68.25
acarai,,05,-13.95,-39.1166667
acarai,,06,-3.0166667,-39.6333333
acarai,,15,-19.5833333,-41.4833333
acara-mirim,,13,-3.5333333,-45.3666667
acara-mirim,,16,-2.4,-48.2833333
acarape,,06,-3.6666667,-40.9666667
acarau,28389,06,-2.8833333,-40.1166667
acare,,06,-6.8666667,-39.8666667
acari,,05,-9.1333333,-40.0833333
acari,,16,-1.6166667,-47.55
acari,,21,-22.8261111,-43.3447222
acari,9159,22,-6.5166667,-36.6333333
acari,,25,3.8333333,-61.4
acary,,22,-6.5166667,-36.6333333
a. cassara,,24,-13.2166667,-62.1
acaua,,13,-2.6833333,-45.15
acaua,,20,-8.2,-41.0833333
acaua,,30,-7.8833333,-39.1333333
acau,,17,-7.1166667,-35.35
acaua de baixo,,30,-7.9,-39.15
accioly,,08,-19.6666667,-40.4666667
acegua,,23,-31.8666667,-54.15
aceme,,30,-8.1333333,-38.95
acesita,,15,-19.5333333,-42.6333333
aciline,,03,-0.3833333,-52.1
acima,,04,-7.7166667,-65.8833333
acioli,,08,-19.6666667,-40.4666667
acopiara,24562,06,-6.1,-39.45
acoriana,,23,-32.1166667,-52.6166667
acorizal,,14,-15.2,-56.3666667
acotea,,23,-31.7666667,-53.8
acoteia,,23,-31.7666667,-53.8
acougue,,05,-11.9833333,-40.4166667
acougue,,06,-3.45,-40.0666667
acre,,20,-10.8833333,-45.0833333
acua,,20,-8.2,-41.0833333
acu,,04,-4.1322222,-62.34
acu,,05,-12.5,-38.9666667
acu,,13,-2.1666667,-44.6333333
acu,36126,22,-5.5772222,-36.9075
acuarana,,02,-9.6333333,-36.95
acucena,14506,15,-19.0666667,-42.5333333
acu da torre,,05,-12.55,-38.0
acude,,02,-9.4166667,-36.6333333
acude,,05,-13.8333333,-41.4
acude,,06,-3.1666667,-40.4333333
acude,,13,-4.1166667,-44.9333333
acude,,15,-20.7833333,-46.45
acude,,17,-6.8333333,-38.0166667
acude,,20,-4.6,-41.4666667
acude,,30,-8.0333333,-37.6666667
acude angelim,,30,-8.8833333,-36.2833333
acude de baixo,,30,-8.0166667,-38.6
acude de leite,,17,-6.65,-37.75
acude de macaubas,,05,-13.0,-42.5333333
acude do mado,,06,-7.4166667,-38.7666667
acude do meio,,30,-7.8833333,-37.3666667
acude dos alves,,17,-7.5166667,-38.4166667
acude dos carlos,,30,-7.75,-37.8833333
acude do severino,,17,-7.3666667,-37.8333333
acude novo,,06,-6.0833333,-38.4833333
acude novo,,22,-5.9180556,-37.0861111
acudes,,22,-6.25,-37.8
acude tapuio,,22,-6.1333333,-38.0833333
acude velho,,06,-3.75,-40.2166667
acude velho,,17,-7.1166667,-36.3666667
acude velho,,20,-3.7180556,-42.2438889
acude velho,,22,-5.8716667,-36.0780556
acudina,,05,-13.2,-44.1666667
acudinho,,06,-3.3833333,-39.9333333
acudinho,,17,-7.7166667,-38.5833333
acudinho,,20,-6.6166667,-40.65
acudinho,,30,-8.1,-36.4166667
acungui,,18,-24.9833333,-49.5
acupe,,05,-12.65,-38.75
acuria,,01,-9.0666667,-72.65
acurizal,,14,-15.2,-56.3666667
acurizal,,24,-13.5166667,-61.7333333
acurui,,15,-20.2,-43.7333333
acuru tendi,,11,-23.7166667,-54.7833333
acutinga,,05,-12.6166667,-38.8166667
acutuba,,04,-4.0738889,-62.4458333
adalberto,,21,-22.3166667,-41.9
adamantina,31079,27,-21.6833333,-51.0666667
adao candido lima,,15,-20.85,-46.2666667
adelia,,04,-6.8763889,-71.1233333
adelino,,15,-21.0666667,-45.8166667
adelino franca,,15,-16.45,-41.8833333
adeque,,22,-6.0333333,-36.95
adiquinhao,,22,-5.9480556,-37.3722222
adolfo,,26,-26.7333333,-51.0333333
adolfo,,27,-21.2333333,-49.65
adolfo,,31,-11.63,-49.2225
adolfo conder,,26,-26.7333333,-51.0333333
adolfo correia,,15,-20.4,-45.0833333
adolfo konder,,26,-26.7333333,-51.0333333
adolpho conder,,26,-26.7333333,-51.0333333
adolpho condor,,26,-27.2,-49.8
adonis,,15,-20.2666667,-41.9333333
adrianopolis,,18,-24.6666667,-49.0
adrianopolis,,21,-22.6577778,-43.4872222
adustina,,05,-10.5333333,-38.1166667
aelegrete,,11,-21.3833333,-54.75
afeto,,20,-8.2333333,-40.7833333
affligidos,,05,-12.4833333,-38.85
affonso,,14,-14.5,-57.0
affonso arinos,,15,-15.9166667,-46.0666667
affonso camargo,,18,-23.5,-49.9666667
affonso claudio,,08,-20.0833333,-41.1333333
affonso penha,,08,-19.6833333,-41.0166667
affonso penna,,05,-12.8,-39.2
affonso penna,,06,-6.1,-39.45
affua,,16,-0.1666667,-50.3833333
afligidos,,05,-12.4833333,-38.85
afogados,,30,-7.75,-37.65
afogados da ingazeira,25060,30,-7.75,-37.65
afonso,,11,-21.95,-53.5166667
afonso,,14,-14.5,-57.0
afonso,,15,-16.4166667,-40.8666667
afonso,,21,-22.4,-42.6
afonso arinos,,21,-22.0097222,-43.3388889
afonso bezerra,6947,22,-5.4980556,-36.5091667
afonso claudio,13543,08,-20.0833333,-41.1333333
afonso de paula,,15,-20.0166667,-45.2833333
afonso martins,,15,-16.4833333,-40.9166667
afonso nonato,,15,-16.25,-40.55
afonso pena,,05,-12.8,-39.2
afonso-pena,,06,-6.1,-39.45
afonso pena,,08,-19.6833333,-41.0166667
afonsopolis,,05,-18.1333333,-39.7833333
afonso souto,,23,-29.9666667,-55.2
afranio,,30,-8.5166667,-41.0
afranio peixoto,,05,-12.2833333,-41.4166667
afua,7031,16,-0.1666667,-50.3833333
agachi,,11,-20.0666667,-56.3
agarrado,,04,-5.3736111,-59.9730556
agenor alves,,15,-19.3833333,-50.0666667
agiota,,30,-8.0333333,-38.4166667
agisse,,27,-22.5166667,-50.9166667
agostinho,,01,-9.95,-68.55
agostinho,,11,-18.2666667,-55.2833333
agostinho,,27,-21.4,-47.55
agostinho,,30,-7.8333333,-37.2666667
agostinho porto,,21,-22.7927778,-43.3827778
agostinho rodrigues,,11,-19.45,-56.5666667
agreate,,06,-5.5833333,-40.6
agreste,,02,-9.5833333,-37.2833333
agreste,,05,-13.8666667,-43.2333333
agreste,,06,-5.9,-39.8333333
agreste,,30,-8.35,-36.8666667
agrestina,14453,30,-8.45,-35.95
agrinco,,18,-24.9166667,-53.0166667
agrovila,,18,-25.4097222,-50.5719444
agua amarela,,03,0.3833333,-52.1833333
agua amarela,,18,-25.9166667,-50.1166667
agua amarela,,31,-5.7666667,-48.05
agua amarella,,18,-25.9166667,-50.1166667
agua azul,,11,-21.9333333,-56.1833333
agua azul,,18,-25.8,-50.2
agua azul,,20,-6.1833333,-41.5833333
agua bela,,05,-14.3333333,-40.7
agua bela,,15,-16.1666667,-40.8166667
agua bela,,17,-6.7666667,-37.9333333
agua bela,,20,-5.8166667,-42.8333333
agua boa (1),,06,-3.05,-40.4333333
agua boa (2),,06,-3.4166667,-39.3166667
agua boa,,05,-12.4166667,-44.6166667
agua boa,,06,-4.15,-39.3166667
agua boa,,08,-19.7666667,-40.2833333
agua boa,,15,-17.9833333,-42.4
agua boa,,18,-23.5,-52.1666667
agua boa,,25,2.6666667,-60.7666667
agua bonita,,27,-22.7333333,-47.75
agua bonita,,31,-13.0333333,-49.8166667
agua branca,5161,02,-9.2833333,-37.9166667
agua branca,,05,-12.5666667,-38.45
agua branca,,06,-6.4333333,-38.7833333
agua branca,,13,-3.0825,-42.0377778
agua branca,,14,-16.25,-55.4666667
agua branca,,15,-14.75,-43.4166667
agua branca,,17,-7.5166667,-37.6666667
agua branca,,18,-24.5,-49.5166667
agua branca,13912,20,-5.8833333,-42.6333333
agua branca,,22,-6.0333333,-37.8333333
agua-branca,,27,-23.2469444,-47.6555556
agua branca,,30,-7.8333333,-37.5833333
agua branca de cima,,20,-5.1666667,-41.2666667
aguacerita,,14,-15.8166667,-58.75
agua clara,,11,-20.45,-52.8666667
agua clara,,18,-24.0333333,-50.2833333
agua clara,,26,-27.1166667,-48.9166667
agua clara,,27,-21.5333333,-50.5666667
agua comprida,,05,-12.3166667,-37.9
agua comprida,,15,-20.0666667,-48.1333333
aguacu,,11,-19.45,-57.7
aguacu,,14,-15.15,-56.0166667
aguacuzinho,,11,-19.2,-56.4666667
aguada,,05,-12.7166667,-42.2333333
aguada nova,,05,-11.45,-41.8
aguada nova,,15,-16.3,-41.1833333
agua da rega,,05,-12.1166667,-41.7333333
agua da rosa,,27,-22.7166667,-48.6166667
agua de rega,,05,-12.1166667,-41.7333333
agua de rego,,05,-12.1166667,-41.7333333
aguado,,05,-12.7166667,-42.2333333
agua do boi,,18,-25.5666667,-52.4
agua doce,,03,2.6,-50.8333333
agua doce,,05,-14.8,-39.8333333
agua doce,,06,-5.3166667,-39.2666667
agua doce,,08,-18.55,-40.9833333
agua doce,,17,-7.6666667,-36.6833333
agua doce,,26,-27.0,-51.55
agua doce,,29,-15.1833333,-56.8166667
agua doce do mantena,,08,-18.55,-40.9833333
agua emendada,,14,-15.9,-54.3
agua ferro,,21,-22.955,-43.9088889
agua fetida,,05,-12.5333333,-43.5666667
agua fina,,14,-14.2666667,-55.9666667
agua fria,,05,-11.85,-38.7666667
agua fria,,06,-6.3666667,-39.05
agua fria,,08,-18.4333333,-40.4
agua fria,,11,-21.3833333,-55.3
agua fria,,13,-3.1697222,-43.4797222
agua fria,,14,-15.1833333,-55.75
agua fria,,15,-18.5666667,-47.7666667
agua fria,,17,-6.8833333,-37.5
agua fria,,27,-23.35,-46.8833333
agua fria,,30,-7.9166667,-40.5
agua grande,,05,-12.3166667,-38.4333333
aguai,27503,27,-22.0666667,-46.9666667
agua limpa,,05,-17.3833333,-40.1666667
agua limpa,,08,-18.8333333,-40.6666667
agua limpa,,11,-19.35,-54.7
agua limpa,,13,-3.4088889,-43.4394444
agua limpa,,14,-14.3833333,-57.75
agua limpa,,15,-19.15,-48.3333333
agua limpa,,20,-6.2166667,-41.3666667
agua limpa,,27,-22.1666667,-48.85
agua-limpa,,29,-17.1,-50.1166667
agua limpa,,29,-18.1,-48.7666667
aguamare,,22,-5.1063889,-36.3202778
aguanil,,15,-20.95,-45.3833333
agua nova,,22,-5.3311111,-36.535
aguapaba,,17,-7.6,-35.5833333
aguape,,06,-2.9444444,-40.9530556
aguape,,15,-21.9,-45.2666667
aguape,,30,-8.6166667,-38.3833333
aguapei,,14,-16.2,-59.7166667
aguapei do alto,,27,-21.6,-51.2
agua preta,,04,-8.8333333,-66.1666667
agua preta,,05,-14.5833333,-39.2666667
agua preta,16444,30,-8.7,-35.5166667
agua quente,,05,-13.1833333,-44.3
agua quente,,14,-15.8333333,-55.4333333
agua quente,,15,-17.0166667,-41.0333333
agua quente,,29,-14.55,-48.9333333
agua rasa,,15,-20.4333333,-45.1666667
agua rica,,13,-3.6938889,-43.0180556
agua rosa,,15,-20.4333333,-45.1666667
agua santa,,15,-20.8666667,-42.1666667
agua santa,,21,-22.9075,-43.3086111
agua santa,,23,-28.1666667,-52.0333333
aguas belas,,05,-12.5,-41.2
aguas belas,,06,-4.05,-38.1833333
aguas belas,,15,-16.1,-41.05
aguas belas,,17,-6.9333333,-38.3833333
aguas belas,,20,-7.0333333,-42.2833333
aguas belas,22563,30,-9.1166667,-37.1166667
aguas bellas,,06,-4.9,-40.7666667
aguas bellas,,15,-17.0833333,-40.95
aguas bellas,,30,-9.1166667,-37.1166667
aguas boas,,13,-1.9666667,-45.8166667
aguas brancas,,05,-12.5666667,-38.45
aguas brancas,,23,-28.5833333,-50.4
aguas brancas,,26,-27.95,-49.5833333
aguas claras,,08,-18.85,-40.8333333
aguas claras,,26,-27.1166667,-48.9166667
aguas claras do sul,,27,-21.4166667,-51.1833333
aguas da prata,,27,-21.9333333,-46.7166667
aguas de chapeco,,26,-27.0833333,-52.9833333
aguas de contendas,,15,-21.9,-45.0166667
aguas de lindoia,18806,27,-22.4833333,-46.65
aguas de sao pedro,,27,-22.6,-47.8833333
aguas do pardo,,23,-27.1333333,-53.4
aguas do paulista,,05,-12.5,-43.1
aguas do vere,,18,-25.7666667,-52.95
aguas formosas,11512,15,-17.0833333,-40.95
aguas lindas,,21,-22.7113889,-43.7227778
aguas m. de ibira,,27,-21.1166667,-49.2
aguas pretas,,17,-7.0666667,-36.1166667
aguas santas,,15,-21.1,-44.2166667
agua suja,,05,-14.0333333,-44.45
agua suja,,11,-21.95,-54.4666667
agua suja,,15,-18.8833333,-47.6333333
agua sumida,,27,-22.3,-52.2166667
aguas vermelhas,,05,-13.8666667,-39.85
aguas vermelhas,16410,15,-15.75,-41.4666667
agua verde,,06,-4.1666667,-38.7
agua verde,,20,-7.3666667,-41.7166667
agua vermelha,,05,-13.8666667,-39.85
agua vermelha,,06,-7.4,-38.9333333
agua vermelha,,13,-6.4833333,-43.1333333
agua vermelha,,15,-15.75,-41.4666667
agua vermelha,,27,-21.9,-47.8833333
agua viva,,15,-21.6833333,-42.55
aguazinha,,17,-7.9,-36.7
agudo,,23,-29.6333333,-53.25
agudos,,18,-25.9891667,-49.3341667
agudos,30808,27,-22.4666667,-49.0
agudos do sul,,18,-25.9891667,-49.3341667
aguia,,04,-6.5,-69.4333333
aguia branca,2554,08,-18.9833333,-40.7333333
aguiar,,17,-7.0833333,-38.1833333
aguiar,,23,-2.7,-54.2
aguiar velho,,17,-7.1,-38.1
aguilhadas,,06,-6.5333333,-40.3666667
aguinhas,,26,-27.0,-52.95
agulha,,27,-21.35,-48.7
agulhas negras,,21,-22.4666667,-44.45
aguti,,26,-27.3,-49.15
aiapua,,04,-4.4633333,-62.0552778
aideia do prata,,15,-16.8166667,-40.6166667
aimin,,04,-4.8038889,-62.4516667
aimores,,05,-17.8333333,-40.1666667
aimores,19133,15,-19.5,-41.0666667
aiparuca,,04,-2.9811111,-60.6080556
aiquara,,05,-14.1166667,-39.8666667
airao,,04,-1.95,-61.3666667
airi,,04,-6.9,-58.2833333
airi,,30,-8.5333333,-38.1833333
airituba,,08,-20.95,-41.6666667
airoes,,15,-20.8,-42.9666667
airy,,04,-6.9,-58.2833333
aito calcado,,08,-20.95,-41.6166667
aiua,,06,-3.45,-40.4666667
aiuaba,,06,-6.6333333,-40.1166667
aiure,,26,-28.1,-49.3
aiuruoca,,15,-21.9666667,-44.6
ajacio,,15,-16.1,-40.35
ajapi,,27,-22.2833333,-47.55
ajara,,04,-4.4283333,-62.2688889
ajaru,,04,-2.2113889,-61.1144444
ajerico,,16,-0.8333333,-51.8166667
ajuda,,05,-16.5,-39.0833333
ajudante,,27,-23.1666667,-47.3166667
ajura,,04,-3.9044444,-62.7322222
ajuricaba,,04,-7.5833333,-66.6166667
ajuricaba,,23,-28.25,-53.7666667
ajurical,,04,-7.5833333,-66.6166667
ajuritiba,,27,-23.1333333,-46.4666667
ajusta conta,,14,-15.75,-57.6333333
ajusta-contas,,14,-15.75,-57.6333333
akotipa,,16,1.9166667,-55.55
alagacico,,05,-9.5333333,-38.3666667
alagadico,,05,-10.6666667,-41.2833333
alagadico,,06,-5.25,-40.9666667
alagadico,,15,-15.1,-43.6666667
alagadico,,20,-3.75,-42.5333333
alagadico,,25,3.3833333,-60.6166667
alagadico grande,,22,-5.8166667,-35.4166667
alagamar,,06,-4.2,-38.4
alagoa,,15,-22.1666667,-44.6333333
alagoa da serra negra,,05,-10.0333333,-37.9
alagoa de baixo,,30,-8.0833333,-37.2666667
alagoa de roca,,17,-7.0833333,-35.8666667
alagoado,,20,-6.0333333,-42.2833333
alagoa do monteiro,,17,-7.8833333,-37.1166667
alagoa grande,16406,17,-7.05,-35.6333333
alagoa grande,,20,-8.4166667,-44.1666667
alagoa nova,9182,17,-7.0666667,-35.7666667
alagoas,,02,-9.7166667,-35.9
alagoas,,05,-12.4333333,-40.3
alagoas,,13,-3.7713889,-43.4080556
alagoas,,15,-18.6333333,-46.6666667
alagoas,,29,-13.8,-47.8166667
alagoinha,,02,-10.1666667,-36.3833333
alagoinha,,05,-11.6833333,-41.3333333
alagoinha,,06,-6.7833333,-38.7166667
alagoinha,,13,-3.0777778,-42.0261111
alagoinha,7474,17,-6.9333333,-35.55
alagoinha,,20,-6.9333333,-41.7166667
alagoinha,,22,-5.0666667,-37.4
alagoinha,,30,-8.4833333,-36.7833333
alagoinhas,,02,-10.1666667,-36.3833333
alagoinhas,122692,05,-12.1166667,-38.4333333
alagoinhas,,20,-4.0333333,-41.85
alagoinhas de santana,,05,-13.9833333,-41.5333333
alamao,,05,-12.7833333,-38.85
alamari,,27,-23.55,-47.8833333
alambari,,27,-20.5833333,-47.2333333
alambary,,27,-23.55,-47.8833333
alambique,,08,-20.0833333,-41.1333333
alamoique,,16,1.9830556,-55.1666667
alasca,,24,-13.2972222,-60.3708333
alaska,,24,-13.2972222,-60.3708333
alavanca,,11,-21.55,-54.3
alazao,,05,-12.7,-44.6666667
alazao,,30,-7.7666667,-37.4833333
alazao dos cardosos,,13,-3.9927778,-42.9061111
albano,,04,-2.45,-57.55
albano,,14,-15.75,-55.5833333
albertina,,15,-22.2,-46.6166667
albertina,,26,-27.25,-49.65
alberto isaacson,,15,-19.5,-45.0666667
alberto moreira,,27,-20.4333333,-48.5833333
albertos,,15,-20.5833333,-45.4833333
alberto torres,,21,-22.2361111,-43.0963889
albino,,13,-3.6097222,-42.9877778
albino,,15,-18.45,-48.5833333
albino alves garcia,,15,-20.45,-45.2
albinopolis,,27,-21.7333333,-47.5333333
albuquerque,,04,-6.8872222,-58.3408333
albuquerque,,06,-4.5833333,-37.7666667
albuquerque,,11,-19.3833333,-57.4333333
albuquerque,,21,-22.3833333,-42.9166667
albuquerque,,27,-20.9833333,-48.8333333
albuquerque,,30,-8.0166667,-37.4
albuquerque de fora,,22,-6.3833333,-38.2
albuquerque lins,,27,-21.6666667,-49.75
albuquerque ne,,30,-8.0166667,-37.4
alcacus,,22,-6.0166667,-35.1333333
alcantara,5655,13,-2.4,-44.4
alcantara,,21,-22.8244444,-43.0352778
alcantaras,,06,-3.5833333,-40.5
alcantilado,,14,-16.3833333,-53.5166667
alcantil,,17,-7.7333333,-36.05
alceu garcia,,15,-18.55,-49.1833333
alcibiades vargas,,11,-23.3833333,-54.65
alcides batista,,15,-17.5166667,-40.65
alcidio,,27,-21.0333333,-47.55
alcobaca,,05,-17.5,-39.2166667
alcobaca,,16,-3.7,-49.7
alcobaco,,27,-23.4666667,-46.6166667
aldeamento,,08,-19.2666667,-40.7333333
aldeamento,,15,-19.3833333,-41.3166667
aldeia 20 de septembro,,14,-12.8833333,-59.3
aldeia,,05,-12.3666667,-40.0
aldeia,,11,-18.2,-55.1666667
aldeia,,13,-3.0138889,-42.0041667
aldeia,,14,-15.1166667,-56.3833333
aldeia,,15,-16.0333333,-41.3
aldeia,,17,-7.35,-36.3
aldeia,,20,-7.3833333,-40.85
aldeia,,27,-23.5,-46.85
aldeia,,28,-10.7833333,-36.9666667
aldeia,,30,-7.8333333,-35.1166667
aldeia,,31,-7.9166667,-48.2333333
aldeia amanajas tauai,,13,-4.5333333,-47.3666667
aldeia amanajaz tauai,,13,-4.5333333,-47.3666667
aldeia amanajaz taudi,,13,-4.5333333,-47.3666667
aldeia bacaeri,,14,-13.1,-54.1
aldeia bacaery,,14,-14.2,-55.0833333
aldeia bakairi,,14,-14.2,-55.0833333
aldeia cabixi,,14,-12.9833333,-60.2
aldeia cabixy,,14,-12.9833333,-60.2
aldeia caiabi,,14,-11.6166667,-55.6833333
aldeia capitao carutu,,14,-14.3166667,-54.7
aldeia caraja,,14,-10.5,-50.55
aldeia caraja,,31,-7.0666667,-49.1833333
aldeia caraja do capitao maloe,,31,-11.5666667,-50.6666667
aldeia curipi,,03,3.7166667,-51.6833333
aldeia de bororo,,14,-16.5666667,-57.8666667
aldeia de pedra,,13,-5.8333333,-45.9333333
aldeia do cabo,,21,-22.9666667,-42.0166667
aldeia do capitao chimang,,13,-2.8666667,-46.5833333
aldeia do capitao mariquinhas,,13,-3.2166667,-46.2333333
aldeia do capitao piarru,,13,-3.0666667,-46.3
aldeia do inacio,,14,-16.8666667,-57.4833333
aldeia do meio,,31,-7.0666667,-49.1833333
aldeia do meio caraja,,31,-7.0666667,-49.1833333
aldeia do prata,,15,-16.8166667,-40.6166667
aldeia do ranchao,,14,-12.8833333,-59.0166667
aldeia dos bororos,,14,-16.5666667,-57.8666667
aldeia dos caiapos,,15,-19.85,-50.25
aldeia dos indios,,16,-8.1,-54.6166667
aldeia dos machacalis,,15,-16.8833333,-40.6333333
aldeia fichada,,16,-7.35,-49.4666667
aldeia indigena catuquina,,01,-8.2944444,-71.6658333
aldeia indigena espirro,,14,-12.725,-59.9666667
aldeia indigena ipixuna,,16,-4.7733333,-52.5058333
aldeia indigena man-azde,,14,-13.0513889,-59.8708333
aldeia indigena serra azul,,14,-13.6708333,-59.5875
aldeia jose coroado,,14,-14.3,-54.7
aldeia manau,,16,-8.75,-49.65
aldeia manuel antonio,,16,-3.15,-46.7333333
aldeiamento,,08,-19.2666667,-40.7333333
aldeiamento,,15,-19.3833333,-41.3166667
aldeia nambikwara,,14,-12.75,-59.8
aldeia nhambiquara,,14,-12.85,-59.3
aldeia palikur,,03,3.45,-51.5
aldeia paracanti,,16,-8.4555556,-49.5833333
aldeia paracaty,,16,-8.4555556,-49.5833333
aldeia parakana,,16,-4.4238889,-49.9775
aldeia pequena,,16,-8.4166667,-49.8333333
aldeia pirizal,,14,-16.8333333,-56.1333333
aldeia queimada,,14,-14.45,-58.1166667
aldeia ranchao,,14,-12.8833333,-59.0166667
aldeias das canoas,,16,0.8,-55.85
aldeia toliri,,14,-14.6333333,-58.4
aldeia toloiri,,14,-14.6333333,-58.4
aldeia velha,,11,-20.8666667,-57.8333333
aldeia velha,,13,-5.15,-45.5833333
aldeia velha,,14,-14.6833333,-59.1833333
aldeia velha,,15,-16.85,-40.5833333
aldeia velha,,16,-8.3380556,-50.4644444
aldeia velha,,17,-7.0833333,-35.8666667
aldeia velha,,21,-22.4666667,-42.3
aldeia velha,,30,-8.2,-36.4666667
aldeia velha,,31,-6.0333333,-48.3
aldeia vila batista,,04,-1.9336111,-61.2038889
aldeia vinte de setembro,,14,-12.8833333,-59.3
aldeia waikiso,,14,-14.1875,-59.6833333
aldeia xada,,04,-4.5402778,-59.1680556
aldeia zamaicara,,14,-14.6333333,-58.55
aldeia zamaicare,,14,-14.6333333,-58.55
aldeia zamicare,,14,-14.6333333,-58.55
aldeinha,,13,-5.95,-45.0333333
aldeola,,01,-8.2166667,-72.9666667
alecrim,,02,-9.5666667,-37.3166667
alecrim,,05,-12.5833333,-38.9333333
alecrim,,06,-3.4666667,-40.1333333
alecrim,,15,-16.4655556,-44.8125
alecrim,,20,-6.95,-40.5
alecrim,,22,-5.5122222,-37.4138889
alecrim,,23,-27.65,-54.7666667
alecrim,,27,-24.2833333,-47.2333333
alecrim,,30,-7.9,-39.5833333
alegre (1),,20,-6.0666667,-41.8
alegre (2),,20,-6.9,-40.6833333
alegre,,04,-5.8166667,-61.4166667
alegre,,05,-10.3166667,-41.45
alegre,,06,-3.6166667,-40.2833333
alegre,19758,08,-20.7666667,-41.5333333
alegre,,11,-18.6166667,-55.1166667
alegre,,13,-1.8333333,-44.75
alegre,,14,-15.2477778,-59.8333333
alegre,,15,-18.3,-47.0166667
alegre,,16,-2.2,-48.5
alegre,,20,-5.7666667,-41.7833333
alegre,,27,-24.1166667,-48.9
alegre,,30,-7.9166667,-38.2166667
alegres,,05,-10.5166667,-38.2333333
alegres,,06,-5.95,-40.1
alegrete,,04,-5.1666667,-60.4
alegrete,,11,-20.7666667,-55.4
alegrete,,14,-15.1666667,-56.4166667
alegrete,,20,-7.2333333,-40.85
alegrete,77540,23,-29.7666667,-55.7666667
alegrete,,29,-17.3,-49.9166667
alegre velho,,20,-6.8333333,-42.35
alegria,,03,0.3166667,-51.2
alegria,,04,-2.6333333,-67.45
alegria,,05,-13.4166667,-39.95
alegria,,08,-19.4166667,-40.6166667
alegria,,11,-19.6833333,-55.65
alegria,,13,-3.6988889,-43.3544444
alegria,,14,-8.85,-58.4666667
alegria,,15,-15.5,-42.0666667
alegria,,16,-0.6,-47.6666667
alegria,,18,-26.2191667,-53.5325
alegria,,20,-3.8352778,-42.2538889
alegria,,22,-5.6166667,-36.6833333
alegria,,23,-27.8,-54.0666667
alegria,,27,-22.5166667,-50.9166667
alegria nova,,11,-21.1833333,-57.15
alegrias,,23,-31.8333333,-53.4166667
alegria velha,,11,-21.1666667,-57.1166667
aleixo,,14,-15.1666667,-56.2166667
aleixo,,22,-5.7213889,-37.3430556
aleixo,,26,-28.25,-50.45
aleluia,,21,-21.8,-41.6333333
alemao,,22,-5.2336111,-36.7961111
alemao do francisco,,05,-12.7833333,-38.85
alemoa,,18,-23.55,-49.7
alem parahyba,,15,-21.8666667,-42.6833333
alem paraiba,33907,15,-21.8666667,-42.6833333
alemquer,,16,-1.9333333,-54.7666667
alem tejo,,20,-6.0333333,-41.9666667
alencar,,06,-6.4,-39.15
alenquer,26291,16,-1.9333333,-54.7666667
alexandra,,18,-25.5666667,-48.6166667
alexandre,,14,-8.7,-58.0166667
alexandre bode,,08,-20.1333333,-40.95
alexandre de gusmao,,23,-28.8166667,-51.8
alexandre mendes,,20,-3.7794444,-42.4430556
alexandria,9769,22,-6.4166667,-38.0166667
alexandria,,30,-8.1833333,-39.7
alexandrina,,04,0.8666667,-66.9
alexandrina,,30,-8.1833333,-39.7
alexandrita,,15,-19.7,-50.45
alexrandina,,30,-8.1833333,-39.7
alfenas,71407,15,-21.4333333,-45.95
alferes,,06,-5.95,-40.1
alferez,,06,-5.95,-40.1
alfeu,,23,-28.95,-52.6333333
alfonso bezerra,,22,-5.4980556,-36.5091667
alfredo,,15,-17.0666667,-40.8166667
alfredo brener,,23,-28.5666667,-53.1333333
alfredo brenner,,23,-28.5666667,-53.1333333
alfredo castilho,,27,-20.8666667,-51.4833333
alfredo chaves,6422,08,-20.6333333,-40.75
alfredo chaves,,23,-28.95,-51.55
alfredo chavez,,08,-20.6333333,-40.75
alfredo dantas,,31,-7.1166667,-48.35
alfredo dutra,,06,-4.3833333,-38.8833333
alfredo guedes,,27,-22.5833333,-48.7166667
alfredo manso,,15,-21.45,-46.1333333
alfredo marcondes,,27,-21.95,-51.4166667
alfredo silveira,,23,-30.35,-52.0833333
alfredo teixeira,,08,-20.2333333,-40.45
alfredo wagner,,26,-27.7,-49.3333333
algeria,,15,-15.5,-42.0666667
algodao (1),,17,-7.3166667,-36.2333333
algodao (2),,30,-7.8833333,-36.1666667
algodao,,05,-12.4166667,-40.5833333
algodao,,06,-3.4333333,-40.4166667
algodao,,17,-6.9,-36.0
algodao,,30,-8.3166667,-37.35
algodoal,,16,-0.6,-47.5833333
algodoes,,05,-10.2,-41.95
algodoes,,06,-3.5166667,-41.4
algodoes,,20,-7.0333333,-42.6833333
algodoes,,30,-7.6666667,-39.6
algoinhas,,30,-8.4833333,-36.7833333
alhandra,10788,17,-7.4333333,-34.9
alho,,05,-16.9333333,-39.7166667
alianca,,04,-2.9172222,-69.6855556
alianca,,05,-12.4666667,-38.6833333
alianca,,06,-4.7333333,-38.5166667
alianca,,11,-19.05,-55.2666667
alianca,,14,-9.1,-60.5833333
alianca,,15,-19.6,-43.4333333
alianca,,21,-22.2766667,-43.53
alianca,,24,-8.6166667,-63.5333333
alianca,,26,-27.2,-48.9166667
alianca,,27,-20.5,-47.3166667
alianca,17329,30,-7.5833333,-35.2166667
alianca do tocantins,,31,-11.3375,-48.8502778
aliatar,,26,-28.7,-49.3
alice,,03,3.65,-51.9833333
alipio,,27,-21.0,-47.2166667
alipio paca,,15,-17.15,-40.65
alivio,,06,-5.0833333,-38.7166667
alivio,,13,-4.9,-44.5833333
alivio,,17,-6.5833333,-38.15
alivio,,20,-3.8694444,-42.3033333
alivio,,22,-5.6369444,-36.1411111
aljezur,,21,-22.6666667,-43.6
aljubarrota,,04,-4.2972222,-69.5375
allemoa,,18,-23.55,-49.7
allianca,,04,-6.5833333,-64.35
allianca,,14,-9.1,-60.5833333
allianca,,15,-19.6,-43.4333333
allianca,,24,-8.6166667,-63.5333333
allianca,,26,-27.2,-48.9166667
allianca,,30,-7.5833333,-35.2166667
almadina,,05,-14.7,-39.6333333
almas (1),,20,-6.0166667,-41.6666667
almas (2),,20,-6.1166667,-41.2166667
almas,,05,-10.3,-41.4
almas,,06,-2.895,-41.2758333
almas,,13,-3.7802778,-42.8291667
almas,,15,-19.15,-44.6333333
almas,,17,-6.65,-37.6833333
almas,,20,-3.5791667,-42.0275
almas,,30,-7.85,-37.8833333
almas,,31,-11.6261111,-47.1016667
almecega,,20,-7.0166667,-42.5166667
almecegas,,13,-5.8666667,-43.1
almecegas,,20,-5.85,-43.0833333
almecega velha,,06,-2.9,-40.0
almeida,,05,-13.45,-39.4333333
almeida,,13,-5.9166667,-44.15
almeida,,15,-19.4333333,-43.8333333
almeida,,20,-5.5666667,-42.3666667
almeida,,21,-21.2,-41.7166667
almeida,,30,-7.7,-37.8333333
almeidas,,15,-22.3666667,-46.5333333
almeirim,20464,16,-1.5333333,-52.5666667
almenara,29333,15,-16.1833333,-40.7
almendra,,25,-1.3,-61.7
almeriana,,03,2.3,-50.75
almerim,,16,-1.5333333,-52.5666667
almesca,,13,-5.8666667,-43.1
almescar,,13,-5.8666667,-43.1
almesquinha,,13,-6.0166667,-43.0666667
almesquinho,,13,-6.0166667,-43.0666667
almfala,,06,-2.9333333,-39.8166667
almino affonso,,22,-6.15,-37.7666667
almino afonso,,22,-6.15,-37.7666667
almirante tamandare,89500,18,-25.3,-49.3166667
almirante tamandare,,23,-28.1,-52.9166667
almoco,,16,-1.25,-46.9166667
almofada,,06,-3.0333333,-39.8833333
almofala,,06,-3.0333333,-39.8833333
aloandia,,29,-17.7166667,-49.4833333
alpercata,,13,-3.6558333,-43.4830556
alpercata,,15,-19.0166667,-41.9833333
alpestre,,23,-27.25,-53.0333333
alpinino,,30,-8.5333333,-36.4
alpinopolis,13286,15,-20.8666667,-46.3833333
alta,,06,-3.3333333,-40.0833333
alta floresta,40468,14,-9.9,-55.9
altair,,27,-20.5166667,-49.0666667
altamira,,04,1.6666667,-67.2
altamira,,05,-11.0666667,-45.4166667
altamira,,07,-15.6166667,-47.6666667
altamira,,13,-5.7333333,-45.6
altamira,,15,-19.55,-43.5666667
altamira,70890,16,-3.2,-52.2
altamira,,20,-3.7672222,-42.5788889
altamira do maranhao,,13,-4.1666667,-45.4833333
alta mir,,07,-15.6166667,-47.6666667
altaneira,,06,-6.9833333,-39.7333333
altaneira,,18,-23.1666667,-52.0333333
altaneiras,,18,-23.1666667,-52.0333333
alteado,,15,-14.6333333,-44.8666667
alter do chao,,16,-2.5166667,-54.95
alterosa,9277,15,-21.25,-46.1333333
altidao,,20,-4.75,-41.8
altinho,,20,-3.9052778,-42.0222222
altinho,11913,30,-8.4833333,-36.0666667
altino,,15,-16.4166667,-40.3333333
altinopolis,14616,27,-21.0252778,-47.3744444
alto alegre,,01,-10.6166667,-68.1833333
alto alegre,,05,-11.6666667,-39.85
alto alegre,,13,-3.1166667,-45.6666667
alto alegre,,18,-22.8666667,-51.8666667
alto alegre,,20,-4.0166667,-41.4333333
alto alegre,,22,-5.8225,-37.4105556
alto alegre,,23,-28.7833333,-53.0
alto alegre,,24,-12.1333333,-61.8583333
alto alegre,,27,-21.5666667,-50.1666667
alto alegre,,30,-7.6833333,-39.6
alto alegre dos parecis,,24,-12.1333333,-61.8583333
alto,,02,-9.2666667,-38.0333333
alto,,05,-12.6833333,-39.35
alto,,13,-3.0144444,-42.0797222
alto,,30,-8.3,-38.5666667
alto amparo,,18,-24.7833333,-50.5333333
alto araguaia,8780,14,-17.3166667,-53.2
alto bela vista,,26,-27.4333333,-51.8666667
alto belo,,20,-5.9833333,-42.3166667
alto bergamo,,08,-19.7666667,-40.45
alto bergano,,08,-19.7666667,-40.45
alto bonito,,02,-9.3833333,-38.0666667
alto bonito,,05,-11.7333333,-40.4
alto bonito,,06,-3.8333333,-41.2833333
alto bonito,,13,-3.1333333,-42.2
alto bonito,,16,-4.1166667,-51.9166667
alto bonito,,20,-3.5552778,-42.2430556
alto bonito,,30,-8.5166667,-35.8
alto calcado,,08,-20.95,-41.6166667
alto capim,,15,-19.85,-41.25
alto cascavel,,18,-25.4,-51.5333333
alto coite,,14,-15.7833333,-54.3333333
alto da betania,,20,-6.0333333,-41.9833333
alto da boa vista,,21,-22.9619444,-43.2738889
alto da conceicao,,15,-21.8333333,-42.8666667
alto da conceicao,,30,-8.8166667,-36.0333333
alto da cruz,,20,-5.3,-42.8
alto da doca,,13,-5.7166667,-46.4
alto da gloria,,18,-25.6036111,-50.6905556
alto da grota funda,,02,-9.7333333,-37.4333333
alto da jurema,,05,-11.1666667,-41.8833333
alto da manela,,20,-6.3333333,-41.95
alto da nova,,30,-7.9,-38.6833333
alto da serra,,21,-22.8833333,-44.2333333
alto da serra,,27,-23.7833333,-46.3166667
alto das pedras,,13,-4.05,-44.9333333
alto das piabas,,05,-14.25,-39.95
alto da uniao,,23,-28.45,-53.8666667
alto da varzea,,06,-6.5166667,-38.6666667
alto de pedra,,13,-4.05,-44.9333333
alto de pedro,,30,-7.9833333,-38.0333333
alto de santa helena,,15,-18.6,-41.6166667
alto de santa maria,,08,-20.15,-40.9
alto de santo antonio,,30,-8.75,-36.1833333
alto de sao antonio,,08,-19.8333333,-40.65
alto de sao joao,,15,-18.5666667,-48.3166667
alto do amparo,,18,-24.7833333,-50.5333333
alto do bagre,,06,-5.0166667,-37.9333333
alto do bonfim,,05,-9.6666667,-43.3666667
alto do catingueiro,,30,-8.9166667,-37.3166667
alto do cobre,,18,-25.1166667,-52.1333333
alto do coqueiro,,13,-5.85,-43.1833333
alto do doca,,13,-5.7166667,-46.4
alto do feto,,05,-13.4833333,-40.1833333
alto do maranhao,,15,-20.5666667,-43.8666667
alto do matias,,30,-8.3666667,-36.4333333
alto do meio,,20,-6.4166667,-42.0
alto do melo,,05,-12.4,-40.0833333
alto do peba,,02,-9.25,-37.8166667
alto do rodrigues,,22,-5.2894444,-36.7611111
alto dos coelhos,,17,-7.3666667,-38.1666667
alto dos coelhos,,20,-9.3666667,-37.9166667
alto dos gomes,,17,-6.5666667,-38.45
alto dos pareiros,,20,-9.3666667,-37.9166667
alto dos pereiras,,20,-9.3666667,-37.9166667
alto do velame,,06,-4.95,-37.9666667
alto do vista,,20,-6.25,-42.3833333
alto formoso,,13,-3.3994444,-42.6186111
alto formoso,,20,-6.9,-42.2166667
alto garcas,,14,-16.9333333,-53.5333333
alto grande,,06,-4.05,-38.9
alto grande,,20,-7.9,-41.3
alto grande,,22,-5.8666667,-37.2541667
alto guandu,,15,-20.0333333,-41.35
alto itauna,,08,-18.1,-40.5166667
alto itaunas,,08,-18.1,-40.5166667
alto lajeado,,27,-20.2,-47.3333333
alto lindo,,13,-3.4052778,-42.6055556
alto longa,4435,20,-5.25,-42.2
alto madeira,,24,-8.8,-63.9333333
alto maranhao,,15,-20.5666667,-43.8666667
alto mimaso,,20,-5.6,-42.1333333
alto mutum preto,,08,-19.2666667,-40.9
altona,,26,-27.1166667,-49.5
altonia,11242,18,-23.9333333,-53.9
alto novo (1),,20,-7.3833333,-40.8166667
alto novo (2),,20,-7.9333333,-41.0166667
alto novo,,05,-12.2666667,-39.3333333
alto novo,,20,-5.6166667,-42.2166667
alto paraguai,6149,14,-14.5,-56.5166667
alto paraguai do diamantino,,14,-14.4166667,-56.45
alto paraiso de goias,,29,-14.1166667,-47.5166667
alto parana,10888,18,-23.0833333,-52.3666667
alto parnaiba,,13,-9.1,-45.95
alto patrao mor,,08,-19.45,-40.45
alto pau d'alho,,18,-23.5166667,-50.8833333
alto perimbo,,26,-27.5333333,-49.7
alto pimenta,,27,-21.2833333,-50.8
alto piquiri,10039,18,-24.0166667,-53.4666667
alto pora,,27,-20.0666667,-47.5
alto quatipuru,,16,-1.0833333,-46.9
alto queiroga,,15,-19.2166667,-41.9166667
alto rio bravo,,26,-28.0166667,-49.0666667
alto rio doce,,15,-21.0333333,-43.4166667
alto rio novo,,08,-19.0666667,-41.0166667
altos,,06,-7.25,-40.15
altos,28769,20,-5.05,-42.4666667
altos,,22,-5.3,-35.7166667
alto santa helena,,15,-18.6,-41.6166667
alto santa maria,,08,-19.9,-40.75
alto santa maria do rio doce,,08,-19.9,-40.75
alto santo,,01,-9.9547222,-67.8638889
alto santo,,06,-5.5166667,-38.25
alto santo antonio,,30,-8.75,-36.1833333
alto sao francisco,,08,-18.85,-41.0333333
alto sao joao,,15,-18.5666667,-48.3166667
alto seco,,05,-13.0833333,-39.5166667
alto sereno,,20,-6.9833333,-42.4
alto sucuriu,,11,-19.3166667,-52.7833333
altos verdes,,28,-10.4166667,-37.65
alto turi,,13,-2.9,-45.6333333
alto uruguai,,23,-27.3,-54.1333333
alto uruguay,,23,-27.3,-54.1333333
alto verde,,20,-5.6333333,-41.2833333
alto vere,,18,-25.9166667,-52.9833333
alunas,,05,-13.2,-39.3
alvacao,,13,-6.7,-43.8833333
alvacao,,15,-16.4327778,-44.2836111
alvalhado,,20,-7.2666667,-41.6
alvaraes,5527,04,-3.2,-64.8333333
alvareda,,15,-20.7166667,-42.15
alvarenga,,15,-19.4166667,-41.7333333
alvares florence,,27,-20.3166667,-49.9
alvares machado,21642,27,-22.1333333,-51.5
alvaro,,04,-7.2833333,-72.35
alvaro de carvalho,,27,-22.1,-49.7166667
alvaro melo,,15,-21.1666667,-47.0666667
alvejado,,22,-5.9380556,-36.7908333
alvellos,,04,-4.1,-63.3
alvelos,,04,-4.1,-63.3
alves,,15,-18.1666667,-42.75
alves,,23,-29.3666667,-54.7333333
alves lima,,27,-21.9166667,-50.2333333
alvim fabricio,,15,-20.85,-45.6333333
alvimlandia,,27,-22.45,-49.7666667
alvinandia,,27,-22.45,-49.7666667
alvinlandia,,27,-22.45,-49.7666667
alvino,,05,-12.1833333,-37.9333333
alvinopolis,12068,15,-20.1,-43.05
alvino vieira,,15,-17.0666667,-41.65
alvorada,,04,-5.4313889,-60.4591667
alvorada,,05,-16.5166667,-39.35
alvorada,,06,-5.9333333,-40.55
alvorada,,11,-17.2166667,-56.0333333
alvorada,,15,-19.3333333,-48.3333333
alvorada,,20,-6.0666667,-41.8833333
alvorada,,22,-5.95,-35.55
alvorada,,23,-28.6666667,-52.15
alvorada,10232,31,-12.47,-49.0822222
alvorada do sul,,18,-22.7833333,-51.1833333
amacia,,04,-5.6058333,-64.2152778
amadeu amaral,,27,-22.3666667,-50.05
amado bahia,,05,-12.55,-38.3
amado baia,,05,-12.55,-38.3
amambai,20261,11,-23.0833333,-55.2166667
amambera,,23,-28.3666667,-53.25
amana,,08,-20.9333333,-41.15
amanaiara,,06,-4.0666667,-40.5333333
amanaju,,06,-5.5,-39.3666667
amanari,,06,-4.0166667,-38.8666667
amancio bento,,15,-20.1333333,-45.1333333
amanda,,15,-19.3666667,-43.8833333
amandaba,,27,-21.0833333,-51.15
amanhece,,15,-18.55,-48.2333333
amaniu,,05,-10.3333333,-41.8333333
amaniutuba,,06,-6.6666667,-38.8833333
amapa,,01,-10.3,-69.3
amapa,6256,03,2.05,-50.8
amapa,,04,-5.45,-60.5833333
amapa,,13,-3.1405556,-43.2933333
amapa,,20,-5.6666667,-41.7166667
amapari,,03,0.6166667,-51.65
amapora,,18,-23.0333333,-52.8333333
amaragi,,30,-8.4,-35.45
amaragi d'agua,,30,-8.4,-35.4333333
amaragy,,30,-8.4,-35.45
amaraji,16660,30,-8.4,-35.45
amaraji d'agua,,30,-8.4,-35.4333333
amaral ferrador,,23,-30.8666667,-52.25
amaralina,,05,-13.0166667,-38.4666667
amarante,,15,-20.3166667,-43.7166667
amarante,8828,20,-6.2333333,-42.8333333
amarante do grajau,,13,-5.6,-46.75
amarante do maranhao,11510,13,-5.6,-46.75
amarantina,,15,-20.3166667,-43.7166667
amarela,,06,-2.9361111,-41.0422222
amarelao,,22,-5.5,-35.9
amarelo,,20,-6.8666667,-41.0166667
amarelo ferrado,,20,-6.85,-40.9333333
amarelos,,08,-20.5333333,-40.4833333
amargosa,,02,-9.6166667,-37.1833333
amargosa,22531,05,-13.0333333,-39.6
amargosa,,20,-6.1,-41.1833333
amargoso,,22,-5.2297222,-36.5627778
amarilis,,27,-22.3,-50.2833333
amaro,,06,-6.8166667,-39.6833333
amaro,,11,-21.7166667,-56.5833333
amaro,,25,4.5,-60.1166667
amaro,,30,-8.7833333,-37.05
amaro leite,,13,-8.9666667,-46.8666667
amaro leite,,29,-13.9666667,-49.15
amaropolis,,23,-29.9333333,-51.9
amaro ribeiro,,15,-20.7,-43.8166667
amaro tempo,,15,-17.0833333,-40.8166667
amarracao,,05,-13.1166667,-40.2333333
amarracao,,06,-6.6666667,-38.6666667
amarracao,,20,-2.8836111,-41.6661111
amatari,,04,-3.2666667,-58.8833333
amataura,,04,-3.4833333,-68.1
amatura,,04,-3.4833333,-68.1
amazonas,,05,-12.4666667,-40.8833333
amazonas,,17,-6.1,-37.2666667
amazonas,,21,-22.05,-41.8333333
amazonas,,22,-5.2911111,-36.0097222
amazonia,,05,-12.1666667,-39.3333333
ambe,,03,0.3333333,-50.9166667
ambe,,16,-3.15,-52.2166667
ambicao,,11,-21.3666667,-56.2166667
ambo,,17,-7.6833333,-36.2166667
ambo,,30,-7.3833333,-37.2666667
ambrosio aires,,04,-3.5833333,-59.1333333
ambrosio,,04,-2.8666667,-68.35
ambrosio,,05,-10.9833333,-39.2166667
ambrosio,,20,-7.85,-44.55
ambrosio,,25,2.8,-60.25
ambrosio,,26,-28.0333333,-48.7
ambrosio,,30,-8.8166667,-38.5666667
ambrosio vicente,,15,-17.3,-41.6833333
ambrozio,,30,-7.5833333,-39.8666667
ameixa,,17,-6.5166667,-37.7
ameixa,,22,-5.2833333,-35.8666667
ameixa,,30,-8.1,-35.7833333
ameixas,,30,-8.1,-35.7833333
amelia,,01,-10.4666667,-68.05
ameliopolis,,27,-21.8333333,-51.3
amendoim,,15,-17.9333333,-45.6666667
america,,04,-5.1666667,-60.4333333
america,,05,-13.6833333,-40.1166667
america,,08,-21.1666667,-41.4333333
america,,18,-25.5166667,-48.8833333
america de cima,,18,-25.5166667,-48.8833333
america dourada,14018,05,-11.4666667,-41.4333333
americana,196026,27,-22.7402778,-47.3344444
americaninhas,,15,-17.1333333,-41.2
americano,,16,-1.3166667,-48.0666667
americano brasil,,29,-16.3333333,-50.0166667
americano do brasil,,29,-16.3333333,-50.0166667
americo alves,,05,-9.6833333,-41.5833333
americo brasiliense,34332,27,-21.7166667,-48.1166667
americo de campos,,27,-20.3,-49.7166667
ametista,,08,-18.8833333,-41.1
ametista,,15,-18.6833333,-41.2
ametistas,,23,-28.3166667,-52.05
amianto,,05,-12.25,-40.6666667
amizade,,16,-1.1666667,-49.6333333
amola faca,,26,-27.7833333,-50.4833333
amolar,,02,-9.1833333,-36.1333333
amolar,,11,-18.0166667,-57.5
amolar,,20,-7.3833333,-42.9166667
amolar,,30,-7.75,-39.2833333
amontada,13520,06,-3.3833333,-39.8333333
amontoado,,21,-21.3333333,-41.05
amoreira,,05,-13.95,-41.9666667
amoreira,,18,-23.4666667,-50.75
amoreira,,27,-20.4333333,-48.5833333
amorim,,08,-20.5333333,-41.4166667
amorinopolis,,29,-16.6,-51.1333333
amoro,,05,-12.9166667,-39.2666667
amoroso,,22,-5.0333333,-37.3833333
amparinho,,17,-7.65,-37.0166667
amparo,,05,-11.05,-38.4333333
amparo,,11,-19.45,-55.5666667
amparo,,15,-19.7,-43.4666667
amparo,,17,-7.5666667,-37.05
amparo,,18,-24.7833333,-50.5333333
amparo,,21,-21.75,-41.1333333
amparo,41498,27,-22.7,-46.7833333
amparo,,28,-10.1333333,-36.9166667
amparo da serra,,15,-20.5166667,-42.8166667
amparo de sao francisco,,28,-10.1333333,-36.9166667
amparo do sao francisco,,28,-10.1333333,-36.9166667
amparo do sitio,,15,-16.35,-41.9833333
amparro da serra,,15,-20.5166667,-42.8166667
ampere,14275,18,-25.9166667,-53.4666667
amuamuaipe,,16,1.9166667,-54.9666667
amuamuatpe,,16,1.9166667,-54.9666667
amuri camaizore,,14,-14.75,-58.05
amuri camalzore,,14,-14.75,-58.05
anacetaba,,06,-3.6,-38.9666667
anacleto,,15,-20.0333333,-46.3666667
anacory,,04,-5.6641667,-63.1316667
anadia,9574,02,-9.7,-36.3
ana dias,,27,-24.3,-47.0666667
anafama,,04,-7.0833333,-64.6
ana farias da luz,,23,-30.5833333,-55.8166667
anage,3762,05,-14.6,-41.1333333
ana gomes,,15,-20.1333333,-45.0
anaja,,13,-3.6736111,-43.2975
anaja,,20,-3.5991667,-42.4441667
anaja dos pereiras,,20,-3.5444444,-42.46
anajas,,16,-0.9833333,-49.95
anajateua,,16,-3.1,-46.7
anajatuba,,04,-7.0166667,-57.8333333
anajatuba,5627,13,-3.2666667,-44.6166667
anajatuba,,16,-4.1166667,-56.6
anajazal,,13,-3.5547222,-43.175
anajaz,,16,-0.9833333,-49.95
anajazinho,,13,-3.3716667,-42.5030556
anaje,,05,-14.6,-41.1333333
analandia,,27,-22.1333333,-47.65
anama,,04,-3.5833333,-61.3666667
anaman,,04,-3.5833333,-61.3666667
ananas,,13,-3.6591667,-43.2972222
ananas,,20,-9.9058333,-45.0386111
ananas,8874,31,-6.3602778,-47.91
ananatuba,,16,-0.5833333,-49.1833333
ananindeua,433956,16,-1.3666667,-48.3833333
anapolandia,,31,-7.1,-48.1333333
anapolis,,27,-22.1333333,-47.65
anapolis,,28,-10.7333333,-37.8166667
anapolis,319592,29,-16.3333333,-48.9666667
anapurus,,13,-3.2052778,-42.4088889
ana rech,,23,-29.1166667,-51.0833333
anastacio,18817,11,-20.5166667,-55.8
anastacio,,15,-17.3666667,-41.3
anastacio,,20,-6.9333333,-40.8833333
anati,,04,1.0166667,-67.45
anaua,,06,-7.25,-38.6333333
anaurilandia,,11,-22.05,-52.75
ancari,,04,-5.6641667,-63.1316667
anchieta,,04,0.5666667,-69.8
anchieta,,05,-13.15,-41.8
anchieta,,08,-20.8,-40.65
anchieta,,20,-6.8666667,-40.75
anchieta,,21,-22.8269444,-43.4058333
anchieta,,26,-26.55,-53.2833333
ancora,,17,-7.55,-37.7833333
ancori,,04,-5.6641667,-63.1316667
ancuri,,06,-3.8666667,-38.5166667
andaia,,05,-12.8666667,-39.35
andaia,,15,-20.1166667,-41.5666667
andarahy,,04,-5.65,-63.1833333
andarahy,,05,-12.8,-41.3333333
andarai,,04,-5.5894444,-63.2891667
andarai,,05,-11.7333333,-40.6166667
andarai,,13,-5.0833333,-45.8833333
andarai,,21,-22.9258333,-43.2527778
andarico,,11,-22.1,-56.2666667
anderai,,04,-5.65,-63.1833333
andes,,08,-20.9833333,-41.2833333
andira,,04,-2.85,-57.0
andira,20758,18,-23.0666667,-50.25
andiroba,,04,-3.5511111,-60.4719444
andiroba,,13,-3.5075,-43.2469444
andirobal,,13,-3.8,-45.1666667
andorinha,,05,-10.3666667,-39.8166667
andorinhas,,18,-23.8333333,-51.2666667
andradas,26773,15,-22.0666667,-46.5666667
andrade,,04,-4.5088889,-63.5569444
andrade,,15,-21.0166667,-42.9666667
andrade,,21,-22.2430556,-43.4241667
andrade costa,,21,-22.2541667,-43.3644444
andrade pinto,,21,-22.2430556,-43.4241667
andradina,52407,27,-20.9,-51.3833333
andre,,20,-7.0833333,-40.75
andre da rocha,,23,-28.6333333,-51.5666667
andre fernandes,,15,-15.95,-41.5
andrelandia,10079,15,-21.7333333,-44.3
andre machado,,23,-29.9,-56.5166667
andrequice,,15,-18.2833333,-44.9833333
andre resende,,15,-21.5666667,-45.1833333
andre rodrigues,,17,-7.5,-36.5
andresa,,17,-7.4666667,-38.05
andre siqueira,,31,-11.7333333,-49.0833333
andreza,,06,-4.3333333,-38.15
andreza,,13,-3.1119444,-42.8644444
andreza,,17,-7.4666667,-38.05
anel,,02,-9.35,-36.3
anelio,,16,-1.9833333,-46.55
anemutu,,25,4.0833333,-59.8833333
angai,,18,-25.5,-50.4666667
angatuba,14476,27,-23.4833333,-48.4166667
angaturama,,15,-21.4833333,-42.4
angeim,,20,-5.3666667,-41.2
angelica,,17,-7.25,-37.5
angelim,,03,1.35,-50.9333333
angelim,,05,-12.2,-40.25
angelim,,06,-3.2833333,-39.4333333
angelim,,08,-18.5,-39.8666667
angelim,,13,-3.0480556,-42.1475
angelim,,17,-7.2166667,-38.5
angelim,,20,-10.8333333,-44.8333333
angelim,,21,-22.6666667,-42.0666667
angelim,,22,-5.4002778,-36.2772222
angelim,,30,-8.8833333,-36.2833333
angelina,,26,-27.5833333,-48.9833333
angelo,,05,-17.3666667,-40.3333333
angelo,,15,-16.1333333,-41.6333333
angelo rios,,15,-20.2333333,-45.1
angelo saocal,,23,-29.7666667,-54.0833333
angical (1),,20,-6.2666667,-41.8833333
angical (2),,20,-6.7166667,-41.4833333
angical (3),,20,-7.6166667,-42.3833333
angical (4),,20,-7.55,-41.6666667
angical,,05,-11.2333333,-41.75
angical,,13,-3.3575,-43.1505556
angical,,15,-15.7666667,-45.6833333
angical,,20,-3.5333333,-41.6666667
angical,,30,-7.7666667,-39.7333333
angical,,31,-11.9,-48.55
angical do piaui,,20,-6.0833333,-42.7333333
angicalinho,,13,-3.345,-43.1375
angicao,,05,-11.1,-41.3833333
angicao,,15,-15.45,-41.85
angico (1),,06,-3.5,-39.9666667
angico (2),,06,-3.7833333,-39.9166667
angico,,05,-10.0333333,-43.1
angico,,06,-5.6333333,-39.8333333
angico,,13,-3.7530556,-43.4494444
angico,,17,-6.85,-38.1
angico,,22,-5.1666667,-35.6833333
angico,,27,-21.7833333,-47.7333333
angico,,28,-10.2666667,-37.55
angico,,30,-8.3333333,-37.6166667
angico,,31,-6.4013889,-47.6936111
angico branco,,13,-3.0602778,-42.1802778
angico branco,,20,-3.4583333,-42.4888889
angico branco,,31,-6.5333333,-47.45
angico branco i,,20,-3.4241667,-42.1986111
angico branco ii,,20,-3.5191667,-42.0575
angico da escora,,17,-7.2666667,-38.45
angico das araras,,20,-3.8911111,-42.2988889
angico de minas,,15,-16.0833333,-44.4169444
angico grosso,,06,-5.2,-37.9666667
angicos,,05,-10.1833333,-38.8666667
angicos,,06,-4.4666667,-41.0666667
angicos,,13,-8.4666667,-45.9666667
angicos,,15,-16.0833333,-44.4169444
angicos,,17,-7.1166667,-37.7166667
angicos,,20,-6.9666667,-41.7166667
angicos,7729,22,-5.6663889,-36.6008333
angicos,,30,-7.8166667,-37.8833333
angico torto,,17,-7.1333333,-38.1
angico torto,,22,-6.4166667,-36.0833333
angico torto,,30,-7.8833333,-39.0166667
angico velho,,06,-7.05,-40.4166667
angola,,15,-21.5333333,-46.4333333
angola,,21,-21.25,-42.0833333
angoritaba,,15,-21.0333333,-43.5833333
angostura,,15,-21.75,-42.6833333
angra,,21,-23.0,-44.3
angra dos reis,153637,21,-23.0,-44.3
anguera,,05,-12.15,-39.2166667
anguereta,,15,-19.15,-44.6333333
angulo,,18,-23.1833333,-51.9166667
angustura,,15,-21.75,-42.6833333
angustura,,24,-8.9,-62.2666667
anhandui,,11,-20.9833333,-54.4833333
anhanduizinho,,11,-20.75,-54.3833333
anhanga,,16,-1.1833333,-47.8166667
anhanguera,,29,-18.3166667,-48.2333333
anhembi,,27,-22.8,-48.1166667
anhemby,,27,-22.8,-48.1166667
anhoma,,11,-20.3,-55.9166667
anhuma,,11,-20.3,-55.9166667
anhumas,,02,-9.15,-36.1166667
anhumas,,11,-20.3,-55.9166667
anhumas,,14,-16.9333333,-54.6666667
anhumas,,27,-22.2833333,-51.4166667
anibal,,15,-20.0666667,-41.4333333
aniceto,,06,-5.1666667,-40.0166667
aniceto,,15,-15.0333333,-45.6333333
anicuns,15685,29,-16.4666667,-49.9666667
anil,,06,-4.05,-40.45
anil,,13,-2.5333333,-44.2333333
anil,,21,-22.93,-43.3322222
anil,,30,-8.4666667,-38.5333333
aninga,,13,-3.2266667,-42.2055556
aninga,,20,-3.4247222,-42.1852778
aningal,,25,2.8333333,-61.0166667
aningas,,06,-2.9333333,-40.1666667
aningas,,22,-5.5333333,-35.3
aninha,,15,-14.4666667,-44.7333333
aninim,,04,-4.0352778,-59.3797222
anisio demorais,,27,-23.2241667,-47.7013889
anita garibaldi,,26,-27.6166667,-51.0833333
anitapolis,,26,-27.9,-49.1333333
anjelina,,26,-27.5833333,-48.9833333
anjico,,30,-8.65,-38.7
anjico velho,,22,-5.2333333,-35.75
anjinho,,06,-7.1,-39.8833333
anjinho,,20,-3.9563889,-42.0836111
anna dias,,27,-24.3,-47.0666667
annapolis,,27,-22.1333333,-47.65
annapolis,,28,-10.7333333,-37.8166667
annapolis,,29,-16.3333333,-48.9666667
anna reck,,23,-29.1166667,-51.0833333
annel,,02,-9.35,-36.3
annitapolis,,26,-27.9,-49.1333333
annory,,04,-3.7833333,-61.6333333
ano nuevo,,11,-21.8,-54.15
anori,8064,04,-3.7833333,-61.6333333
anory,,04,-3.7833333,-61.6333333
anselmi,,23,-32.85,-52.7333333
anselmos,,27,-23.0661111,-47.5261111
anta,,05,-15.75,-41.1
anta,,15,-19.5,-41.9666667
anta,,18,-23.8833333,-50.0
anta gorda,,05,-12.7166667,-39.9
anta gorda,,13,-3.4975,-43.2994444
anta gorda,,23,-28.9833333,-52.0166667
anta gorda,,26,-26.95,-51.2333333
antari,,05,-12.15,-42.0333333
antas,,05,-10.3833333,-38.3333333
antas,,06,-7.0,-38.9166667
antas,,18,-24.1333333,-50.5166667
antas,,26,-26.6,-52.3
antas,,27,-20.8666667,-47.25
antenor navarro,,17,-6.7333333,-38.45
antero,,15,-16.65,-40.5333333
antiga aldeia pacarandi,,16,-8.4555556,-49.5833333
antiga,,11,-22.2166667,-55.8833333
antiga colonia dourados,,11,-22.2166667,-55.8833333
antiga colonia sao lourenco,,14,-16.6666667,-55.25
antigo aldeia do ignacio,,14,-16.8666667,-57.4833333
antigo aldeia lania,,11,-20.55,-55.9833333
antigo arraial de lavrinhas,,14,-15.3,-59.2333333
antigo arraial de santa barbara,,14,-15.65,-59.15
antigo porto cunha bueno,,27,-21.7,-47.8166667
antigo santa gertrudes,,11,-21.5166667,-55.4333333
antimari,,04,-9.05,-67.4
antinha,,18,-24.95,-49.0
antioa colonia sao lourenco,,14,-16.6666667,-55.25
antoniao,,13,-4.8166667,-45.3166667
antonina,16152,18,-25.45,-48.7166667
antonina,,27,-20.5666667,-50.6166667
antonina,,31,-6.1,-48.3333333
antonina do norte,,06,-6.7166667,-39.9666667
antonio alves,,15,-19.05,-48.5833333
antonio amaral,,15,-16.25,-41.6
antonio,,05,-12.6666667,-41.1
antonio,,25,2.6166667,-60.3666667
antonio arangueiro,,15,-19.0333333,-48.4333333
antonio barbosa,,15,-20.0833333,-46.3
antonio bastos,,23,-29.9833333,-56.8833333
antonio bernardo,,05,-16.9333333,-39.7666667
antonio bezerra,,06,-3.7333333,-38.5833333
antonio borges,,05,-12.3333333,-41.0666667
antonio borges,,15,-20.6333333,-46.8
antonio borges,,31,-6.2,-48.4166667
antonio bueno,,15,-20.9833333,-46.6666667
antonio caetano,,15,-18.4666667,-48.0333333
antonio candido da silva,,14,-15.9666667,-54.6166667
antonio carlos,,15,-18.4,-48.3666667
antonio carlos,,26,-27.4666667,-48.85
antonio carmo,,15,-17.2666667,-41.9166667
antonio cipriano,,05,-16.4333333,-39.1666667
antonio correia,,15,-16.8833333,-41.5166667
antonio da barra,,27,-21.55,-46.5333333
antonio da luiz,,16,-8.7,-49.6166667
antonio de alencar,,31,-6.8,-48.0333333
antonio dias,,15,-16.5166667,-41.8833333
antonio diogo,,06,-4.3,-38.75
antonio do azeite,,15,-21.55,-44.1833333
antonio domingues,,15,-20.7,-46.4166667
antonio dos santos,,15,-19.7833333,-43.5666667
antonio duarte,,15,-17.2666667,-41.7
antonio eduardo,,15,-20.8833333,-45.8666667
antonio elias,,15,-16.5833333,-40.7333333
antonio fernandes,,15,-16.9333333,-40.9666667
antonio ferraz,,15,-16.2666667,-40.3333333
antonio ferreira,,15,-17.9166667,-41.9166667
antonio ferreira,,17,-7.0166667,-36.55
antonio filinto,,04,-1.75,-59.6166667
antonio fonseca,,15,-20.2833333,-45.2833333
antonio fortunato,,15,-20.5833333,-46.2
antonio franco,,15,-19.4666667,-49.9833333
antonio frotao,,15,-20.65,-46.05
antonio garcia,,15,-20.9666667,-46.7333333
antonio goncalves,,15,-16.3666667,-41.6833333
antonio gusmao,,15,-16.4166667,-41.85
antonio inacio,,26,-27.9,-50.75
antonio joao,,11,-23.25,-55.5166667
antonio laurindo,,15,-20.4666667,-46.5666667
antonio lemos,,16,-1.3666667,-50.8333333
antonio lima,,15,-17.3666667,-40.6666667
antonio lopes,,15,-21.3,-46.4
antonio manuel,,29,-15.65,-48.6
antonio mariano,,21,-21.1833333,-41.6333333
antonio martins,,22,-6.2,-37.8833333
antonio matos,,16,-1.1166667,-47.95
antonio melo,,15,-16.85,-41.75
antonio nonato,,05,-12.4,-40.7
antonio olimpio,,15,-14.4,-44.3833333
antonio olinto,,15,-16.7833333,-43.8333333
antonio olinto,,18,-25.9833333,-50.2
antonio olinto,,30,-8.3166667,-36.3
antonio olyntho,,30,-8.3166667,-36.3
antonio ourives,,15,-21.65,-45.5666667
antonio pardinho,,15,-16.2,-39.9333333
antonio pereira,,15,-20.3,-43.4833333
antonio pinheiro,,05,-16.5166667,-39.9333333
antonio pinto,,14,-15.9166667,-54.6666667
antonio pinto,,15,-17.75,-40.8
antonio porto jatai,,27,-21.6333333,-47.8333333
antonio prado,,15,-21.0166667,-42.1
antonio prado,,23,-28.85,-51.2833333
antonio primo da silva,,15,-14.7833333,-43.2333333
antonio raimundo,,05,-12.3333333,-41.05
antonio rocha,,15,-17.4166667,-41.5
antonio rocha,,21,-22.65,-44.15
antonio rodrigues,,15,-17.1666667,-40.7333333
antonio rodrigues de sousa,,15,-17.5833333,-40.6166667
antonio rondon,,11,-19.4833333,-56.4166667
antonio roque,,15,-21.1,-46.6166667
antonio rosa,,15,-20.25,-45.5166667
antonio sampaio,,05,-12.4166667,-41.0666667
antonio severino,,15,-20.2333333,-45.35
antonio spineli,,15,-21.1666667,-46.6666667
antonio taborda,,18,-25.0833333,-53.8666667
antonio varga,,08,-20.3333333,-41.25
antonio velho,,02,-9.7833333,-37.1833333
antonio vicente,,25,3.2,-59.9166667
antonio vieira,,15,-16.1333333,-39.8833333
antonopolis,,06,-4.8,-37.7333333
antuerpia,,24,-10.5333333,-63.1833333
antunes,,02,-8.9666667,-35.2
antunes,,15,-19.9,-44.7
anuan,,25,2.95,-61.0
anuao,,25,2.95,-61.0
anutiba,,08,-20.6,-41.4666667
a. oliveira,,11,-19.6833333,-55.1833333
apajatuba,,13,-2.6166667,-43.8
aparados da serra,,23,-28.7,-50.4
aparaju,,05,-17.6333333,-39.3166667
apare,,05,-8.7166667,-39.1166667
aparecida,,04,-3.1297222,-60.0244444
aparecida,,08,-20.7,-41.6666667
aparecida,,14,-14.6666667,-56.75
aparecida,,17,-6.7833333,-38.0666667
aparecida,,20,-6.2,-41.8833333
aparecida,,21,-22.0333333,-42.8
aparecida,,22,-6.4,-38.3833333
aparecida,34237,27,-22.8333333,-45.2333333
aparecida,,29,-15.8833333,-48.4833333
aparecida de goias,,29,-14.95,-49.7833333
aparecida de minas,,15,-20.1333333,-49.2333333
aparecida de monte alto,,27,-21.25,-48.6333333
aparecida de sao manuel,,27,-22.7166667,-48.6166667
aparecida d'oeste,,18,-23.9,-52.8166667
aparecida d'oeste,,27,-20.4666667,-50.8833333
aparecida do rio negro,,31,-9.9411111,-47.8538889
aparecida do taboado,17332,11,-20.0833333,-51.0833333
aparecida do tabuado,,11,-20.0833333,-51.0833333
aparicio,,04,-2.95,-69.2166667
apeca,,30,-8.8333333,-36.0666667
apehu,,16,-1.3,-47.9833333
aperibe,,21,-21.6166667,-42.1
apertado,,06,-7.2,-40.4333333
apertado do morro,,05,-13.8333333,-40.95
apeu,,16,-1.3,-47.9833333
apiaba,,18,-25.3333333,-50.7833333
apiaca,,08,-21.1333333,-41.5666667
apiahy,,27,-24.5166667,-48.8333333
apiai,18260,27,-24.5166667,-48.8333333
apicum,,05,-12.7166667,-38.75
apinage,,31,-11.5238889,-48.3016667
apinaje,,31,-11.5238889,-48.3016667
apipucos,,30,-8.0333333,-34.9333333
apiques,,06,-3.1,-39.5166667
apiuna,,26,-27.0333333,-49.4166667
apodi,16757,22,-5.65,-37.8
apodi,,30,-8.0666667,-35.4
apody,,22,-5.65,-37.8
apolinario,,16,-3.55,-47.05
apolinario,,30,-8.0833333,-36.4333333
apora,,05,-11.65,-38.0833333
apore,,29,-18.9666667,-52.0166667
aporema,,03,1.2333333,-50.8166667
aposento,,20,-3.9769444,-42.1155556
apoti,,30,-8.0666667,-35.4
apparecida,,20,-7.6333333,-43.95
apparecida,,27,-22.8333333,-45.2333333
apparecida,,29,-16.8166667,-49.25
apparecida dos corregos,,15,-18.8833333,-43.5166667
apparecido de monte alto,,27,-21.25,-48.6333333
aprasive,,20,-6.3833333,-41.9666667
aprazivel,,20,-4.8333333,-42.7166667
aprigio,,15,-16.1666667,-39.95
aproaga,,16,-1.95,-47.7833333
apua,,30,-7.8833333,-35.3333333
apuarema,,05,-13.9,-39.75
apucarana,107086,18,-23.55,-51.4833333
apucaraninha,,18,-23.8166667,-50.9166667
apucarena,,18,-24.7833333,-51.1666667
apuhy,,16,-4.5333333,-56.2
apui,,04,-0.1,-65.0833333
apui,,16,-1.4833333,-47.4666667
apuiares,,06,-3.9333333,-39.4
apuires,,06,-3.9333333,-39.4
apurima,,04,-3.75,-66.2333333
aqua preta,,04,-8.8333333,-66.1666667
aquidaba,,02,-9.0333333,-35.25
aquidaba,,04,-6.5,-69.6833333
aquidaba,,11,-22.3833333,-55.7166667
aquidaba,,13,-2.1833333,-44.8333333
aquidaba,,18,-23.6,-51.85
aquidaba,,26,-27.0333333,-49.4166667
aquidaba,10596,28,-10.2833333,-37.0333333
aquidaban,,04,-6.5,-69.6833333
aquidaban,,26,-27.0333333,-49.4166667
aquidaban,,28,-10.2833333,-37.0333333
aquidauana,35304,11,-20.4666667,-55.8
aquidavana,,11,-20.4666667,-55.8
aqui-ferto,,16,-4.7166667,-56.55
aquiles stengel,,26,-26.3333333,-51.0833333
aquiperto,,16,-4.7166667,-56.55
aquiraz,65117,06,-3.9,-38.3666667
ara,,04,-4.4858333,-59.8363889
araba,,27,-19.85,-50.4333333
arabela,,27,-21.4,-51.7166667
arabia,,22,-5.5436111,-36.3127778
araboladi,,16,-6.6166667,-57.5666667
araborladit,,16,-6.6166667,-57.5666667
arabuta,,26,-27.1666667,-52.1166667
araca,,02,-9.4833333,-37.9333333
araca,,04,-4.9633333,-60.2569444
araca,,05,-13.0333333,-38.9833333
araca,,06,-3.9833333,-38.35
araca,,13,-3.0727778,-42.1966667
araca,,15,-16.0994444,-44.6130556
araca,,17,-6.25,-37.5166667
araca,,20,-3.4894444,-42.4919444
araca,,21,-22.65,-42.1
araca,,23,-28.6666667,-51.75
araca,,25,4.2166667,-60.9
araca,,30,-8.7666667,-36.6666667
aracacu,,27,-23.7166667,-48.45
araca de baixo,,05,-13.3333333,-43.4833333
aracagi,,15,-15.85,-41.1
aracagi,,17,-6.85,-35.3666667
aracai,,15,-19.2,-44.2333333
aracaiba,,27,-24.4166667,-48.85
aracaji,,17,-6.85,-35.3666667
aracaju,490184,28,-10.9166667,-37.0666667
aracarariguama,,27,-23.4333333,-47.0666667
aracari,,04,-2.4430556,-61.0752778
aracariguama,,27,-23.4333333,-47.0666667
aracas,,05,-12.2,-38.2
aracassu,,27,-23.7166667,-48.45
aracatiacu,,06,-3.8833333,-40.0166667
aracatiara,,06,-3.1666667,-39.7333333
aracati,,01,-9.3166667,-72.2166667
aracati,44294,06,-4.5666667,-37.7666667
aracati,,15,-21.4,-42.6
aracati,,22,-5.3,-35.65
aracati,,25,-3.8,-61.3333333
aracati,,29,-16.1833333,-49.0833333
aracatiba,,08,-20.4666667,-40.5
aracatu,,05,-14.4166667,-41.45
aracatuba,,04,-2.5166667,-66.4166667
aracatuba,,15,-16.4166667,-40.9666667
aracatuba,,26,-28.1166667,-48.7
aracatuba,170028,27,-21.2,-50.4166667
aracaty,,01,-9.3166667,-72.2166667
aracaty,,06,-4.5666667,-37.7666667
aracazinho,,04,-5.1919444,-60.3877778
aracazinho,,06,-3.9666667,-38.3166667
arace,,08,-20.4,-41.0
araci,15089,05,-11.3333333,-38.95
araci,,15,-21.5166667,-42.9333333
aracitaba,,15,-21.3333333,-43.3833333
aracoiaba,,01,-8.5408333,-73.1027778
aracoiaba,13425,06,-4.3833333,-38.8166667
aracoiaba,13095,30,-7.8,-35.05
aracoiaba da serra,15395,27,-23.5,-47.6166667
aracoyaba,,06,-4.3833333,-38.8166667
aracruz,58272,08,-19.8166667,-40.2666667
aracuai,22005,15,-16.8666667,-42.0666667
aracu,,29,-16.3666667,-49.6833333
aracui,,08,-20.65,-41.2
aracy,,05,-11.3333333,-38.95
aragarcas,16781,29,-15.9166667,-52.25
aragoiania,,29,-16.95,-49.5
aragominas,,31,-7.1313889,-48.3772222
araguacema,,31,-8.7919444,-49.4305556
araguaci,,31,-6.8,-48.6166667
araguacu,,27,-22.4166667,-50.5666667
araguacu,7603,31,-12.8941667,-49.7730556
araguaia,,08,-20.5,-40.7666667
araguaia,,15,-17.3833333,-40.6666667
araguaiana,,14,-15.7166667,-51.85
araguaina,114959,31,-7.16,-48.0575
araguainha,,14,-16.8166667,-53.0833333
araguana,,31,-6.5897222,-48.4738889
araguar,,15,-18.6333333,-48.1833333
araguari,,03,1.2333333,-50.8166667
araguari,96567,15,-18.6333333,-48.1833333
araguary,,15,-18.6333333,-48.1833333
araguatins,17106,31,-5.6002778,-47.9330556
araguaya,,08,-20.5,-40.7666667
araguiana,,14,-15.7166667,-51.85
araia,,31,-11.5833333,-47.9166667
arai,,29,-13.6166667,-47.7166667
araim,,13,-6.1,-43.7666667
araioses,8667,13,-2.89,-41.9036111
araioses,,20,-3.9888889,-42.2169444
araiporanga,,18,-23.7166667,-50.7333333
arajara,,06,-7.35,-39.4
aramanduba,,16,-1.4833333,-52.4833333
aramari,,05,-12.0666667,-38.5
aramary,,05,-12.0666667,-38.5
arambare,,23,-30.9166667,-51.4833333
arame,,20,-3.2688889,-42.1186111
aramina,,27,-20.1,-47.8
aramirim,,15,-19.0166667,-42.4666667
arana,,15,-18.0833333,-41.55
aranau,,06,-2.8333333,-40.2166667
arandu,,27,-23.1166667,-49.0333333
aranha,,14,-15.8666667,-56.7166667
aranha,,15,-20.2,-44.1166667
aranhas,,13,-8.5,-45.85
arantes,,15,-21.4666667,-44.2
arantina,,15,-21.9333333,-44.25
arantina,,29,-17.6166667,-50.2666667
arapa,,06,-3.6166667,-40.8833333
arapapa,,04,-4.2383333,-62.2588889
arapari,,04,-3.4472222,-61.8091667
arapari,,06,-3.55,-39.6166667
arapari,,16,-1.75,-54.4
arapari,,25,3.1,-60.4
arapei,,27,-22.6833333,-44.45
arapema,,13,-3.7166667,-44.2333333
arapira,,03,3.2833333,-51.3333333
arapira,,04,0.55,-69.1666667
arapiraca,166566,02,-9.75,-36.65
arapiraca,,17,-7.0,-37.7166667
arapiranga,,05,-13.4666667,-41.7666667
arapixi,,04,-9.0166667,-68.0166667
arapixy,,04,-9.0166667,-68.0166667
arapoema,,31,-7.6188889,-48.9455556
araponga,,05,-17.2666667,-39.4833333
araponga,,06,-7.1166667,-39.7666667
araponga,,15,-20.6666667,-42.5333333
araponga,,18,-23.3833333,-51.45
arapongas,97513,18,-23.3833333,-51.45
arapora,,15,-18.4333333,-49.1833333
araporanga,,06,-7.1166667,-39.7666667
arapoti,,18,-24.1666667,-49.6666667
arapua (1),,17,-7.0333333,-36.9666667
arapua (2),,30,-7.9333333,-36.2666667
arapua (3),,17,-7.5833333,-36.2166667
arapua,,02,-9.7166667,-37.5
arapua,,06,-4.6833333,-41.1166667
arapua,,15,-19.0333333,-46.15
arapua,,17,-6.5666667,-38.4333333
arapua,,22,-5.4580556,-36.8558333
arapua,,30,-8.4333333,-38.5333333
arapuca,,06,-7.2,-40.3333333
araqua,,16,1.5,-54.6333333
araquara,,27,-24.5666667,-47.5166667
araquari,35691,26,-26.3833333,-48.7166667
araquem,,06,-3.6333333,-40.8166667
arara,,04,-2.5666667,-65.8
arara,,05,-13.45,-40.25
arara,,06,-5.6333333,-38.25
arara,,13,-3.0830556,-42.2788889
arara,7641,17,-6.8333333,-35.75
arara,,30,-8.3833333,-36.1666667
arara,,31,-11.4166667,-47.0666667
arara debaixo,,06,-2.935,-41.1725
ararai,,08,-20.5833333,-41.55
ararangua,43445,26,-28.9333333,-49.4833333
ararapari,,23,-27.6,-52.8166667
ararapira,,18,-25.2166667,-48.0333333
araraquara,185191,27,-21.7833333,-48.1666667
araras,,01,-9.0166667,-68.1
araras,,04,-2.5666667,-65.8
araras,,05,-14.5166667,-41.1666667
araras,,06,-2.9377778,-41.1538889
araras,,13,-3.25,-44.4666667
araras,,14,-15.1666667,-56.65
araras,,15,-19.15,-42.7666667
araras,,16,-3.7833333,-51.7833333
araras,,17,-7.3333333,-38.5333333
araras,,24,-10.45,-64.15
araras,107465,27,-22.3666667,-47.3833333
ararenda,,06,-4.75,-40.8333333
arari,16777,13,-3.4666667,-44.7833333
arari,,15,-21.0833333,-47.05
arari,,16,-2.4166667,-47.8
ararica,,23,-29.6,-50.9166667
araripe (2),,30,-7.6,-39.7
araripe,11860,06,-7.2,-40.1333333
araripe de baixo,,05,-12.8333333,-38.8
araripina,38570,30,-7.55,-40.5666667
arariuna,,16,-1.0166667,-48.9666667
ararius,,06,-3.8833333,-40.6
araruama,109638,21,-22.8833333,-42.3333333
araruna,,16,-2.7833333,-46.65
araruna,7667,17,-6.5333333,-35.7333333
araruna,,18,-23.9,-52.5
ararunaquara,,16,-3.5,-52.2166667
araruva,,18,-23.75,-51.3166667
arary,,04,-7.8,-70.7666667
arary,,13,-3.4666667,-44.7833333
arary,,15,-21.0833333,-47.05
arary,,31,-11.4166667,-47.0666667
arasselva,,11,-22.0,-54.8166667
arassoiaba,,30,-7.8,-35.05
arassuahy,,15,-16.8666667,-42.0666667
arassuai,,15,-16.8666667,-42.0666667
arassui,,15,-16.8666667,-42.0666667
arata,,05,-12.8166667,-38.45
arataca,,05,-15.25,-39.4166667
aratama,,06,-7.05,-39.85
arati,,04,-7.8,-70.7666667
aratiba,,23,-27.4,-52.3166667
araticu,,16,-1.9666667,-49.85
araticum,,05,-12.0,-39.3
araticum,,06,-3.8,-40.8833333
araticum,,28,-9.8166667,-37.3333333
aratinga,,23,-29.1833333,-51.7333333
aratingauba,,26,-28.3,-48.8666667
aratu,,05,-12.8166667,-38.45
aratuba,,05,-13.1,-38.75
aratuba,,06,-4.3833333,-39.05
aratuhype,,05,-13.0833333,-39.0
aratuipe,,05,-13.0833333,-39.0
araty,,04,-7.8,-70.7666667
araua,,04,-5.3008333,-60.4236111
araua,4747,28,-11.2666667,-37.6166667
araucaria,111303,18,-25.5833333,-49.4166667
araucumirim,,16,-0.6166667,-47.65
araujo,,06,-6.0666667,-38.5
araujo,,25,4.2166667,-60.8833333
araujos,,15,-19.9333333,-45.0666667
arauna,,15,-20.6833333,-45.9
araxa,82597,15,-19.5833333,-46.9166667
araxanas,,27,-21.9333333,-51.5333333
araxans,,27,-21.9333333,-51.5333333
araxas,,27,-21.9333333,-51.5333333
arayoses,,13,-2.89,-41.9036111
arayozes,,13,-2.89,-41.9036111
arcadas,,27,-22.7,-46.8666667
arcadia,,21,-22.5122222,-43.5236111
arcado,,27,-24.7,-48.3333333
arcangelo,,15,-21.3,-44.3166667
arceburgo,,15,-21.3666667,-46.9333333
arcelino,,16,-5.35,-55.8
arco iris,,27,-21.7666667,-50.4666667
arcos,33356,15,-20.2833333,-45.5333333
arco verde,,05,-13.05,-39.4
arcoverde,,15,-21.1333333,-43.4
arco verde,,23,-29.35,-51.5666667
arcoverde,,26,-27.2833333,-51.4333333
arcoverde,57164,30,-8.4166667,-36.9166667
arcozelo,,21,-22.4030556,-43.4230556
ardeira,,20,-3.6594444,-42.6222222
ardeiras,,20,-3.6497222,-42.0461111
areado,,05,-10.3333333,-43.2666667
areado,10689,15,-21.35,-46.15
areado,,27,-24.7,-48.3333333
areal,,05,-12.1166667,-44.5666667
areal,,13,-3.2333333,-44.6166667
areal,11041,21,-22.2288889,-43.1069444
areal,,23,-31.75,-52.2833333
arealva,,27,-22.0333333,-48.8833333
areao,,05,-12.9833333,-44.0833333
areao,,16,-4.4666667,-49.5666667
areao,,18,-24.7666667,-51.2
areao,,31,-11.5833333,-47.9166667
are,,21,-21.2666667,-41.8
are,,23,-27.45,-52.85
aredeco,,17,-7.3833333,-36.8
aredo,,15,-16.2666667,-41.4666667
areia,,05,-11.5833333,-45.05
areia,,11,-21.55,-57.1833333
areia,,13,-3.0761111,-42.2116667
areia,,15,-16.1,-40.7666667
areia,13825,17,-6.9666667,-35.7
areia branca,,05,-12.8333333,-38.35
areia branca,,06,-4.9833333,-38.65
areia branca,,15,-21.3166667,-42.7
areia branca,,18,-23.9833333,-50.4666667
areia branca,,20,-7.05,-41.0
areia branca,,21,-22.7525,-43.4033333
areia branca,18372,22,-4.9538889,-37.1322222
areia branca,,27,-22.8,-46.85
areia branca,7414,28,-10.7666667,-37.3166667
areia branca dos assis,,18,-25.87,-49.3655556
areia comprida,,22,-5.88,-36.1141667
areia da teixeira,,05,-12.3,-38.6333333
areia de tabuleiro,,22,-6.1833333,-38.0166667
areia do rosario,,18,-24.9666667,-49.45
areia do teixeira,,05,-12.3,-38.6333333
areia dourada,,27,-22.1,-51.9333333
areia fina,,05,-13.1333333,-39.35
areial,,02,-9.1666667,-37.35
areial,,05,-12.1166667,-44.5666667
areial,,06,-3.9666667,-40.3333333
areial,,13,-3.5602778,-43.3502778
areial,,17,-7.0333333,-35.8833333
areiao,,05,-12.9833333,-44.0833333
areiao,,16,-2.5166667,-49.45
areiao,,18,-24.7666667,-51.2
areiao,,29,-18.2333333,-48.4
areiao,,31,-11.5833333,-47.9166667
areias alvas,,22,-4.9105556,-37.215
areias,,05,-12.8,-38.2333333
areias,,06,-4.7388889,-37.3122222
areias,,11,-20.9833333,-55.8833333
areias,,13,-3.3666667,-45.6333333
areias,,14,-16.2333333,-58.1833333
areias,,15,-16.6166667,-41.1333333
areias,,16,-1.2,-51.25
areias,,17,-6.45,-38.4333333
areias,,20,-5.1666667,-42.8
areias,,27,-21.5166667,-46.5833333
areias,,30,-7.6666667,-35.1
areias barauna,,17,-7.1166667,-36.9333333
areias brancas,,23,-29.5,-49.8666667
areinhas,,13,-2.4666667,-43.45
areiopolis,,27,-22.6666667,-48.7
areja,,06,-5.7333333,-39.2666667
arejas,,16,-1.2,-51.25
arembepe,,05,-12.75,-38.1666667
arenal,,01,-9.2333333,-72.6833333
arenal,,04,-7.5666667,-72.6166667
arenapolis,9060,14,-14.4333333,-56.8166667
arencas,,06,-3.2666667,-39.7333333
arengas,,06,-3.3166667,-40.0
arenosa,,22,-5.3736111,-36.8563889
areopolis,,27,-22.6666667,-48.7
arequembaua,,16,-2.7166667,-49.7333333
arere,,06,-4.2166667,-38.5833333
arere,,16,-0.2666667,-53.8666667
ares,7231,22,-6.1833333,-35.15
arez,,22,-6.1833333,-35.15
argenita,,15,-19.7,-46.6666667
argenta,,23,-28.5,-52.2
argentina,,15,-16.0333333,-41.1166667
argentina,,27,-21.85,-47.8
argerita,,15,-21.6166667,-42.8333333
argirita,,15,-21.6166667,-42.8333333
argoim,,05,-12.5333333,-39.5333333
argola,,08,-20.3333333,-40.35
argolas,,08,-20.3333333,-40.35
argolo,,05,-17.8666667,-40.0166667
arguelho,,11,-22.7,-55.2333333
argyrita,,15,-21.6166667,-42.8333333
ari acu,,23,-28.0,-53.0833333
ari,,05,-12.3666667,-39.4
ariau,,04,-3.15,-57.2330556
aribao,,22,-5.3,-35.7833333
aribice,,05,-10.5666667,-38.7833333
aricanduva,,15,-17.8333333,-42.5833333
aricanduva,,18,-23.4666667,-51.4166667
aricaria,,16,-2.6833333,-52.05
aricobe,,05,-12.0833333,-44.4333333
aricura,,16,-2.3333333,-49.5166667
arikemes,,24,-9.9333333,-63.0666667
arima,,04,-5.7911111,-63.6330556
arimateia,,15,-22.1666667,-44.4
arinos,,14,-14.0333333,-56.4666667
arinos,10078,15,-15.9166667,-46.0666667
aripibu,,30,-8.4333333,-35.35
aripuana,27043,14,-9.1666667,-60.6333333
ariquemes,,04,-5.0397222,-59.8916667
ariquemes,58102,24,-9.9333333,-63.0666667
ariramba,,04,-5.3941667,-59.725
ariranha,,04,-5.3941667,-59.725
ariranha,,27,-21.1833333,-48.7833333
ariri,,27,-25.2,-48.0333333
ariry,,27,-25.2,-48.0333333
arisco,,06,-4.5166667,-39.6666667
arisco,,22,-5.5244444,-36.0397222
aristeu,,15,-15.9333333,-46.2
aristeu braganca,,23,-30.7,-55.1833333
aristides,,15,-20.9666667,-46.5666667
aristides lobo,,21,-22.4333333,-43.7833333
arisuel,,08,-19.2333333,-40.5
arisvel,,08,-19.2333333,-40.5
aritagua,,05,-14.7166667,-39.1
arius,,17,-7.0333333,-35.8833333
arizona,,05,-12.8,-40.9333333
arizona,,15,-16.2166667,-40.0666667
arizona,,20,-6.45,-41.5833333
arizona,,22,-5.2833333,-35.7
arizona,,29,-17.05,-48.3
arlindo gomes,,15,-18.8,-48.4833333
armacao,,05,-17.7333333,-39.2333333
armacao,,26,-27.35,-48.5666667
armacao dos buzios,23463,21,-22.75,-41.8833333
armacao do tairu,,05,-13.0666667,-38.7333333
armador,,06,-5.45,-38.1833333
armazem,,13,-3.0827778,-43.1136111
armazem,,23,-28.9166667,-52.5833333
armazem,,26,-28.2666667,-49.0166667
arneiroz,,06,-6.3333333,-40.1333333
arnoni,,23,-33.6166667,-53.45
arnoresco,,23,-33.2333333,-53.0666667
arnoreso,,23,-33.2333333,-53.0666667
aroaba,,08,-20.1333333,-40.3833333
aroases,,20,-6.1166667,-41.8
aroazes,,20,-6.1166667,-41.8
aroeira (1),,06,-4.3666667,-38.6166667
aroeira (2),,06,-4.8833333,-37.8333333
aroeira,,05,-10.65,-44.0833333
aroeira,,06,-2.9666667,-40.3833333
aroeira,,11,-21.6833333,-54.4166667
aroeira,,13,-3.8241667,-43.3236111
aroeira,,15,-19.2166667,-48.2833333
aroeira,,17,-7.7,-36.0666667
aroeira,,18,-24.95,-53.4
aroeira,,20,-3.7091667,-42.2747222
aroeira,,22,-5.4202778,-37.4930556
aroeira,,23,-28.9,-53.1
aroeira de dentro,,20,-6.8166667,-41.0833333
aroeira grande,,20,-7.7333333,-41.4
aroeira ii,,20,-5.0666667,-41.5666667
aroeiral,,20,-3.8647222,-42.0255556
aroeiras (3),,20,-7.7666667,-41.0666667
aroeiras altas,,22,-5.6986111,-37.2102778
aroeiras,,06,-4.5666667,-37.9833333
aroeiras,7019,17,-7.5166667,-35.6833333
aroeiras,,20,-3.8169444,-42.03
aroeira velha,,06,-3.0166667,-40.0166667
aroeirinha,,20,-7.3666667,-41.6666667
arouca,,27,-20.5666667,-50.6166667
arraia,,26,-26.9,-48.9333333
arraial,,05,-14.0166667,-39.25
arraial,,06,-3.5166667,-40.25
arraial,,13,-3.4333333,-44.3166667
arraial,,20,-3.8197222,-42.4461111
arraial,,23,-32.0166667,-52.2666667
arraial,,26,-26.9,-48.9333333
arraial,,27,-22.8333333,-46.65
arraial do cabo,26164,21,-22.9666667,-42.0166667
arraial sao bento,,27,-22.9166667,-47.7166667
arraias,6881,31,-12.9772222,-46.8916667
arranca-dente,,15,-16.1666667,-40.9833333
arrastao,,21,-22.7833333,-42.1833333
arrayas,,31,-12.9772222,-46.8916667
arrebol,,21,-21.9833333,-41.8833333
arrecife,,05,-11.0333333,-41.8833333
arrecife,,20,-5.2166667,-41.45
arrecife,,30,-8.05,-34.9
arrecife grande,,05,-11.0333333,-41.7
arrecifes,,05,-12.2833333,-41.05
arreias,,29,-16.05,-50.05
arreios,,29,-16.05,-50.05
arrelia,,21,-22.9366667,-43.2536111
arrependido,,16,-4.4833333,-49.55
arrepol,,21,-21.9833333,-41.8833333
arrieiro,,17,-8.05,-36.8166667
arrinha,,05,-12.3333333,-40.6833333
arroial de lavrinhas,,14,-15.3,-59.2333333
arroial velho,,14,-14.6833333,-59.1833333
arroio bonito,,23,-29.3666667,-53.05
arroio corrente,,26,-28.7,-49.0833333
arroio da seca,,23,-29.3666667,-51.7833333
arroio do meio,16331,23,-29.4,-51.95
arroio do silva,,26,-28.9833333,-49.4333333
arroio do so,,23,-29.7833333,-53.5666667
arroio dos ratos,13405,23,-30.0833333,-51.7166667
arroio do tigre,,23,-29.3333333,-53.1
arroio grande,,18,-25.2894444,-50.6686111
arroio grande,16117,23,-32.2333333,-53.0833333
arroio guacu,,18,-24.3833333,-54.25
arroio miranda,,23,-28.2,-52.3666667
arroio peixoto,,05,-12.2833333,-41.4166667
arroio teixeira,,23,-29.6333333,-49.9666667
arroio trinta,,04,-26.8666667,-51.3166667
arrojado,,05,-12.3833333,-38.45
arrojado,,06,-6.6666667,-39.0333333
arroyal de lavrinhas,,14,-15.3,-59.2333333
arroyal velho,,14,-14.6833333,-59.1833333
arrozal,,11,-18.6333333,-56.2166667
arrozal,,14,-14.8166667,-59.9333333
arrozal,,15,-20.5,-42.2166667
arrozal,,16,-1.2666667,-48.8166667
arrozal,,21,-22.6166667,-44.05
arrozal de sao sebastiao,,21,-22.8166667,-43.7666667
arroz,,05,-11.0,-45.2833333
arroz,,06,-4.3166667,-38.6
arroz,,17,-7.45,-37.5666667
arroz,,20,-8.3333333,-41.4166667
arroz,,30,-7.7666667,-38.75
arroz bravo,,06,-3.95,-38.3833333
arrozeira,,26,-26.7333333,-49.2666667
arroz sem sal,,14,-14.3666667,-56.7166667
arruda,,14,-15.0333333,-56.1166667
arruda,,17,-7.1333333,-36.05
arruda camara,,17,-6.8166667,-37.9166667
arrudeiro,,30,-7.75,-37.4833333
arruido,,17,-7.0333333,-38.5833333
artemis,,27,-22.6666667,-47.75
arthur bernardes,,18,-23.85,-50.2833333
arthur nogueira,,27,-22.5833333,-47.15
articura,,16,-2.3333333,-49.5166667
artur,,05,-12.4166667,-40.6333333
artur bernardes,,18,-23.85,-50.2833333
artur grande,,30,-8.6333333,-36.7
artur nogueira,40404,27,-22.5833333,-47.15
arua,,06,-4.3333333,-38.5833333
aruaja,,04,-5.0333333,-66.8166667
aruana,,04,-7.6166667,-60.3166667
aruana,,29,-14.9,-51.0833333
aru,,04,0.65,-67.2333333
aru,,16,-2.2166667,-49.7833333
aruaru,,06,-4.5833333,-38.35
aruata,,18,-25.9269444,-49.1788889
aruau,,04,-0.3833333,-66.35
arueira,,05,-11.5666667,-41.7833333
arueira,,13,-6.3666667,-46.4833333
aruja,72078,27,-23.4,-46.3333333
aruma,,04,-4.7355556,-62.1505556
arumanduba,,04,-2.6,-66.3666667
arumanduba,,16,-1.4833333,-52.4833333
arumandupa,,04,-2.6,-66.3666667
arumim,,25,3.4333333,-60.9166667
arunta,,13,-2.5666667,-44.15
aruti,,04,-0.3166667,-66.0833333
arvaja,,04,-5.0333333,-66.8166667
arvoredo,,06,-5.0,-40.3333333
arvoredo,,11,-21.35,-56.4166667
arvoredo,,17,-7.1,-37.3
arvoredo,,26,-28.4,-50.1166667
arvore grande,,11,-19.2166667,-51.8166667
arvores,,23,-29.2666667,-53.55
arvoresinha,,23,-28.8833333,-52.1666667
arvore verde,,05,-13.5666667,-40.8833333
arvorezinha,,23,-28.8833333,-52.1666667
ascencao,,15,-19.8,-44.5833333
ascuria,,26,-26.9666667,-49.3666667
ascurra,,26,-26.9666667,-49.3666667
asdiubal,,15,-16.8333333,-41.7
asoenangka,,16,1.7666667,-56.3666667
assacaio,,04,-3.8166667,-69.4
assahytuba,,04,-7.0166667,-64.5833333
assai,12545,18,-23.3666667,-50.8166667
assai,,27,-21.3833333,-48.9833333
assaituba,,04,-7.0166667,-64.5833333
assaizal,,31,-6.4333333,-48.3833333
assa-peixe,,15,-15.85,-43.95
assarai,,15,-19.5833333,-41.4833333
assare,11369,06,-6.8666667,-39.8666667
assembleia,,02,-9.4,-36.2333333
assis,,06,-4.9166667,-40.8666667
assis,87473,27,-22.6666667,-50.4166667
assis brasil,,01,-10.9166667,-69.5333333
assis brasil,,23,-28.2666667,-53.5666667
assituas,,13,-2.7333333,-46.65
assiz,,27,-22.6666667,-50.4166667
assu,,22,-5.5772222,-36.9075
assu de torre,,05,-12.55,-38.0
assumpcao,,04,-5.0166667,-62.7833333
assumpcao,,06,-3.5666667,-39.6333333
assumpcao,,24,-9.0166667,-61.6166667
assuncao,,04,-5.0166667,-62.7833333
assuncao,,05,-12.8166667,-42.7666667
assuncao,,06,-3.5666667,-39.6333333
assuncao,,17,-7.0666667,-36.7166667
assuncao,,20,-5.8666667,-41.0666667
assuncao,,22,-5.5166667,-35.8
assuncao,,24,-8.1333333,-63.0166667
assungui,,18,-25.5286111,-50.5569444
assunguy,,18,-24.9833333,-49.5
assunguy de cima,,18,-24.9833333,-49.5
assurua,,05,-11.3,-42.6666667
astolfo dutra,10999,15,-21.3166667,-42.8666667
astorga,20129,18,-23.2166667,-51.6666667
atafona,,11,-23.5333333,-55.2833333
atafona,,21,-21.6166667,-41.0166667
atafona,,26,-27.1166667,-49.5
ataiba pinto,,15,-20.2,-46.9166667
atalaia,18908,02,-9.5166667,-36.0333333
atalaia,,04,-7.4166667,-71.2333333
atalaia,,08,-18.6333333,-40.0166667
atalaia,,15,-21.05,-45.9833333
atalaia,,16,-0.9833333,-49.3166667
atalaia,,18,-23.1166667,-52.05
atalaia,,20,-2.8786111,-41.6438889
atalaia,,28,-11.4166667,-37.3166667
atalaia do norte,,04,-4.3652778,-70.1930556
atalaia nova,,28,-10.9333333,-37.0333333
atalaia velha,,28,-10.9666667,-37.0666667
ataleia,,15,-18.05,-41.1
atalho,,05,-10.1166667,-40.7333333
atalho,,21,-22.55,-42.15
atalho,,30,-8.9833333,-38.3333333
atamasio,,11,-21.5166667,-54.15
atanasio,,11,-21.5166667,-54.15
atanasio,,13,-3.5883333,-43.1755556
ataque,,05,-12.85,-40.2
ataque,,15,-22.0333333,-45.5666667
a. tarraca,,11,-22.3166667,-55.0333333
atauba,,25,-1.0333333,-61.85
atenas,,01,-8.8666667,-71.4833333
aterradinho,,11,-21.1333333,-56.65
aterradinho,,14,-16.95,-57.35
aterradinho,,15,-20.3666667,-47.1166667
aterradinho,,27,-23.45,-48.5666667
aterrado,,13,-4.25,-45.6333333
aterrado,,14,-17.0166667,-56.6
athenas,,01,-8.8666667,-71.4833333
ati acu,,23,-28.0,-53.0833333
ati-acu,,23,-28.05,-53.0666667
ati assu,,23,-28.0,-53.0833333
atibaia,110970,27,-23.1241667,-46.5622222
ati-mirim,,23,-28.05,-52.6833333
atininga,,04,-5.8794444,-61.2416667
atirado,,15,-22.1333333,-45.5833333
atlantica,,27,-21.5833333,-51.2166667
atlantida,,27,-21.5833333,-51.2166667
atoleiro,,05,-11.95,-44.7166667
atoleiro,,13,-3.4127778,-42.6677778
atoleiro,,20,-3.6725,-42.5991667
atoleiro,,22,-6.3333333,-37.8833333
atoleiro de dentro,,13,-3.9269444,-43.1847222
atomia,,18,-23.2666667,-50.5833333
atras dos morros,,20,-6.0,-41.4666667
atravessado,,04,-4.085,-62.305
atuba,,18,-25.4333333,-49.2333333
aturiai,,16,-1.0666667,-46.5
auari,,04,-8.3333333,-67.3333333
augosto severo,,22,-5.8633333,-37.3105556
augusta vitoria,,18,-24.25,-50.85
augustinho,,05,-9.8833333,-38.0166667
augustinopolis,,31,-5.41,-47.7063889
augusto correa,16280,16,-1.0333333,-46.6666667
augusto de lima,,15,-18.1,-44.3166667
augusto franco,,15,-21.7166667,-43.6333333
augusto montenegro,,04,-2.7166667,-57.7
augusto nicolau,,15,-21.6333333,-46.4166667
augusto queiroga,,15,-17.4833333,-41.6666667
augusto seio,,15,-19.35,-41.0833333
augusto severo,,22,-5.8633333,-37.3105556
augusto severo,,23,-28.8166667,-51.8
augusto soares,,15,-21.2833333,-45.7
auler,,23,-28.7666667,-52.4166667
aunas,,05,-13.2,-39.3
aurea,,23,-27.7,-52.0666667
aureliopolis,,29,-17.15,-48.8
aurerliopolis,,29,-17.15,-48.8
auriflama,11971,27,-20.6833333,-50.5666667
aurilandia,,29,-16.7333333,-50.4666667
aurizona,,13,-1.2833333,-45.7666667
aurora,,01,-9.6833333,-72.0833333
aurora,,05,-12.4,-38.8166667
aurora,10757,06,-6.95,-38.9666667
aurora,,11,-19.2,-55.4833333
aurora,,18,-26.0608333,-53.6880556
ausentes,,23,-28.7333333,-50.0666667
austin,,21,-22.7166667,-43.5333333
autazes,9614,04,-3.5833333,-59.1333333
auxiliadora,,23,-30.025,-51.1916667
avahy,,27,-22.1333333,-49.3666667
avai,,01,-8.1833333,-73.4
avai,,26,-27.35,-51.5833333
avai,,27,-22.1333333,-49.3666667
avanhandava,,27,-21.4666667,-49.95
avantiguara,,15,-18.7666667,-49.0833333
avare,81287,27,-23.0833333,-48.9166667
avarzeado,,06,-5.6833333,-40.5833333
avatinguara,,15,-18.7666667,-49.0833333
aveiro,,16,-3.6166667,-55.3166667
avelar,,15,-21.6666667,-45.3
avelar,,21,-22.3219444,-43.4063889
avelinopolis,,29,-16.5,-49.7166667
avelino silveira,,15,-15.1,-42.8166667
avenca,,18,-24.9833333,-50.6333333
avencal,,26,-26.2186111,-49.6052778
avencal de baixo,,26,-26.2186111,-49.6052778
avencal do meio,,26,-26.25,-49.7
avencas,,27,-22.2833333,-50.1166667
avenida,,05,-13.0066667,-38.525
aventureio,,15,-21.75,-42.8166667
aviacao,,23,-29.7333333,-53.85
aviario,,05,-12.3,-38.9333333
avobral,,11,-21.2,-56.8333333
axinal dos rodrigues,,18,-25.7,-50.25
axinim,,04,-4.0352778,-59.3797222
axioma,,04,-6.75,-64.5166667
axixa,,13,-2.85,-44.0666667
axixa de goias,,31,-5.5511111,-47.5955556
axixa do tocantins,9007,31,-5.5511111,-47.5955556
axui,,13,-2.5166667,-43.6
ayapua,,04,-4.4633333,-62.0552778
aymores,,05,-17.8333333,-40.1666667
aymores,,15,-19.5,-41.0666667
ayrao,,04,-2.6269444,-60.95
ayri,,04,-6.9,-58.2833333
ayuruoca,,15,-21.9666667,-44.6
azambuja,,26,-28.5,-49.2166667
azauri,,16,0.6166667,-54.15
azeredo,,08,-20.2833333,-40.45
azevedo,,06,-5.2166667,-40.0666667
azevedo,,08,-20.2833333,-40.45
azevedo,,23,-29.7,-51.3333333
azevedo sodre,,23,-30.0666667,-54.6
azevedro sodre,,23,-30.0666667,-54.6
azevem,,17,-6.9666667,-38.6166667
azevem,,30,-8.2333333,-36.6666667
azeveria,,30,-8.2333333,-36.6666667
azurita,,15,-20.0166667,-44.4666667
babacu,,13,-4.65,-43.6
babaculandia,,31,-7.2091667,-47.6216667
babia,,06,-3.55,-40.2333333
babi,,21,-22.7,-43.3833333
babilonia,,08,-20.9333333,-41.4166667
babilonia,,13,-8.2833333,-45.95
babilonia,,15,-20.5,-46.65
babilonia,,21,-22.55,-44.4666667
baby,,21,-22.7,-43.3833333
babylonia,,21,-22.55,-44.4666667
bacaba,,04,-3.4166667,-66.05
bacaba,,13,-2.9833333,-43.85
bacaba,,31,-10.9152778,-48.5294444
bacaba i,,13,-3.6055556,-43.4955556
bacaba ii,,13,-3.395,-43.2327778
bacabal,,04,-5.2833333,-60.5666667
bacabal,72374,13,-4.2333333,-44.7833333
bacabal,,16,-5.5333333,-56.9166667
bacabal,,25,1.45,-60.7
bacabal,,31,-11.9330556,-49.1905556
bacabal do carrinho,,13,-3.7216667,-43.3552778
bacabal dos crentes,,13,-3.7275,-43.3366667
bacabal do tiberio,,13,-3.4825,-43.4494444
bacabal ii,,13,-3.37,-43.4202778
bacabal iii,,13,-3.5063889,-43.3383333
bacabalzinho,,16,-5.4666667,-56.8833333
bacada,,04,-6.3166667,-68.1666667
bacaeri,,14,-14.2,-55.0833333
bacaetava,,27,-23.4333333,-47.6
bacaina,,13,-6.75,-44.0666667
bacaiuval,,14,-14.65,-57.2166667
bacalhau,,05,-12.3166667,-38.4333333
bacao,,15,-20.3333333,-43.8333333
bacara,,25,0.7108333,-61.6486111
bacatuba,,13,-5.6666667,-43.7
bacatu,,13,-3.8166667,-44.8666667
bacauba,,20,-8.9441667,-45.4311111
bacaubas,,20,-8.9441667,-45.4311111
bacaxa,,21,-22.9,-42.4666667
bacayuval,,14,-14.65,-57.2166667
bacelar,,21,-21.9166667,-42.6166667
bacia de pedra,,21,-22.4175,-43.7569444
bacia de pedras,,21,-22.4175,-43.7569444
bacre,,16,-1.9,-50.2
bacue,,13,-3.3736111,-42.4402778
bacumixa,,06,-3.3166667,-39.4666667
bacupari,,06,-7.3,-38.8
bacurau,,06,-3.25,-39.4333333
bacuri,,04,-4.4763889,-62.1933333
bacuri,,13,-1.7333333,-45.1333333
bacuri,,20,-3.7325,-42.6430556
bacuri,,27,-21.05,-50.9833333
bacuri,,31,-5.7666667,-47.8
bacuri grande,,04,-4.4919444,-62.205
bacuri grande,,16,-5.4333333,-48.6
bacuri i,,13,-3.4355556,-43.4325
bacuri ii,,13,-3.1113889,-42.3541667
bacuriteua,,16,-0.9833333,-46.7333333
bacuriti,,27,-21.6166667,-49.4333333
bacurituba,,13,-2.7166667,-44.7166667
bacurizeiro,,13,-3.1430556,-42.2197222
bacurizinho,,16,-5.4166667,-48.6333333
bacururi,,04,-3.75,-66.1833333
bacururu,,04,-3.75,-66.1833333
bacury,,04,-4.85,-62.5333333
bacury grande,,16,-5.4333333,-48.6
bacury sinho,,16,-5.4166667,-48.6333333
badajos,,04,-3.4166667,-62.6666667
badajos,,16,-2.5166667,-47.7833333
badajos,,28,-10.5666667,-36.8166667
badajoz,,16,-2.5166667,-47.7833333
badalo,,17,-7.4166667,-36.4333333
badaro,,21,-21.3166667,-41.6666667
badia,,28,-9.6666667,-37.75
bady bassitt,14216,27,-20.9333333,-49.4666667
bady brassitt,,27,-20.9333333,-49.4666667
baependi,12853,15,-21.95,-44.8833333
baependy,,15,-21.95,-44.8833333
baeta,,05,-11.2,-43.0833333
baetas,,04,-6.9847222,-62.8127778
baete,,05,-13.7166667,-40.0666667
bagaco,,13,-3.4583333,-43.4525
bagagem,,15,-18.9833333,-47.4666667
bage,98943,23,-31.3333333,-54.1
bago,,16,-4.6991667,-52.765
bagre,,14,-15.95,-55.7166667
bagre,,15,-19.3,-42.5
bagre,,16,-1.9,-50.2
baguacu,,11,-21.3833333,-57.0
baguacu,,27,-20.1666667,-47.5833333
baguari,,15,-18.3666667,-42.8
baguari,,27,-22.8666667,-47.9833333
baguassu,,27,-20.7166667,-49.0666667
bahia,,05,-12.9833333,-38.5166667
bahia,,26,-26.8166667,-52.0333333
bahia de pedra,,14,-16.4666667,-58.0833333
bahia do genipapo,,11,-19.6666667,-56.15
bahianos,,04,-6.3,-62.2166667
bahus,,11,-18.3166667,-53.1666667
bahusinho,,11,-18.3166667,-53.1666667
baia,,05,-12.9833333,-38.5166667
baia,,11,-19.9333333,-56.2833333
baia,,14,-16.7333333,-56.9166667
baia,,16,-0.7833333,-51.1333333
baia,,26,-26.8166667,-52.0333333
baia bela,,14,-16.1666667,-58.75
baia bonita,,05,-13.75,-40.2166667
baiacus,,22,-5.75,-37.85
baia das garcas,,11,-21.0666667,-56.8333333
baia das gracas,,11,-21.0666667,-56.8333333
baia das pedras,,11,-19.2833333,-55.7166667
baia das pedras,,14,-16.4666667,-58.0833333
baia da traicao,,17,-6.7,-34.9333333
baia de cima,,17,-7.4333333,-34.8333333
baia de las pedras,,14,-16.4666667,-58.0833333
baia de pedras,,14,-16.4666667,-58.0833333
baia de sao felix,,14,-16.4666667,-55.9333333
baia de sao luis,,14,-16.7,-57.2166667
baia do cervo,,11,-19.5,-55.8333333
baia do genipapo,,11,-19.6666667,-56.15
baia dos cavalos,,14,-16.3333333,-56.2
baia dos nunes,,14,-15.7166667,-55.9
baia dos passaros,,11,-17.8333333,-55.4833333
baia dos passaros,,14,-16.6,-55.8666667
baia formosa,,21,-22.8333333,-41.9666667
baia formosa,,22,-6.3666667,-35.0
baia funda,,20,-8.8833333,-45.9666667
baia mineira,,11,-18.4666667,-56.45
baiana,,15,-17.85,-40.7833333
baianopolis,,11,-19.7666667,-54.7833333
baianos,,04,-6.3,-62.2166667
baianos,,18,-24.4166667,-52.9833333
baiao,,06,-7.7333333,-38.9166667
baiao,,13,-3.1666667,-43.65
baiao,12316,16,-2.6833333,-49.6833333
baiao,,22,-6.0,-38.4333333
baiao,,30,-7.8333333,-38.0833333
baiao,,31,-11.5166667,-47.7
baiao grande,,30,-8.8,-37.35
baiaozinho,,30,-8.7833333,-37.3333333
baia piraputanga,,14,-16.3,-56.1333333
baia santa clara,,11,-19.4333333,-55.3833333
baia verde,,11,-17.7166667,-55.55
baiazinha,,11,-21.7166667,-57.2833333
baiepau,,25,2.1166667,-59.75
baile,,11,-22.2333333,-53.4
bailique,,03,0.9666667,-50.0666667
bailique,,16,-2.7666667,-49.7833333
bainho,,14,-16.6833333,-55.4333333
baioes,,15,-20.6166667,-45.3333333
baireiro,,23,-27.9166667,-53.1
bairrinho,,27,-22.6,-47.1
bairro agua preta,,27,-23.12,-46.6988889
bairro alto,,27,-23.4833333,-45.35
bairro barra mansa,,27,-23.9594444,-47.1322222
bairro barreiro,,18,-25.3283333,-50.3336111
bairro belchior,,27,-23.9897222,-47.1202778
bairro boava,,27,-23.7711111,-47.14
bairro boa vista,,27,-23.0036111,-46.5111111
bairro caetetuba,,27,-23.1366667,-46.6436111
bairro caiacoara,,27,-23.1830556,-46.6808333
bairro campininha,,27,-23.2408333,-46.6541667
bairro campo dos aleixos,,27,-23.07,-46.6855556
bairro da enseada,,27,-23.7166667,-45.4333333
bairro da imbuia,,18,-24.8666667,-51.0
bairro da lagoa,,18,-25.4913889,-50.6616667
bairro da pedreira,,27,-23.0644444,-46.6286111
bairro da ponte,,27,-23.1886111,-47.535
bairro das pederneiras,,27,-21.7333333,-51.8333333
bairro das rosas,,27,-23.9722222,-47.1080556
bairro das senhorinhas,,27,-23.9702778,-47.0480556
bairro da usina,,27,-23.0872222,-46.6438889
bairro de lavras,,27,-24.775,-48.2158333
bairro de sao lourenco,,27,-23.8166667,-46.05
bairro do barreiro,,27,-23.4666667,-49.2833333
bairro do barro,,27,-23.7166667,-45.4
bairro do bonito,,27,-22.8333333,-45.0333333
bairro do breu,,27,-23.0758333,-46.7422222
bairro do capim grosso,,20,-7.9166667,-41.8833333
bairro do felisberto,,18,-24.0333333,-50.65
bairro do jacu,,27,-23.3166667,-48.5333333
bairro do pedroso,,27,-22.8,-45.0666667
bairro do piai,,27,-23.7544444,-47.215
bairro do sao jose,,20,-3.5175,-42.1816667
bairro dos camargo,,27,-23.9208333,-47.1047222
bairro dos grilos,,27,-23.7747222,-47.0319444
bairro dos patos,,27,-22.1333333,-49.2
bairro dos pederneiras,,27,-21.7333333,-51.8333333
bairro dos pintos,,27,-23.2163889,-46.5427778
bairro dos policenos,,18,-25.4991667,-50.3847222
bairro dos ribeiro,,27,-23.7758333,-47.0636111
bairro dos rodrigues,,27,-23.7597222,-47.0747222
bairro dos soares,,27,-23.8866667,-47.0747222
bairro dos telles,,18,-23.8333333,-50.45
bairro do tanque,,27,-23.0305556,-46.5372222
bairro do teles,,18,-23.8333333,-50.45
bairro do vital,,27,-22.9166667,-47.3666667
bairro faxina,,18,-25.4477778,-50.3122222
bairro florianos,,18,-25.4641667,-50.3608333
bairro godinho,,27,-23.9511111,-47.1022222
bairro guarauna de docas,,18,-25.4275,-50.2730556
bairro guarauninha,,18,-25.4491667,-50.295
bairro guaxinduva,,27,-23.1097222,-46.5119444
bairro itapetinga,,27,-23.1588889,-46.5475
bairro laranjal,,27,-23.0383333,-46.6069444
bairro limeira,,18,-25.3197222,-50.4052778
bairro maracana,,27,-23.1580556,-46.7188889
bairro monte belo,,27,-21.3166667,-47.7
bairro murundu,,27,-23.8041667,-47.2461111
bairro oito e meio,,27,-23.9583333,-47.2366667
bairro paiol grande,,27,-23.7722222,-47.1802778
bairro pau arcado,,27,-23.2175,-46.7211111
bairro paulo bueno,,27,-23.9766667,-47.0916667
bairro pedra branca,,27,-23.9302778,-47.0069444
bairro ponte alta,,27,-23.0111111,-46.66
bairro portao,,27,-23.2247222,-46.6288889
bairro rio abaixo,,27,-23.0441667,-46.6411111
bairro rio acima,,27,-23.2175,-46.6677778
bairro rio bonito,,27,-23.9463889,-47.2161111
bairro santa rosa,,18,-25.3288889,-50.4347222
bairro sao joao,,27,-22.6477778,-47.4697222
bairro sombra,,06,-7.0333333,-38.7666667
bairro taquarivai,,27,-23.9333333,-48.6833333
bairro tiburcio,,27,-23.7563889,-47.1194444
bairro tocas,,18,-25.4338889,-50.2613889
bairro turvo,,18,-25.4044444,-50.3036111
bairro verava,,27,-23.7802778,-47.1025
baitaca,,23,-27.5833333,-53.0666667
baitapora,,11,-22.3333333,-53.2833333
baixa (2),,20,-7.2333333,-41.5166667
baixa alegre,,05,-13.1333333,-39.4666667
baixa,,05,-12.45,-40.6333333
baixa,,06,-4.75,-37.5666667
baixa,,13,-4.1833333,-43.75
baixa,,15,-19.9666667,-47.9666667
baixa,,20,-6.9666667,-40.8666667
baixa,,22,-5.5030556,-37.4980556
baixa bonita,,15,-15.7833333,-40.9
baixa branca,,06,-5.2166667,-37.8166667
baixa calada,,04,-5.8458333,-61.2769444
baixa da alegria,,22,-5.3027778,-37.2786111
baixa da areia,,28,-10.15,-37.05
baixa da aroeira,,22,-5.3352778,-37.3430556
baixa da carnauba,,22,-6.2833333,-37.95
baixa da conceicao,,13,-3.7605556,-43.295
baixada do burgo,,28,-9.8833333,-37.55
baixa d'agua,,13,-3.0711111,-43.0327778
baixa da imbira,,05,-11.9666667,-44.6333333
baixa da lagoa,,05,-12.6333333,-39.8166667
baixa da lagoa,,20,-6.4833333,-41.35
baixa da manipeba,,22,-5.4833333,-35.6666667
baixadao,,11,-19.1833333,-54.3166667
baixa da onca,,06,-7.6,-38.9166667
baixa da onca,,13,-3.3786111,-43.1166667
baixa-d'areia,,28,-10.15,-37.05
baixa da ribaca,,22,-5.7,-35.7833333
baixa das cotias,,13,-3.2286111,-43.0147222
baixa da serra,,13,-6.5833333,-43.8666667
baixa da umburana,,30,-8.55,-37.7666667
baixa da vaca,,13,-3.3791667,-43.1833333
baixa de sao francisco,,22,-5.4130556,-36.9622222
baixa do angico,,20,-7.9,-41.6
baixa do aroeira,,05,-13.5333333,-40.9666667
baixa do bezerro,,22,-5.5672222,-36.1433333
baixa do cafe,,20,-7.9833333,-41.0166667
baixa do cajueiro,,20,-5.3833333,-41.4
baixa do caldeirao,,20,-6.3,-41.6833333
baixa do capim,,13,-3.8797222,-43.1286111
baixa do cedro,,05,-13.0166667,-43.6666667
baixa do cerral,,20,-6.2333333,-42.1333333
baixa do cocal i,,13,-3.2808333,-43.2613889
baixa do cocal ii,,13,-3.2638889,-43.2258333
baixa do correio,,22,-5.7222222,-37.4786111
baixa do coxo,,20,-3.6597222,-42.1816667
baixa do curral,,20,-6.2333333,-41.9333333
baixa do curralinho,,20,-3.4766667,-42.1755556
baixa do feijao,,22,-5.3466667,-36.055
baixa do jacare,,20,-3.4755556,-42.0458333
baixa do jacu,,05,-12.45,-41.1
baixa do jatoba,,20,-5.9833333,-42.9166667
baixa do jua,,06,-4.65,-40.9666667
baixa do jua,,22,-5.1516667,-36.8508333
baixa do juazeiro,,06,-5.3,-40.7833333
baixa do juazerio,,22,-5.5736111,-37.3966667
baixa do lago,,13,-3.4305556,-42.7736111
baixa do lirio,,20,-6.9166667,-40.55
baixa do maximo,,05,-10.45,-37.9166667
baixa do meio,,06,-7.1666667,-40.3833333
baixa do meio,,22,-5.2541667,-36.3583333
baixa do mel,,20,-6.8166667,-41.4833333
baixa do palmeira,,05,-12.75,-39.2166667
baixa do pau ferro,,30,-8.7666667,-36.6166667
baixa do poco,,06,-7.55,-38.7666667
baixa do quinquim,,22,-5.2166667,-35.6166667
baixa do quin-quin,,22,-5.2166667,-35.6166667
baixa do recanto,,30,-7.9,-38.9
baixa do riachao,,05,-13.25,-39.1166667
baixa do serrote,,02,-9.0333333,-37.5166667
baixa do sitio,,06,-6.4166667,-38.9666667
baixa do tatu,,22,-5.6497222,-37.2891667
baixa do tingui,,15,-15.9666667,-44.4
baixa escura,,20,-7.9666667,-43.1666667
baixa fechada,,06,-6.0,-40.7166667
baixa fechada,,22,-5.6847222,-37.3672222
baixa feia,,20,-5.9333333,-42.1166667
baixa fria (1),,20,-6.4166667,-41.4
baixa fria (2),,20,-6.7333333,-41.3333333
baixa fria,,06,-3.35,-40.25
baixa fria,,13,-5.4,-43.3333333
baixa fria,,20,-3.9208333,-42.1538889
baixa funda,,02,-9.3333333,-36.2666667
baixa funda,,05,-12.5,-41.25
baixa funda,,13,-3.0888889,-42.3180556
baixa funda,,22,-5.4333333,-35.8
baixa grande (1),,06,-7.2833333,-40.4
baixa grande (2),,06,-7.05,-39.75
baixa grande (3),,30,-7.5833333,-39.6833333
baixa grande,,02,-9.7333333,-36.2166667
baixa grande,7534,05,-11.95,-40.1833333
baixa grande,,06,-2.8691667,-40.6125
baixa grande,,13,-2.3333333,-44.6
baixa grande,,15,-16.1,-42.1166667
baixa grande,,20,-5.8666667,-42.1833333
baixa grande,,22,-5.71,-37.4858333
baixa grande,,30,-7.9833333,-37.35
baixa nova,,06,-2.9,-40.4
baixao,,05,-10.3,-43.55
baixao,,13,-3.0055556,-42.3511111
baixao,,20,-3.5686111,-42.1161111
baixao,,27,-21.3666667,-47.4833333
baixao,,31,-12.8,-46.6333333
baixao da fortaleza,,05,-10.1666667,-43.7
baixao da negra,,13,-5.1166667,-43.2666667
baixao das cajazeiras,,20,-3.4575,-42.0788889
baixao de areia,,13,-5.9666667,-43.9666667
baixao de forro,,05,-11.15,-43.8
baixao do aniceto,,20,-5.0833333,-41.7
baixao do calista,,05,-9.45,-43.1833333
baixao do calisto,,05,-9.45,-43.1833333
baixao do calixto,,05,-9.45,-43.1833333
baixao do capim,,13,-3.1672222,-42.2638889
baixao do cavalo velho,,20,-3.9108333,-42.5269444
baixao do cedro,,13,-3.2969444,-42.2586111
baixao do centro,,13,-3.1125,-42.0338889
baixao do chiqueiro,,20,-3.7555556,-42.2697222
baixao do coco,,20,-6.1333333,-42.75
baixao do damasio,,05,-10.1666667,-43.7
baixao do damazio,,05,-10.1666667,-43.7
baixao do ferro,,05,-11.15,-43.8
baixao do lucas,,05,-12.4333333,-44.9
baixao do melo,,20,-6.0666667,-41.0333333
baixao do tubiba,,06,-5.5,-41.0
baixao do umbuzeiro,,20,-7.2333333,-41.8833333
baixao grande,,13,-3.8669444,-43.2602778
baixao grande,,20,-3.5472222,-42.1169444
baixao i,,13,-3.0888889,-43.4825
baixao i,,20,-3.4008333,-42.0472222
baixao ii,,13,-3.2994444,-42.2288889
baixao iii,,13,-3.1019444,-43.1147222
baixao iv,,13,-3.135,-43.3030556
baixao velho,,05,-10.1,-42.7166667
baixa preta,,06,-4.2833333,-38.5166667
baixa quente,,15,-16.95,-42.0666667
baixa redonda,,20,-5.6666667,-42.9333333
baixa redonda,,30,-7.9166667,-38.7833333
baixas (1),,06,-6.3333333,-40.5166667
baixa sao miguel,,22,-5.5166667,-35.7
baixas,,06,-7.3666667,-38.6666667
baixas,,13,-5.4333333,-43.05
baixas,,17,-7.3833333,-38.0166667
baixas,,20,-8.2666667,-43.1333333
baixas,,22,-6.0666667,-38.4333333
baixas,,30,-7.8333333,-38.9
baixa seca,,05,-9.55,-43.0666667
baixa seca,,15,-16.7333333,-40.7666667
baixa velha,,30,-8.7333333,-37.3333333
baixa verde (1),,06,-5.7333333,-39.1833333
baixa verde (1),,20,-7.0333333,-40.55
baixa verde (1),,22,-5.7,-37.6333333
baixa verde (2),,06,-5.55,-37.95
baixa verde (2),,20,-7.2166667,-41.5
baixa verde (3),,20,-6.7833333,-40.6
baixa verde (3),,22,-5.3333333,-37.75
baixa verde,,01,-9.8833333,-67.6166667
baixa verde,,06,-6.1833333,-40.8
baixa verde,,17,-6.3833333,-38.4333333
baixa verde,,22,-5.4375,-37.1519444
baixa verde,,30,-7.75,-34.8333333
baixax (2),,20,-6.95,-41.8666667
baixinha,,05,-13.1166667,-39.6
baixinha,,06,-2.9091667,-40.5613889
baixinha,,13,-3.8113889,-43.0630556
baixinha,,20,-3.6858333,-42.0072222
baixinha,,22,-5.25,-35.8166667
baixinha da franca,,22,-5.25,-35.8
baixinha de todos os santos,,15,-17.8666667,-41.6833333
baixinha dos flores,,13,-3.8025,-43.0475
baixinha i,,13,-3.4127778,-43.4947222
baixinha ii,,13,-3.2863889,-43.1883333
baixinho,,06,-7.25,-40.4
baixio (1),,06,-7.2666667,-40.4333333
baixio (2),,06,-7.0333333,-39.7166667
baixio,,05,-12.1333333,-37.7
baixio,,06,-5.95,-39.4833333
baixio,,14,-14.65,-56.2
baixio,,17,-6.5166667,-38.2666667
baixio,,20,-7.9666667,-40.6833333
baixio,,22,-5.9666667,-37.8833333
baixio,,30,-7.6833333,-39.7833333
baixio da donona,,06,-6.35,-39.6833333
baixio da roca,,06,-6.0333333,-39.4666667
baixio do boi,,06,-7.5166667,-39.0166667
baixio do boi,,30,-7.9833333,-38.85
baixio do facundo,,06,-7.0666667,-39.9333333
baixio do fogo,,22,-6.3333333,-38.3
baixio do fumo,,30,-7.75,-39.35
baixio do jua,,30,-7.7833333,-39.3
baixio do lima,,06,-7.15,-40.1666667
baixio do paulo,,30,-7.6166667,-39.45
baixio dos campos,,17,-7.75,-38.2166667
baixio dos curimatas,,13,-3.3333333,-45.3166667
baixio dos nicolaus,,30,-7.6333333,-38.7166667
baixio dos ramos,,06,-7.2333333,-40.1333333
baixios,,02,-9.7,-37.2
baixio verde,,06,-6.7166667,-39.2
baixo (1),,20,-7.7166667,-41.8
baixo (2),,20,-7.6166667,-41.15
baixo,,14,-14.65,-56.2
baixo,,15,-16.4,-41.0333333
baixo,,17,-6.7333333,-36.3666667
baixo dos curimatas,,13,-3.3333333,-45.3166667
baixo do zacarias,,06,-2.9333333,-40.2
baixo feia,,20,-5.9333333,-42.1166667
baixo guandu,19292,08,-19.5166667,-41.0166667
baixo longa,,20,-3.1666667,-41.8666667
baixo mearim,,13,-3.4666667,-44.8833333
baixo vere,,18,-25.8666667,-52.95
baje,,01,-9.1666667,-72.2666667
baje,,23,-31.3333333,-54.1
balaco,,21,-22.2833333,-41.7833333
balaiada,,13,-3.8666667,-44.1833333
balaieiro,,15,-15.6166667,-44.4666667
balanca,,06,-3.5166667,-39.6
balanca,,17,-7.55,-38.0166667
balanca,,20,-6.9833333,-40.9666667
balanca,,22,-5.7416667,-37.4644444
balancas,,06,-5.2666667,-39.6
balanco,,17,-6.9666667,-36.8333333
balanco,,20,-6.3333333,-42.8166667
balanco,,31,-11.55,-46.85
balao,,06,-5.9666667,-39.5166667
balao primeiro,,18,-25.5080556,-50.5288889
balbina,,04,-2.9166667,-68.3
balbino,,15,-16.2333333,-40.4833333
balbino dias,,15,-16.95,-40.7166667
balbinos,,27,-21.9166667,-49.35
balco,,06,-5.3666667,-39.95
baldim,,15,-9.2833333,-43.95
balduino oliveira,,05,-16.3333333,-39.8333333
baleia,,05,-16.2666667,-39.1833333
balins,,20,-8.75,-44.4333333
balisa,,03,-0.4666667,-52.4666667
balisa,,14,-16.25,-52.4333333
balisa,,23,-27.5833333,-52.15
balisa,,27,-21.7833333,-51.05
balisa,,29,-16.25,-52.4166667
baliza,,22,-6.2666667,-38.0
baliza,,23,-27.5833333,-52.15
baliza,,25,0.9502778,-59.9111111
baliza,,27,-21.7833333,-51.05
baliza,,29,-16.25,-52.4166667
balneario,,26,-26.9833333,-48.6333333
balneario de camboriu,,26,-26.9833333,-48.6333333
balneario de rincao,,26,-28.8333333,-49.25
