names,population,state_code,lat,lon
abacheri,,00,14.1833333,41.5
ab anrafa,,00,17.3166667,38.5
abarda,,00,15.2569444,38.7986111
abaredda,,00,15.4166667,37.6
abbi adi,,00,14.9077778,38.7480556
abdi,,00,12.7,42.4
abe,,00,13.6833333,41.4
abhi,,00,12.4333333,42.75
abna,,00,15.8833333,38.75
abrascico,,00,15.5166667,38.7333333
abruim,,00,15.8166667,38.2
abugebo,,00,15.1997222,39.0327778
acca,,00,14.85,39.8
acoma,,00,15.2166667,39.4
acrur,,00,15.1,39.2333333
ad abbai,,00,14.8333333,38.4333333
ad abeito,,00,15.3833333,38.9
ad abi,,00,15.9,38.2166667
ad abiscia,,00,14.8333333,38.7
ad abiseia,,00,14.8333333,38.7
ad accalom,,00,15.5083333,38.82
ad accolom,,00,15.5083333,38.82
ada ela,,00,13.85,41.6166667
ad aguale,,00,15.05,38.4
adailo,,00,14.4833333,40.8666667
adaito,,00,14.7333333,40.35
adal,,00,15.4833333,37.1666667
ad ali bachit,,00,15.5666667,37.55
ad amer,,00,15.5666667,38.5
adardeb,,00,16.0833333,37.05
ad arili,,00,13.9666667,41.6166667
adarte,,00,13.3,42.1333333
ad asmaru,,00,14.7977778,38.4094444
ad bili,,00,15.6333333,38.25
ad casu,,00,15.4,37.2833333
ad casub,,00,15.4,37.2833333
ad daudi,,00,15.2833333,39.4666667
ad dechita,,00,14.7658333,38.3091667
addi abur,,00,15.0577778,39.1388889
addi adid,,00,14.9525,39.2305556
addicaie,,00,14.8444444,39.3733333
addi caieh,,00,14.8444444,39.3733333
addi massahal,,00,14.6166667,39.3833333
addi messahal,,00,14.6166667,39.3833333
addi nebri,,00,14.9155556,39.0430556
ad dirco,,00,14.7227778,38.7338889
addisc addi,,00,14.7680556,39.0719444
addi toqualu,,00,14.9377778,38.4308333
addi ugri,17784,00,14.8855556,38.8163889
adebu`ur,,00,15.0577778,39.1388889
ad edug,,00,14.5875,38.8552778
adek'e ginet,,00,14.8733333,38.7766667
adena,,00,15.4666667,38.75
adendema,,00,15.1166667,37.0
adengefom,,00,15.0361111,39.1902778
adenna,,00,15.4666667,38.75
aderde,,00,15.6533333,38.1322222
aderdeb,,00,16.0833333,37.05
ad errei,,00,15.5333333,38.2333333
adey me`at,,00,14.4819444,39.3916667
ad faghi,,00,15.6,37.7166667
ad finne,,00,14.9455556,38.9366667
ad gaban,,00,14.6166667,40.8833333
ad gander gabei,,00,15.7833333,38.2166667
ad guadad,,00,15.2647222,38.9016667
adi aba ri'isom,,00,14.5486111,38.7236111
adi ada,,00,14.8352778,38.8616667
adi agbay,,00,15.1361111,38.8
adi agwa,,00,14.7927778,38.8227778
adi ahiderom,,00,15.1386111,38.9813889
adi ali bakit,,00,15.5666667,37.55
adi amanu'el,,00,14.9108333,38.8602778
adi ar`ada,,00,15.1913889,38.9958333
adi arcai,,00,13.4480556,38.0611111
adi arkai,,00,13.4480556,38.0611111
adi ark'ay,,00,13.4480556,38.0611111
adi atei,,00,14.7747222,38.315
adi-atsida,,00,14.4675,38.5683333
adi badim,,00,14.7455556,38.8761111
adi bahro,,00,14.6652778,38.8630556
adiba'ikel,,00,15.0388889,39.125
adibara,,00,15.1333333,38.7833333
adi baro,,00,15.1333333,38.7833333
adiberai,,00,15.6244444,39.4394444
adi-bigdi,,00,14.8486111,38.6719444
adi bigheddi,,00,14.8486111,38.6719444
adi bilay,,00,14.9027778,38.8333333
adi caieh,,00,14.8444444,39.3733333
adi casci,,00,14.6666667,38.8166667
adi catina,,00,14.5383333,38.4986111
adi contzi,,00,15.4,38.8
adi culli,,00,15.1333333,37.75
adi embela,,00,15.2555556,39.0297222
adi essaha,,00,14.7919444,38.5302778
adi-felesti,,00,15.1291667,38.7041667
adi fini'i,,00,14.6355556,38.7866667
adi gaad,,00,14.7838889,39.2183333
adi gahad,,00,14.85,38.8
adi gebray,,00,15.2116667,38.7363889
adi gebru,,00,15.3311111,38.7672222
adi geda (1),,00,15.1013889,38.8066667
adi geda (2),,00,15.0777778,38.8127778
adi geda,,00,15.0777778,38.8127778
adi gheda,,00,15.0777778,38.8127778
adi-ghela'e,,00,14.4511111,38.4563889
adi ghella,,00,14.4511111,38.4563889
adi goda'iti,,00,14.9566667,38.7908333
adi golgol,,00,15.0258333,39.045
adi gombolo,,00,15.22,38.8583333
adi goorbati,,00,15.1638889,38.8955556
adi goreto,,00,14.9252778,38.6675
adi goroto,,00,14.9252778,38.6675
adi grot,,00,14.9252778,38.6675
`adi groto,,00,14.9252778,38.6675
adi grotto,,00,14.9252778,38.6675
adi guagual,,00,14.8333333,38.55
adi guaguat,,00,14.8333333,38.55
adi-gureto,,00,14.9252778,38.6675
adi gu'ur,,00,14.5536111,38.7783333
adi gwadad,,00,15.2647222,38.9016667
adi gwa'idad,,00,15.2647222,38.9016667
adi habir,,00,14.6013889,38.8633333
adi hadid,,00,14.9525,39.2305556
adi hakefa,,00,15.1983333,38.9122222
adi hamushte,,00,15.2338889,38.8427778
adi hawesha,,00,15.2427778,38.9705556
adi hawesh,,00,15.2427778,38.9705556
adi hidrum,,00,15.7494444,38.5522222
adi hizba,,00,15.0422222,38.7805556
adi huduk,,00,14.5875,38.8552778
adi hurwa,,00,14.7341667,38.7897222
adi iecuoro,,00,14.1666667,39.0666667
adi imneger,,00,15.2466667,38.8486111
adi itai,,00,14.2166667,38.5
adi k'ano,,00,14.9730556,38.7852778
adik'e,,00,15.2361111,38.8986111
adi kefelet,,00,15.2038889,38.7405556
adi keih,,00,14.8444444,39.3733333
adi kelkalti,,00,15.1963889,38.7697222
adi k'eshi,,00,14.6666667,38.8166667
adi-ketina,,00,14.5383333,38.4986111
adi keyeh,,00,14.8444444,39.3733333
adi keyh,,00,14.8444444,39.3733333
adi k'eyih,,00,14.8444444,39.3733333
adi k'ore,,00,14.7505556,38.8519444
adi kubulo,,00,15.1458333,38.8783333
adi kwala,,00,14.6344444,38.8336111
adi lamza,,00,15.2166667,38.9002778
adilges,,00,14.6702778,38.8466667
adi lubso,,00,14.6833333,38.75
adi macambia,,00,14.6666667,38.6666667
adi mahari cristos,,00,14.6333333,38.3333333
adi mai laam,,00,14.7,38.65
adi mengodti,,00,14.9122222,38.7858333
adi moaghe,,00,14.4383333,38.4669444
adi naamen,,00,15.5202778,38.7027778
adi-ne'amn,,00,15.5202778,38.7027778
adi-nebri,,00,14.9155556,39.0430556
adi nefas,,00,15.0427778,38.9127778
adi nifas (1),,00,15.4022222,38.9402778
adi nifas (2),,00,15.0427778,38.9127778
adi nifas,,00,15.0427778,38.9127778
adi-quala,,00,14.6344444,38.8336111
adi ra'isi,,00,15.0430556,38.8941667
adi sahlay,,00,15.1638889,38.8955556
adis `alem (1),,00,14.56,38.8038889
adis `alem,,00,14.56,38.8038889
adi sceca,,00,16.3166667,38.0333333
adi sciaba,,00,16.3833333,38.0833333
adi scimandui,,00,14.95,38.7333333
adi scium ascale,,00,14.5686111,38.8155556
adi secche,,00,14.7833333,38.8666667
adi shuma,,00,15.6075,39.0786111
adi shum hafti,,00,14.995,38.7813889
adi shum tombosa,,00,14.5166667,38.55
adi tafa,,00,14.6891667,38.8833333
adital,,00,14.2166667,38.5
adi tekelezan,,00,15.5672222,38.7786111
adi tekelezan ketema,,00,15.5672222,38.7786111
adi teklay,,00,15.3158333,38.7594444
adi-teklezan,,00,15.5672222,38.7786111
adi tsetser,,00,14.9833333,38.2666667
adi ugri,,00,14.8855556,38.8163889
adi-w'ala,,00,14.825,38.3219444
adi wederki,,00,14.6766667,38.8222222
`adi wegri,,00,14.8855556,38.8163889
adi zarna,,00,14.9258333,38.8397222
ad manna,,00,15.7333333,38.2166667
ad messian,,00,15.0333333,38.2833333
ad mocada,,00,14.8527778,39.0730556
ad mussa,,00,15.3,38.8
ad nefas,,00,14.6833333,38.9
ad omar,,00,15.6,37.8166667
ad rassi,,00,15.2561111,38.8477778
ad refai,,00,14.5527778,39.4033333
ad said mustafa,,00,15.5666667,38.2833333
ad saidna mustafa,,00,15.5666667,38.25
ad sala,,00,15.3833333,38.05
ad sata,,00,15.3833333,38.0333333
ad scec,,00,15.8,38.1
ad scec hammed,,00,15.4333333,38.25
ad sciuma,,00,15.6075,39.0786111
ad sulet,,00,15.4833333,38.15
ad taille,,00,15.4833333,38.2666667
ad taula,,00,15.4,38.4
ad taulet,,00,15.4833333,38.2666667
ad teclai,,00,15.3158333,38.7594444
ad teclesan,,00,15.5672222,38.7786111
ad tzatzer,,00,14.9666667,38.3333333
ad ulual,,00,15.75,38.25
adurdet,,00,15.65,38.1333333
ad zeban sebao,,00,14.7666667,38.7166667
af abeb,,00,16.1833333,38.6833333
af abed,,00,16.1833333,38.6833333
afabet,,00,16.1833333,38.6833333
afahani,,00,14.4833333,41.2366667
afalba,,00,15.0672222,39.1005556
afambo,,00,13.6,41.6333333
af ceua,,00,17.0666667,38.3666667
afelba,,00,15.0672222,39.1005556
affesi,,00,14.6333333,39.45
af may,,00,14.6008333,38.8063889
afta,,00,15.2733333,39.6530556
agambusa/tobo,,00,15.4816667,39.2052778
agametta,,00,15.3333333,39.2166667
agat,,00,15.7022222,38.2761111
agbalo,,00,15.4833333,39.3166667
agordat,,00,15.5486111,37.8866667
agra'i,,00,17.0166667,38.4166667
agurto,,00,12.9,42.7
agutri,,00,15.5963889,38.735
aicota,,00,15.1816667,37.0747222
aigherre,,00,15.3,39.25
ailet,,00,15.57,39.1475
akilo,,00,14.9952778,40.1544444
ak'irdat,,00,15.5486111,37.8866667
ak'ordat,,00,15.5486111,37.8866667
akrur,,00,15.1,39.2333333
akurdet,,00,15.5486111,37.8866667
ak' wirdet,,00,15.5486111,37.8866667
ala (1),,00,15.1913889,39.0291667
ala (2),,00,15.1797222,39.0375
ala,,00,15.1797222,39.0375
al-al,,00,15.9666667,38.2666667
alas,,00,14.4333333,40.6
albo,,00,15.1166667,38.5
alegada,,00,15.0666667,37.4833333
alela,,00,12.9713889,42.7247222
alescifa,,00,14.7833333,37.3
algena,,00,17.3166667,38.5166667
algheden,,00,15.4666667,37.1166667
alghena,,00,17.3166667,38.5166667
al homera,,00,14.2922222,36.6091667
alibarat,,00,15.3666667,39.7833333
alibarate,,00,15.3666667,39.7833333
aligider,,00,15.1166667,36.4833333
aligidir,,00,15.1166667,36.4833333
allumnu,,00,15.1,37.7
alta,,00,15.5688889,39.2397222
amadir,,00,15.0983333,38.7527778
amadr,,00,15.0983333,38.7527778
amarti,,00,14.2775,41.0947222
amatere,,00,15.6244444,39.4394444
ambacocat,,00,14.8488889,39.2555556
amba derho,,00,15.4341667,38.8986111
ambori,,00,15.0833333,38.0333333
ameli,,00,14.7833333,36.9333333
amhur,,00,15.0602778,39.0294444
amhuru,,00,15.0602778,39.0294444
amotahale,,00,12.4666667,42.8
amotalale,,00,12.4666667,42.8
amotalate,,00,12.4666667,42.8
anaghit,,00,16.35,38.6166667
ananit,,00,14.7083333,38.8925
angaba,,00,16.5166667,38.5
angheb,,00,15.4333333,38.7
angulei,,00,14.7666667,36.85
anrata,,00,14.6833333,40.9666667
anseba,,00,15.5666667,38.7166667
antalla,,00,15.2666667,37.2166667
anteca,,00,15.3666667,39.1
antit are,,00,15.45,38.4833333
antore,,00,14.5175,37.16
arafali,,00,15.0794444,39.7411111
araiu,,00,13.7166667,41.7333333
aranat,,00,15.75,39.9833333
aratali,,00,15.0794444,39.7411111
arato,,00,15.0586111,38.9838889
archico,,00,15.5333333,39.45
arcugi,,00,14.9833333,36.8333333
are adriss,,00,15.45,38.3666667
aredda,,00,15.2666667,37.6
aresa,,00,14.9252778,38.5680556
areza,,00,14.9252778,38.5680556
arghezana,,00,14.7333333,38.7166667
arkiko,,00,15.5333333,39.45
aromo,,00,14.6166667,39.4833333
arresa,,00,14.9252778,38.5680556
arreza,,00,14.9252778,38.5680556
aruaddin,,00,16.25,38.7166667
ar`uts'eru,,00,15.0877778,38.9955556
asa'ila,,00,15.0847222,39.9408333
asbagu,,00,13.85,41.1
asbol,,00,12.7333333,42.65
asciadira,,00,15.7333333,38.4
ascidira,,00,15.7333333,38.4
aseb,,00,13.0091667,42.7394444
asiti,,00,14.8622222,37.5461111
asitti,,00,15.1833333,37.7333333
asmara,563948,00,15.3333333,38.9333333
asmera,,00,15.3333333,38.9333333
assab,,00,13.0091667,42.7394444
assa ela,,00,14.1166667,41.5666667
asus,,00,15.6666667,39.1166667
at faid,,00,15.7833333,38.6833333
attai,,00,15.35,37.5833333
auasciait,,00,15.7166667,37.2333333
augana,,00,15.15,37.6333333
aula,,00,15.2,37.7166667
aura,,00,13.5833333,41.4333333
awashait,,00,15.7166667,37.2333333
awgaro,,00,14.7825,37.3013889
ayba,,00,14.6541667,39.0766667
aycota,,00,15.1816667,37.0747222
aycotal,,00,15.1816667,37.0747222
ayla,,00,14.5416667,38.7391667
aylet,,00,15.57,39.1475
aylu,,00,12.8333333,42.775
ayror,,00,13.0486111,42.7002778
ayumen,,00,14.05,40.9666667
azait,,00,14.85,38.5
azayeke,,00,15.1275,38.9330556
azmat adai,,00,16.1666667,38.0333333
azmat,,00,16.25,38.0333333
azmat uold,,00,15.6,38.4
az nefas,,00,15.4022222,38.9402778
azzega,,00,15.3644444,38.7472222
babaiu,,00,14.5833333,41.2
badeda,,00,14.9791667,40.5313889
baden,,00,16.9,37.9333333
badieita,,00,14.5666667,40.6666667
badme,,00,14.7166667,37.8
bailul,,00,13.2644444,42.3341667
baio,,00,14.7238889,37.5111111
bajo,,00,14.7238889,37.5111111
bambuco,,00,15.1833333,38.7
barachit,,00,14.65,39.45
barakantiyan,,00,15.9,38.4333333
barda,,00,15.2569444,38.7986111
bardoli,,00,15.1544444,39.9111111
barentu,15891,00,15.1138889,37.5927778
baresa,,00,15.4,39.2
barresa,,00,15.4,39.2
ba sciare,,00,16.4333333,38.4333333
behat,,00,14.5833333,39.4166667
behld,,00,13.7,42.0666667
beilil,,00,13.2644444,42.3341667
beilul,,00,13.2644444,42.3341667
bel'ebuy,,00,13.8,41.35
belec,,00,15.15,39.0666667
beleita,,00,14.5383333,40.6391667
belesa,,00,15.4236111,38.9258333
belessua,,00,14.5833333,40.15
beleza,,00,15.4236111,38.9258333
bera'isole,,00,13.6455556,42.1455556
berak,,00,14.8527778,38.7763889
berakit-abay,,00,14.9511111,39.1433333
berekintiya,,00,15.9,38.4333333
betalifuru,,00,15.35,39.6
bete ts'iyon,,00,14.565,38.8433333
bet mahala,,00,15.5333333,37.8666667
beyelul,,00,13.2644444,42.3341667
beylul,,00,13.2644444,42.3341667
biacundi,,00,14.4519444,37.2913889
biagundi,,00,14.4519444,37.2913889
bibinna,,00,14.9641667,37.7527778
biet gabriel,,00,14.6133333,38.8830556
bihde,,00,13.2422222,42.3088889
bilieta,,00,14.5383333,40.6391667
biscia,,00,15.4838889,37.5447222
bisha,,00,15.4838889,37.5447222
bitama,,00,15.3,36.8666667
biyagundi,,00,14.4519444,37.2913889
biyakundi,,00,14.4519444,37.2913889
boholo,,00,15.2,40.05
boleli,,00,14.5283333,40.115
bordele,,00,15.1544444,39.9111111
boscioca,,00,14.9494444,37.9122222
bragantia,,00,15.9,38.4333333
buc savino,,00,15.5833333,38.65
buhunena,,00,14.7833333,38.65
buia,,00,14.8333333,39.85
buluc bui,,00,13.8,41.35
buluc buij,,00,13.8,41.35
burteli,,00,15.4,39.9833333
bushuka,,00,14.9494444,37.9122222
buya,,00,14.8333333,39.85
cabuia,,00,14.55,40.1
cam ceua,,00,16.45,38.75
carcabat,,00,16.3,37.4
carobel,,00,16.0833333,38.4
carora,,00,17.7,38.3666667
chega,,00,15.15,37.7
chelamet,,00,16.0666667,38.9166667
chenafena,,00,14.7858333,39.0180556
chenanadole,,00,15.0666667,39.6333333
cheren,,00,15.7777778,38.4580556
cheru,,00,15.5833333,37.25
chessad dahre,,00,14.9833333,38.75
chibabo,,00,15.2833333,37.6166667
chichi,,00,14.4102778,36.7316667
chi nasc,,00,16.1833333,38.4166667
chi-nasce,,00,16.1833333,38.4166667
ciaat,,00,15.05,38.7
ciabbub areddu,,00,16.05,39.0166667
ciagghene,,00,16.3333333,38.3
ciandelga,,00,15.8833333,38.5
ciaresci,,00,15.4605556,38.8138889
cieffa,,00,14.65,39.4666667
coatit,,00,14.7955556,39.2730556
coazien,,00,15.4725,38.8866667
coghi,,00,15.1666667,37.3333333
coheli zibi,,00,14.5055556,38.6225
colulli,,00,14.4,40.35
cona,,00,15.05,37.6666667
corbaria,,00,15.0527778,38.9658333
crota,,00,15.4333333,39.8166667
croto,,00,15.4333333,39.8166667
cuba,,00,16.1,37.9666667
cub cub,,00,16.3333333,38.6333333
cudo hoiva,,00,14.5833333,39.2
cudombascia,,00,14.5977778,38.775
culculli,,00,14.4,40.35
cullucu,,00,14.9561111,37.6327778
cumbeiba,,00,15.8,40.0
curoh,,00,15.75,38.75
daadatu,,00,13.05,42.05
daalac chebir,,00,15.6833333,40.0166667
dabaissima,,00,12.6988889,42.3411111
daber,,00,14.8977778,39.1330556
dabre,,00,14.6,38.5333333
dabu,,00,12.9688889,42.0472222
dabudi,,00,13.1833333,42.0666667
dadda`to,,00,12.3833333,42.7166667
da'ero-kun'at,,00,14.6125,38.8016667
dagabta,,00,15.0941667,40.0547222
dagaiso,,00,15.6666667,38.5166667
daghilo,,00,14.9833333,37.6
dahaissima,,00,12.6988889,42.3411111
dahlac chebir,,00,15.6833333,40.0166667
dahlak kebir,,00,15.6833333,40.0166667
dahro caulos,,00,15.2780556,38.8697222
dahro conaad,,00,14.6125,38.8016667
da`iro k'awlos,,00,15.3338889,38.8505556
da'iro p'awlos,,00,15.2780556,38.8697222
dalaulo,,00,15.4166667,39.1166667
damait,,00,15.6833333,37.4666667
damas,,00,15.5,39.2
damba,,00,14.6402778,38.81
dambe,,00,15.5166667,39.05
dangal,,00,14.6333333,40.3
dara,,00,14.1166667,41.1
darmeli,,00,15.3333333,39.3666667
darok',,00,15.7466667,38.5252778
daro konat,,00,14.6125,38.8016667
darotai,,00,15.6333333,38.15
dasbudi,,00,13.1833333,42.0666667
daui rori,,00,12.7833333,42.2
dbarwa,,00,15.095,38.8336111
debalk'o,,00,15.7119444,38.6411111
debaroa,,00,15.095,38.8336111
debarwa,,00,15.095,38.8336111
debaysima,,00,12.6988889,42.3411111
debba,,00,14.3666667,41.35
debe'aluwa,,00,15.7436111,40.1166667
debra mercurios,,00,15.0133333,38.5597222
debra sellassie,,00,14.7205556,38.4011111
debra sina,,00,15.7488889,38.7033333
debre maryam,,00,14.6333333,38.35
debre-menkoryos,,00,15.0133333,38.5597222
debre silase,,00,14.7205556,38.4011111
debresina,,00,15.7488889,38.7033333
debri mariam,,00,14.6333333,38.35
debri-slasie,,00,14.7205556,38.4011111
deca dascim,,00,15.3833333,38.7
deca gabru,,00,15.5958333,38.7811111
decamere,,00,15.07,39.0475
decorassi,,00,14.9666667,38.6166667
deda,,00,15.3,38.6833333
dedda,,00,15.2333333,37.5833333
deebaroa,,00,15.095,38.8336111
dega,,00,15.5666667,37.9
degghera libe,,00,15.0219444,39.2088889
deghi,,00,15.7680556,38.4783333
degol,,00,15.6236111,39.3233333
degole,,00,15.6016667,39.3055556
dehalak' kebir,,00,15.6833333,40.0166667
dekamere,,00,15.07,39.0475
dekemehare,,00,15.07,39.0475
dekemehre,,00,15.07,39.0475
dek'emhare,,00,15.07,39.0475
dekemhare,,00,15.07,39.0475
dek'emhare hamasen,,00,15.5802778,38.8155556
dek'i gebru,,00,15.5958333,38.7811111
dek'i zer`u,,00,15.5433333,38.8036111
delemme,,00,15.4833333,39.8833333
demba carmet,,00,15.2166667,39.0166667
demba,,00,15.1313889,38.985
dembe,,00,15.5166667,39.05
dembe toccolu,,00,15.0833333,38.6333333
demes,,00,15.5,39.2
dem sebai,,00,15.4166667,38.7666667
denagul,,00,14.6458333,39.3755556
denagur,,00,14.6458333,39.3755556
denbe bengul,,00,14.6683333,37.7622222
dengel,,00,15.1052778,38.9652778
denghel,,00,15.1052778,38.9652778
dengolo,,00,14.6911111,38.8552778
dengolo tahtay,,00,15.4725,39.1341667
dera'alto,,00,14.8488889,38.8633333
dera,,00,14.9733333,39.3272222
dermush,,00,15.7813889,38.5211111
dersenei,,00,15.55,38.6666667
deset,,00,15.6605556,39.3366667
dhu bellu,,00,15.7436111,40.1166667
dibarwa,,00,15.095,38.8336111
dibibti,,00,14.8433333,38.7894444
dichicai,,00,15.3833333,39.95
diddale,,00,13.6833333,41.7666667
diddate,,00,13.6833333,41.7666667
didib,,00,14.4666667,40.6
digdig,,00,15.5841667,38.7691667
digra,,00,15.0219444,39.2088889
digsa,,00,14.9875,39.2280556
dikumbi,,00,14.7836111,37.4736111
dildil,,00,15.6180556,38.7194444
dilemmi,,00,15.4833333,39.8833333
dirko,,00,14.7602778,38.8094444
disei,,00,15.4666667,39.75
dissei,,00,15.4666667,39.75
diwalu,,00,14.9094444,40.6255556
dluh,,00,15.3977778,39.9802778
dluk,,00,15.39,38.2438889
doburra,,00,15.0833333,39.25
dochtumo,,00,12.7666667,42.4833333
dogali,,00,15.6016667,39.3055556
doleh,,00,15.3977778,39.9802778
dongollo,,00,14.6911111,38.8552778
dubaruba,,00,15.095,38.8336111
dub dubaria,,00,15.2166667,39.1833333
dubellu,,00,15.7436111,40.1166667
ducambia,,00,14.7836111,37.4736111
dukambaya,,00,14.7836111,37.4736111
dukambia,,00,14.7836111,37.4736111
dukambio,,00,14.7836111,37.4736111
dukambiya,,00,14.7836111,37.4736111
dukambya,,00,14.7836111,37.4736111
dule,,00,15.3977778,39.9802778
durco,,00,14.7602778,38.8094444
durko,,00,14.7602778,38.8094444
durna,,00,15.0333333,37.8333333
edaga berai,,00,15.6244444,39.4394444
edaga robo,,00,14.4166667,39.1666667
edd,11259,00,13.9297222,41.6925
ed,,00,13.9297222,41.6925
eid,,00,13.9297222,41.6925
elaberet,,00,15.6666667,38.6166667
elaberid,,00,15.6666667,38.6166667
ela beridi,,00,15.6666667,38.6166667
ela cantubba,,00,14.8666667,40.1166667
ela tita,,00,16.8833333,37.6333333
elgena,,00,17.3166667,38.5166667
elghena,,00,17.3166667,38.5166667
elit,,00,15.2333333,37.0
emba-derho,,00,15.4341667,38.8986111
embatcalla,,00,15.4013889,39.0805556
embatkala,,00,15.4013889,39.0805556
embatkalla,,00,15.4013889,39.0805556
embeito,,00,14.9069444,39.1125
embela,,00,15.2555556,39.0297222
emberemi,,00,15.7,39.4166667
embermi,,00,15.7,39.4166667
embeyto,,00,15.1513889,38.9544444
emni-tselim,,00,15.0680556,38.7941667
emni tzellim,,00,15.0680556,38.7941667
enda-aba-simeon,,00,14.7488889,38.2405556
enda abba ionas,,00,14.55,38.4666667
enda abba joanes,,00,14.55,38.4666667
enda abba jonas,,00,14.55,38.4666667
endaga robo,,00,14.4166667,39.1666667
enda-ghergis,,00,14.5544444,38.7558333
enda jesus,,00,14.6,38.5833333
engerne,,00,15.5213889,38.0180556
engherne,,00,15.5213889,38.0180556
en harris,,00,16.0333333,38.3666667
era,,00,16.0833333,38.0166667
erota,,00,16.2333333,37.9166667
eroto,,00,16.2333333,37.9166667
escile,,00,15.0833333,37.4
eshili,,00,15.0833333,37.4
eub anrafa,,00,17.3166667,38.5
faghi,,00,15.65,38.1333333
faraon,,00,14.85,40.7
fatima eri,,00,14.9008333,40.3136111
felfele,,00,16.0166667,38.3833333
felhit,,00,16.65,38.0333333
ferer,,00,13.8,41.15
figordat,,00,15.5486111,37.8866667
fil file,,00,16.0166667,38.3833333
filfil,,00,15.6344444,38.9372222
firidello,,00,14.6333333,40.7333333
fode,,00,14.915,37.5786111
follocle,,00,15.4333333,39.9166667
foro,,00,15.2591667,39.6211111
fortino ilma,,00,14.8333333,38.1
fortino mezalu,,00,15.0777778,39.0547222
fredarb,,00,15.8272222,38.5333333
fura,,00,13.55,41.3166667
gabena,,00,15.9333333,38.4666667
gabena gonfalon,,00,15.9333333,38.4666667
gadien,,00,15.1997222,39.0327778
gadmaita,,00,14.2833333,40.9166667
gaghet,,00,17.55,38.3833333
gahtelay,,00,15.5238889,39.1594444
gahtielay,,00,15.5238889,39.1594444
galata,,00,15.3,39.1666667
gambed bug,,00,14.3666667,40.8
gambed bui,,00,14.3666667,40.8
gambed buij,,00,14.3666667,40.8
gandeli,,00,15.4166667,39.8833333
ganraito,,00,14.8,40.05
garbanna,,00,14.2333333,40.7333333
gashi nashim,,00,15.5258333,38.8205556
gehare,,00,13.2333333,42.0666667
geleba,,00,14.5011111,39.3655556
geniti,,00,14.8666667,36.8311111
gereme,,00,15.4725,38.8866667
gergera,,00,14.5052778,39.2480556
geza keren,,00,14.5686111,38.8155556
ghedem,,00,15.5008333,39.5519444
ghedghed/debret,,00,15.75,39.0333333
ghela'elo,,00,15.0941667,40.0547222
ghelata,,00,15.3,39.1666667
gheleba,,00,14.5011111,39.3655556
gheleb,,00,15.8325,38.785
gheniseba,,00,14.8619444,39.0613889
ghenniseba,,00,14.8619444,39.0613889
ghenzabo,,00,14.7030556,39.2636111
gher,,00,16.15,38.3
gherghera,,00,14.5052778,39.2480556
ghergher,,00,15.4466667,38.4880556
gheru,,00,15.5833333,37.25
gherzaliguli,,00,14.9,40.3
gheza abada,,00,14.5544444,38.7558333
ghinda'e,,00,15.4491667,39.0886111
ghinda,,00,15.4491667,39.0886111
ghinzebo,,00,14.7030556,39.2636111
ghirghir,,00,16.4666667,38.1666667
ghirmayka,,00,15.5666667,36.7
giamal biscia,,00,15.0,36.9
giangheren,,00,15.9,38.3666667
gina bala,,00,14.95,38.8166667
ginda,11560,00,15.4491667,39.0886111
godaif,,00,15.3,38.9333333
godofelassi,,00,14.8697222,38.8497222
gogne,,00,15.085,37.4019444
gogni,,00,15.085,37.4019444
gohoreli,,00,15.45,39.3
gonye,,00,15.1666667,37.3333333
grar gabru,,00,15.2116667,38.7363889
grat gabru,,00,15.2166667,38.6333333
gruta,,00,15.4333333,39.8166667
guba,,00,16.1,37.9666667
gudba-badm,,00,14.7455556,38.8761111
gudela,,00,14.995,38.825
guila,,00,14.995,38.825
gulbub,,00,16.4,39.1666667
gulch,,00,14.7430556,36.7191667
gulgul,,00,15.5816667,38.7908333
gullui,,00,14.7430556,36.7191667
guloj,,00,14.7430556,36.7191667
guluj,,00,14.7430556,36.7191667
guluy,,00,14.7430556,36.7191667
gulwy,,00,14.7430556,36.7191667
gumhod,,00,15.6166667,39.1333333
guna-guna,,00,14.5333333,39.4333333
gunda gunde,,00,14.4166667,39.7333333
gundagundi,,00,14.4166667,39.7333333
gundet,,00,14.5544444,38.7558333
gun gum,,00,13.8833333,41.1833333
gura'e,,00,15.0133333,39.0605556
gura,,00,15.0133333,39.0605556
gura'i,,00,15.0133333,39.0605556
gurgur,,00,14.6166667,39.35
guritat,,00,15.5463889,38.8447222
habcnat,,00,14.7833333,39.0833333
habela,,00,15.3252778,38.5966667
habi mantel,,00,15.7438889,38.5511111
habran k'ak'a,,00,15.6436111,38.7252778
habrenta,,00,15.5,39.6
hacal todaro,,00,17.1666667,37.55
hadamu,,00,15.0833333,39.0466667
haddohalle,,00,14.7666667,40.05
hadish adi,,00,14.7166667,37.8
hadis,,00,15.7438889,38.5511111
hadish,,00,15.1833333,39.5333333
hagaz,,00,15.7022222,38.2761111
hageza,,00,15.7022222,38.2761111
haikota,,00,15.1816667,37.0747222
halaba,,00,13.9166667,41.8
halal,,00,15.0538889,39.2613889
halay,,00,14.9977778,39.3275
halhale,,00,15.0558333,38.8366667
halhal,,00,15.9,38.2833333
halib-mentel,,00,15.7438889,38.5511111
halibo,,00,14.9686111,39.0836111
haloll,,00,14.4,41.0333333
hambok,,00,15.4,37.4666667
ham,,00,14.5294444,39.3638889
hanainef,,00,13.6666667,42.1
hananit,,00,14.7083333,38.8925
hancul,,00,12.6,42.55
hargigo,,00,15.5333333,39.45
harigo,,00,15.5333333,39.45
hariyen,,00,15.0322222,38.9219444
harkuhuya,,00,15.6458333,38.6808333
harret,,00,15.0333333,38.6666667
harsile,,00,12.8475,42.7408333
haserelbo,,00,14.9738889,38.8483333
haserlibo,,00,14.9738889,38.8483333
hashaso,,00,14.4677778,39.2486111
hashela,,00,15.7680556,38.4783333
hasta,,00,16.9666667,38.1
hatsina,,00,14.9,38.6166667
hawashayt,,00,15.7166667,37.2333333
hawra,,00,14.4827778,41.3105556
haycota,,00,15.1816667,37.0747222
hayelo (1),,00,15.6627778,38.7136111
hayelo (2),,00,15.5325,38.8425
hayelo,,00,15.5325,38.8425
haykota,,00,15.1816667,37.0747222
hazega,,00,15.3644444,38.7472222
hebo,,00,15.0777778,39.2336111
hernet,,00,15.0333333,38.6666667
hibo,,00,15.0777778,39.2336111
hidele,,00,15.3202778,39.4625
himberti,,00,15.26,38.7347222
himbirte,,00,15.26,38.7347222
himbirti,,00,15.26,38.7347222
himeret,,00,15.6763889,38.6966667
himora (1),,00,14.2922222,36.6091667
himora (2),,00,14.3013889,36.6069444
himora,,00,14.2922222,36.6091667
hinbirti,,00,15.26,38.7347222
hinzi,,00,15.3483333,38.9830556
hirghigo,,00,15.5333333,39.45
hirgigo,,00,15.5333333,39.45
hit'imlo,,00,15.6238889,39.42
hitmulo,,00,15.6238889,39.42
hit'ublo,,00,15.6172222,39.425
hoddohalle,,00,14.7666667,40.05
hodit,,00,15.6947222,38.7108333
hoho,,00,16.35,38.3333333
homed issa,,00,15.55,38.35
horena,,00,14.8,40.7166667
humera,,00,14.2922222,36.6091667
hummed,,00,15.7333333,38.35
hummet,,00,15.7333333,38.35
iaholluf,,00,15.6333333,38.55
idab,,00,14.8,37.45
idabi,,00,14.8,37.45
idi,,00,13.9297222,41.6925
ieden,,00,15.6986111,38.6425
ielit,,00,15.2333333,37.0
iemarugle,,00,14.6,40.2666667
ighiroli,,00,14.2333333,41.1833333
igri mekel,,00,14.8144444,38.8083333
`ilaber'id,,00,15.6666667,38.6166667
ili,,00,15.0666667,37.4333333
illabadan,,00,14.4,40.6
illalia,,00,15.2,39.3833333
illauit,,00,15.0833333,39.45
imbatekala,,00,15.4013889,39.0805556
imbatikala,,00,15.4013889,39.0805556
imbereme,,00,15.7,39.4166667
imberimi,,00,15.7,39.4166667
imbeyto,,00,15.1513889,38.9544444
imk'ats'a,,00,15.1388889,38.9086111
imni ts'elim,,00,15.0680556,38.7941667
inabta,,00,14.7272222,38.8633333
inba dorho,,00,15.4341667,38.8986111
inda iyesus,,00,14.6,38.5833333
indashum,,00,14.5166667,38.55
ingal,,00,15.4680556,39.8819444
inghel,,00,15.4680556,39.8819444
irafayle,,00,15.0794444,39.7411111
irble,,00,13.7333333,41.5333333
iremle,,00,14.5008333,40.1233333
it atba,,00,16.2166667,38.35
iyamo,,00,14.7175,38.8272222
jahalluf,,00,15.6333333,38.55
jimhil,,00,15.7588889,39.9497222
johalluf,,00,15.6333333,38.55
kamchewa,,00,16.45,38.75
karkabat,,00,16.3,37.4
karkabet,,00,16.3,37.4
karmu,,00,14.0502778,41.6247222
karora,,00,17.7,38.3666667
katai garsa,,00,17.5333333,37.2333333
kelamet,,00,16.0666667,38.9166667
kelmet,,00,16.0666667,38.9166667
kemchewa,,00,16.45,38.75
kemechiwa,,00,16.45,38.75
k'erech'a,,00,15.6888889,38.7358333
kerekebet yemengist meret,,00,16.3,37.4
keren,,00,15.7777778,38.4580556
kerkebet,,00,16.3,37.4
kerora,,00,17.7,38.3666667
keru,,00,15.5833333,37.25
keshe'at,,00,14.7313889,39.3763889
k'eyih kor,,00,15.0986111,39.0586111
kidkid dele,,00,15.45,38.5166667
kieru,,00,15.5833333,37.25
k'ine hayela,,00,14.7958333,38.8422222
kinto,,00,14.4447222,39.2411111
kisad dairo,,00,14.9833333,38.75
kitmo awli'i,,00,15.2583333,38.8272222
knafna,,00,14.7858333,39.0180556
koatit,,00,14.7955556,39.2730556
kogi,,00,15.1666667,37.3333333
kokobay,,00,14.5088889,39.405
koloburdo,,00,14.5180556,39.2269444
korbariya,,00,15.0527778,38.9658333
krum,,00,14.0502778,41.6247222
ksad-ika,,00,14.5133333,38.7772222
kubkub,,00,16.3333333,38.6333333
kudo-felasi,,00,14.8697222,38.8497222
kuhli-zbi,,00,14.5055556,38.6225
kuluku,,00,14.9561111,37.6327778
kulul,,00,14.4,40.35
kululli,,00,14.4,40.35
kumheyle,,00,15.1166667,39.2666667
kunbeiba,,00,15.8,39.9833333
kurbarya,,00,15.0527778,38.9658333
k'ushut,,00,15.32,38.8691667
kutur,,00,14.6602778,38.8322222
laba,,00,16.3166667,38.3333333
lafofle,,00,13.8333333,41.4166667
laguyen,,00,15.2266667,38.8427778
la`ilay adi kefelet,,00,15.1927778,38.7336111
lalenta,,00,15.3166667,39.4666667
lammagadi,,00,15.3666667,39.8
laynyaw dengolo,,00,15.4505556,39.1219444
lelissa,,00,14.7233333,40.8261111
lemarugle,,00,14.6,40.2666667
lesa,,00,15.3427778,39.0427778
liban,,00,15.2075,38.6347222
logosarda,,00,14.6166667,39.2
maacaca,,00,13.0580556,42.6694444
maaraba,,00,15.0372222,39.1483333
maarab,,00,15.0372222,39.1483333
macaca,,00,13.0580556,42.6694444
macalille,,00,15.2833333,39.8
macanille,,00,15.2833333,39.8
macannile,,00,15.2833333,39.8
macanville,,00,15.2833333,39.8
madroriet,,00,16.9666667,38.3833333
madruriet,,00,16.9666667,38.3833333
ma'ereba,,00,15.0372222,39.1483333
mafaradalu,,00,15.2944444,39.0622222
magala,,00,14.5702778,36.9286111
magareh,,00,15.7908333,38.4055556
mahio,,00,15.0166667,39.4
maho,,00,16.1666667,38.85
mai aderde,,00,15.6533333,38.1322222
mai aha,,00,15.0194444,39.1283333
mai aini,,00,14.7833333,39.1
mai albo,,00,15.1166667,38.5
maiam,,00,14.9666667,39.5166667
mai assa,,00,14.5833333,38.45
mai atal,,00,15.5688889,39.2397222
mai cehu,,00,14.9186111,38.4630556
mai chele,,00,14.5166667,36.9333333
mai edaga,,00,14.9936111,39.0433333
mai egada,,00,14.9936111,39.0433333
mai gorz,,00,14.5161111,38.4286111
mai gorzo,,00,14.5161111,38.4286111
maihabar,,00,15.2666667,39.05
mai kele,,00,14.5166667,36.9333333
mai mefales,,00,14.9866667,38.2675
maio,,00,15.0166667,39.4
ma`ireba,,00,15.0372222,39.1483333
mai teb,,00,14.3666667,36.8333333
mai-ti,,00,13.0,42.2166667
mai tsada,,00,15.1138889,37.5927778
mai turab,,00,14.8047222,39.3938889
mai tzagla,,00,14.6,39.3333333
malhas,,00,16.55,38.0833333
mandafara,,00,14.9016667,39.3280556
mansciua,,00,15.85,38.2666667
mansura,,00,15.4797222,38.2602778
mara,,00,15.25,39.2333333
marcouaghe,,00,15.35,37.3666667
mareba,,00,15.0372222,39.1483333
mareitu,,00,14.9186111,37.8347222
margable,,00,12.9041667,42.7413889
markaba,,00,14.6,36.9333333
markaughe,,00,15.35,37.3666667
marla,,00,14.745,39.3727778
marsa gulbub,,00,16.4,39.1666667
marta,,00,14.745,39.3727778
masawa,,00,15.6097222,39.45
mass ali,,00,15.75,39.3666667
mass-alj,,00,15.75,39.3666667
massaua,,00,15.6097222,39.45
massau,,00,15.6097222,39.45
massawah,,00,15.6097222,39.45
massawa,,00,15.6097222,39.45
massowah,,00,15.6097222,39.45
massowa,,00,15.6097222,39.45
matara,,00,14.5144444,39.3055556
may at'al,,00,15.5688889,39.2397222
may habar (1),,00,15.2944444,39.0622222
may habar (2),,00,15.2666667,39.05
may-habar,,00,15.2666667,39.05
mayha,,00,15.0194444,39.1283333
may libus,,00,14.9302778,38.8002778
may mech'ek'at,,00,14.6155556,38.8513889
may-mefals,,00,14.9866667,38.2675
may-nefhi,,00,15.2569444,38.7986111
mebasit,,00,15.5083333,38.82
medere,,00,14.6,39.75
meder,,00,14.7277778,40.7758333
m'edr,,00,14.7277778,40.7758333
medruriet,,00,16.9666667,38.3833333
mefalk,,00,15.9666667,38.75
mefalso,,00,14.8155556,38.8383333
megarih,,00,15.7908333,38.4055556
mehatel jebal,,00,15.6133333,39.3169444
mehlab,,00,15.7475,38.7488889
meka'enile,,00,15.2833333,39.8
meka'ika,,00,13.0580556,42.6694444
mek'erka (1),,00,15.4986111,38.9041667
mek'erka (2),,00,15.4633333,38.8497222
mek'erka,,00,15.4633333,38.8497222
melill,,00,15.7641667,39.9716667
melil,,00,15.7641667,39.9716667
mendad,,00,15.8333333,38.5
mendefera,,00,14.8855556,38.8163889
menlab,,00,15.7475,38.7488889
mensura,,00,15.4797222,38.2602778
menuetet,,00,15.7,38.95
mergebla,,00,12.9041667,42.7413889
merhano,,00,15.2611111,38.9233333
mersa fatma heri,,00,14.9008333,40.3136111
mersa fatma,,00,14.9008333,40.3136111
mersa fatuma,,00,14.9008333,40.3136111
mersa gulbub,,00,16.4,39.1666667
mersa kuba,,00,16.2833333,39.1833333
mersa tek'lay,,00,17.5666667,38.85
mescul,,00,15.3,37.5
mesewa,,00,15.6097222,39.45
mestamer,,00,15.2666667,39.05
mets'alu,,00,15.0777778,39.0547222
mezba,,00,14.55,39.5333333
mihiyaw,,00,14.7383333,38.8313889
mihlab,,00,15.7475,38.7488889
mi'ida,,00,14.7277778,40.7758333
mikrem,,00,14.7777778,38.8341667
minhajer,,00,14.325,36.6552778
misgwag,,00,15.3052778,38.8327778
missione svedese,,00,14.9333333,37.6333333
mitsewa,,00,15.6097222,39.45
mits'iwa,,00,15.6097222,39.45
mocolba,,00,14.7666667,40.0333333
mogareh,,00,15.7908333,38.4055556
mogile,,00,15.1833333,39.9166667
mogoile,,00,15.1833333,39.9166667
mogolo,,00,15.3119444,37.6419444
molazenai,,00,15.4666667,38.6333333
molebso,,00,16.0166667,38.2166667
moncullo,,00,15.6172222,39.425
mora,,00,14.8827778,40.6847222
more,,00,14.8827778,40.6847222
morgada,,00,14.5666667,41.2
moso,,00,14.8833333,37.3333333
mrara,,00,15.6888889,38.8802778
mureym,,00,13.6166667,41.3
muri,,00,13.3333333,41.8833333
musa ela,,00,13.1,41.9
muscia,,00,15.8333333,38.5166667
nacfa,,00,16.6669444,38.4791667
nacta,,00,12.6333333,42.9166667
nak'fa,,00,16.6669444,38.4791667
narcaba,,00,14.6,36.9333333
nauret,,00,15.5166667,39.5166667
nefasi,,00,15.3333333,39.0619444
nefasit,,00,15.3333333,39.0619444
nifas,,00,15.4022222,38.9402778
nocra,,00,15.7044444,39.9377778
nohta,,00,12.6333333,42.9166667
nokra,,00,15.7044444,39.9377778
noora,,00,15.7044444,39.9377778
oasi,,00,13.2666667,42.1
obellet,,00,16.1166667,39.0
om ager,,00,14.325,36.6552778
om hager,,00,14.325,36.6552778
omhajer,,00,14.325,36.6552778
om hayer,,00,14.325,36.6552778
ona andom,,00,14.7605556,39.195
onabetta,,00,14.7272222,38.8633333
ona gabien,,00,14.6611111,38.9088889
ona,,00,14.5333333,40.9333333
otumlo,,00,15.6238889,39.42
per tokar,,00,16.9833333,37.4666667
porto smyth,,00,15.5333333,40.0
port smyth,,00,15.5333333,40.0
pozzi di tole,,00,14.9833333,37.8166667
qbellet,,00,16.1166667,39.15
qua'atit,,00,14.8155556,39.2213889
queddaelli,,00,15.45,38.5166667
querbarya,,00,15.0527778,38.9658333
raa,,00,14.6333333,40.7833333
racrabet,,00,15.8333333,39.3
ragali,,00,14.55,40.1166667
rahayta,,00,12.7269444,43.0841667
rahayto,,00,12.7269444,43.0841667
rahei,,00,16.05,38.2166667
raheita,,00,12.7269444,43.0841667
rahel,,00,16.05,38.2166667
raher,,00,16.05,38.2166667
rahita,,00,12.7269444,43.0841667
randakoma,,00,14.4686111,39.9758333
rapto,,00,15.7438889,38.6694444
rasa,,00,14.9833333,40.3833333
ras kasar,,00,17.9833333,38.5666667
rasseitao,,00,13.85,41.1
rehayto,,00,12.7269444,43.0841667
renda coma,,00,14.4686111,39.9758333
renda,,00,14.4686111,39.9758333
rub rubia,,00,15.2166667,39.1833333
rub rubiya,,00,15.2166667,39.1833333
saada,,00,14.4833333,40.5833333
saati,,00,15.6,39.25
saatta,,00,16.5166667,37.3666667
sabderat,,00,15.45,36.65
sacalatta,,00,12.5166667,42.7666667
sacatare,,00,15.1166667,39.5333333
sadik'a,,00,14.5133333,38.7772222
safira,,00,14.8616667,39.4102778
saganeiti,,00,15.0527778,39.1872222
sahelia,,00,16.0666667,40.05
sahlat,,00,14.6144444,36.8408333
sahli,,00,14.7233333,40.8261111
saladaro,,00,15.2052778,38.8758333
sala,,00,16.9833333,37.4666667
salderat,,00,15.45,36.65
samero,,00,15.2,37.7166667
samoti,,00,14.7069444,40.0619444
sanafe,,00,14.6852778,39.4136111
sanda,,00,14.3166667,40.5333333
sarda,,00,14.5897222,39.2955556
saroyta,,00,14.4091667,41.3369444
sasah,,00,15.1144444,39.0425
sceic abdo raama,,00,15.8,40.0166667
scerit,,00,16.6166667,37.8166667
sciabba,,00,15.68,39.0441667
sciacchen,,00,15.4166667,38.05
scicchetti,,00,15.1513889,38.8638889
sciec alilo,,00,14.6166667,41.0333333
scillichi,,00,15.4,39.4833333
scindoa,,00,15.6180556,38.7194444
scipitale,,00,15.1,37.75
scisci,,00,14.4333333,36.9333333
sciumagalle,,00,16.5833333,38.5
sciuma,,00,15.475,38.8483333
sebderat,,00,15.45,36.65
sed daaf,,00,15.7666667,39.9666667
seganeiti,,00,15.0527778,39.1872222
segdo,,00,15.3388889,38.8938889
segeleyti,,00,15.0527778,39.1872222
segeneyti,,00,15.0527778,39.1872222
segheneyti,,00,15.0527778,39.1872222
selaba she'ib,,00,15.7438889,38.6694444
sela'i da'iro,,00,15.2052778,38.8758333
seleba she'ib,,00,15.7438889,38.6694444
sen'afe,,00,14.6852778,39.4136111
serejeka,,00,15.4825,38.8636111
sesah,,00,15.1127778,39.0177778
sessaghede,,00,14.8666667,39.7
sessa,,00,15.1127778,39.0177778
seud buij,,00,13.2666667,42.1666667
seud bui,,00,13.2666667,42.1666667
seud buy,,00,13.2666667,42.1666667
shambiko,,00,14.9186111,37.8347222
sh'eb/mensheb,,00,15.8166667,39.0333333
sheburur,,00,14.2625,41.4669444
shegilet wedi merir,,00,15.68,38.6727778
sheh abdel k'adir,,00,15.6166667,39.4833333
sheib,,00,16.0333333,39.25
shek abdel k'adir,,00,15.6166667,39.4833333
sheka wedi bisrat,,00,14.9619444,38.81
sheketi,,00,15.1513889,38.8638889
shibah,,00,15.68,39.0441667
shigirni,,00,15.3666667,38.9919444
shiketi,,00,15.1513889,38.8638889
shimangus-tahtay,,00,15.4986111,38.7958333
shima nigus la`ilay,,00,15.475,38.8483333
shima nigus tahtay,,00,15.4986111,38.7958333
shima nigus tihtay,,00,15.4986111,38.7958333
sibi'a,,00,14.7480556,38.7866667
simoti,,00,14.7069444,40.0619444
sitona,,00,14.4166667,37.35
sittona,,00,14.4166667,37.35
socalatta,,00,12.5166667,42.7666667
sorbetit,,00,16.0166667,36.9166667
surto,,00,15.6666667,38.5166667
suru inferiore,,00,15.1,39.5333333
suru superiore,,00,15.0666667,39.5
suwa,,00,14.2775,41.0947222
t'a'areshi,,00,15.4605556,38.8138889
tachinyaw dengolo,,00,15.4725,39.1341667
tachinyaw dongolo,,00,15.4725,39.1341667
taclai,,00,17.5666667,38.85
tacul,,00,15.0258333,39.045
tahara,,00,16.5666667,38.1833333
takita,,00,15.0,38.8
taklai,,00,17.5666667,38.85
tala,,00,15.1219444,38.7736111
tantarna,,00,15.7833333,38.45
tantarua,,00,15.7833333,38.45
tappa nefasit,,00,15.3333333,39.0619444
targhan,,00,12.65,42.4
tarua,,00,15.4,39.5166667
tauda,,00,15.1666667,37.4666667
tawlad,,00,15.6,39.4666667
tegheren,,00,14.8,39.3333333
tek'lay,,00,17.5666667,38.85
tera-emni,,00,15.0111111,38.8258333
tera imni,,00,15.0111111,38.8258333
teramni,,00,15.0111111,38.8258333
tesenei,,00,15.11,36.6575
tesene,,00,15.11,36.6575
teseney,3753,00,15.11,36.6575
tessenei,,00,15.11,36.6575
tetafil,,00,16.1,38.3333333
thio,,00,14.6908333,40.96
ticho,,00,14.6908333,40.96
ticse,,00,16.5833333,38.6166667
time'i,,00,14.6558333,38.8605556
tinishu aseb,,00,13.0272222,42.7427778
tinishu assab,,00,13.0272222,42.7427778
t'i'o,,00,14.6908333,40.96
tio,,00,14.6908333,40.96
tiyo,,00,14.6908333,40.96
tkul,,00,14.8033333,38.2469444
tof alaba,,00,16.5166667,38.2
tognuf,,00,16.1833333,37.45
tokombiya,,00,14.7836111,37.4736111
tolesuca,,00,14.6166667,36.9166667
tole,,00,14.9833333,37.8166667
tredishi,,00,15.2555556,39.0297222
trongo,,00,15.8666667,38.3666667
tsa'edakristyan,,00,15.3338889,38.8505556
tsazega,,00,15.35,38.8
ts'e'ada,,00,15.3102778,38.8586111
tse'azega,,00,15.35,38.8
ts'egwaro,,00,15.0313889,39.025
ts'elot,,00,15.2822222,38.9669444
tseret,,00,15.3986111,39.1830556
tsibuk grat,,00,15.005,38.3736111
tsorena,,00,14.6252778,39.2002778
tucul,,00,14.8033333,38.2469444
tukul,,00,14.8033333,38.2469444
t'walet,,00,15.6,39.4666667
tzada addi,,00,14.8819444,38.3627778
tzada christian,,00,15.3338889,38.8505556
tzada-cristian,,00,15.3338889,38.8505556
uad giaba,,00,17.1166667,38.3666667
uara,,00,15.6166667,38.7833333
uasentet,,00,15.9166667,38.5
udibi,,00,14.8,37.8333333
ugaro,,00,14.7825,37.3013889
umm hagar,,00,14.325,36.6552778
una-andom,,00,14.7605556,39.195
una lanalay,,00,15.4497222,38.8311111
uoccherti,,00,15.1530556,39.0072222
uodgan,,00,17.3333333,38.6
uogherti,,00,15.1530556,39.0072222
vann,,00,12.65,42.6333333
villaggi sciacchen,,00,15.4166667,38.05
vodgan,,00,17.3333333,38.6
wade,,00,13.1833333,41.8666667
wasena,,00,15.0166667,39.7
wedegiba,,00,17.1166667,38.3666667
wedi-ledo,,00,15.7961111,39.3886111
wek diba,,00,15.3675,38.8797222
wekerti,,00,15.1530556,39.0072222
wekiro,,00,15.8383333,39.3055556
wek'iro,,00,15.9166667,39.3
wi'a,,00,15.3166667,39.5013889
wik'ro,,00,15.9166667,39.3
ygi'ar,,00,15.7294444,38.6052778
yigi'ar,,00,15.7294444,38.6052778
zaga,,00,15.6,39.4
zagher,,00,15.55,38.9333333
zagr,,00,15.55,38.9333333
zahaflam,,00,15.5,38.85
zala anbesa,,00,14.5211111,39.3833333
zariga,,00,14.5,40.3
zawl,,00,15.1880556,38.7647222
zazega,,00,15.35,38.8
zazzega,,00,15.35,38.8
zeban debri,,00,14.7608333,38.5372222
zela ambesa,,00,14.5211111,39.3833333
ziban una,,00,14.86,38.8180556
zigfet,,00,14.5969444,39.4113889
zigib,,00,15.2208333,38.9925
zolot,,00,15.2822222,38.9669444
zubuc grat,,00,15.005,38.3736111
zula,,00,15.2455556,39.6677778
