names,population,state_code,lat,lon
ababayte,,05,35.1702778,46.0336111
ababelleh,,05,35.1702778,46.0336111
ababelli,,05,35.1702778,46.0336111
ababilah,,05,35.1702778,46.0336111
abada,,09,30.9075,46.7755556
`abad `ali,,14,31.9166667,46.9166667
`abadi dawud salim,,10,33.7802778,45.5055556
abadi mullah hasan,,10,33.8005556,45.5341667
abah timman,,14,31.7036111,47.0655556
abakhana,,07,33.3333333,44.4
abas ar rajib,,10,33.7433333,45.0336111
abass at ta±`ma,,16,33.0108333,44.6952778
abayachi,,18,33.7672222,44.3802778
abbara,,10,33.9438889,44.8775
`abbara,,10,34.5202778,45.1552778
`abbarah,,10,33.9438889,44.8775
`abbarah,,16,33.0666667,45.9333333
`abbas,,04,32.1038889,45.3063889
`abbas,,06,32.3333333,44.4333333
`abbas,,09,31.2511111,46.0877778
`abbas,,10,33.75,44.7333333
`abbas,,12,32.6794444,44.205
`abbas,,17,32.0788889,44.4430556
`abbas,,18,34.0280556,44.2438889
`abbas ad dakhil,,06,32.3166667,44.8666667
`abbas agha,,03,31.4144444,45.1155556
`abbas al `abd allah,,06,32.7666667,44.2833333
`abbas al `abid,,06,32.8661111,44.5297222
`abbas al ahmad,,18,34.0280556,44.2438889
`abbas al `ali,,06,33.1591667,44.3983333
`abbas al `amir,,16,32.9941667,44.6575
abbas al hamadi,,03,31.5025,45.1966667
`abbas al husain,,18,33.75,44.3
`abbas al husayn,,01,33.3558333,44.1055556
`abbas al husayn,,17,32.0533333,44.4613889
`abbas al husayn,,18,33.75,44.3
`abbas al jasim,,16,32.95,44.5333333
`abbas al mahdi,,01,33.3725,44.1266667
`abbas al mardi,,10,33.75,44.9833333
`abbas al murshid,,10,33.4830556,44.4322222
`abbas al wadi,,01,33.4233333,44.3427778
`abbas ar radi,,04,31.4441667,44.8705556
`abbas ar rajib,,10,33.7433333,45.0336111
`abbas as saddam,,04,32.0408333,45.2772222
`abbas as salih,,10,33.7166667,44.7666667
`abbas at ta±`ma,,16,33.0108333,44.6952778
`abbas at ta±`mah,,16,33.0108333,44.6952778
`abbas chaqal,,05,35.7291667,45.475
`abbas fayhan,,06,32.9111111,44.1897222
`abbas ibrahim,,10,34.15,45.1
abbasiyah,,08,37.1372222,42.7025
abbas karash,,06,32.8833333,44.2
`abbas kazi§im,,06,32.7,44.3333333
`abbas khidr,,06,32.9944444,44.1533333
`abbas mahdi,,12,32.6255556,44.2291667
`abbas marjan,,06,32.3633333,44.3791667
`abbas mukhaylif,,18,34.975,43.295
`abbas mulla `alwan,,01,33.4319444,44.3430556
`abbas radhi,,04,31.4441667,44.8705556
`abbas radi,,16,32.885,44.1991667
`abbas rajab,,15,36.0941667,43.3791667
`abbas shagal,,05,35.7291667,45.475
`abbud,,10,33.5166667,45.0666667
`abbud,,18,34.775,44.4519444
`abbud al `abhul,,07,33.0188889,44.5161111
`abbud al `ali,,06,32.6033333,44.3602778
`abbud al `ali,,10,33.7166667,45.0333333
`abbud al haj hamadi,,04,32.0183333,44.55
`abbud al halihal,,04,32.2097222,44.9886111
`abbud al hamzah,,04,32.0213889,44.8825
`abbud al husayn,,16,32.4833333,45.6333333
`abbud al jasim,,01,33.4519444,44.3216667
`abbud as saghir,,06,32.4447222,44.2602778
`abbud as sayyid,,07,33.45,44.3
`abbudi,,14,31.4780556,47.33
`abbud muhammad,,12,32.6066667,44.0872222
`abbud shihab,,01,33.4541667,44.3180556
abda,,09,31.2,46.5333333
`abd,,06,32.3386111,44.7408333
`abd,,14,31.5666667,47.2666667
`abd `abd allah,,06,32.9741667,44.18
`abd abu al `ula shaykh latif,,14,31.8166667,47.1833333
abd abul`ula shaikh latif,,14,31.8166667,47.1833333
`abdah,,09,31.2,46.5333333
`abd al `abbas,,06,32.3713889,44.4119444
`abd al `abhul,,07,33.0188889,44.5161111
`abd al `ali,,16,33.25,46.0666667
abdalan,,05,35.78,46.2022222
`abd alan,,05,35.7930556,45.0161111
abdalan,,11,36.0380556,44.6294444
`abd al `aziz,,03,31.5058333,45.2366667
`abd al `aziz,,10,33.6333333,44.9833333
`abd al `aziz,,18,33.5583333,44.3138889
`abd al `aziz hamadi,,18,33.5583333,44.3138889
`abd al `aziz shalabi,,10,33.7283333,45.0697222
`abd al baqi,,07,33.7333333,44.2833333
`abd al basha,,18,33.7405556,44.2802778
`abd al fahd,,06,32.3833333,44.4333333
`abd al ghani,,09,30.9666667,46.2
`abd al hadi,,16,32.6208333,45.5027778
`abd al hadi `atiyah,,04,31.7541667,44.6183333
`abd al hadi bak,,16,32.1794444,45.9602778
`abd al hamid,,14,31.8166667,47.1333333
`abd al hamid al kharbit,,01,33.3816667,43.1125
`abd al hasan,,06,32.2838889,44.775
`abd al hasan,,14,31.6833333,47.1
`abd al hasan hamzah,,16,32.5,45.7166667
`abd al hassun,,06,32.3425,44.4675
`abd al husayn,,03,31.2838889,45.2791667
`abd al husayn,,06,32.3333333,44.2666667
`abd al husayn,,09,31.2652778,46.5033333
`abd al husayn,,10,33.6666667,45.0666667
abd al husayn,,10,33.6977778,45.0255556
`abd al husayn,,16,32.4833333,45.6333333
`abd al husayn ad dalmas,,06,32.2113889,44.3963889
abd al husayn al hajj `ali,,06,32.3333333,44.2666667
`abd `ali,,01,33.4247222,44.3025
`abd `ali,,03,31.2047222,45.6188889
`abd `ali,,04,31.7019444,45.0094444
`abd `ali,,06,32.6,44.5333333
`abd `ali,,14,31.9166667,46.9166667
`abd `ali,,16,32.3391667,45.9361111
`abd `ali al `ajil,,03,31.2047222,45.6188889
`abd `ali al mulla,,06,32.5333333,44.1833333
`abd `ali al mulla hadhdhal,,06,32.5333333,44.1833333
abd `ali mard,,03,31.5666667,45.25
`abd `ali mulla hadhdhal,,06,32.5333333,44.1833333
`abdaliyah,,02,30.4788889,47.8675
`abdaliyah,,15,36.5663889,43.4858333
`abd al jabbar,,07,33.3166667,44.4833333
`abd al jabbar ghulam,,07,33.3166667,44.5333333
`abd al jal`ut,,07,33.1416667,44.5758333
`abd al jasim,,07,33.1,44.55
`abd al kadhim,,04,31.8333333,44.5333333
`abd al karim,,03,31.1680556,45.5091667
`abd al karim,,04,32.0686111,45.3269444
`abd al karim,,06,32.4722222,44.1661111
`abd al karim,,10,33.6125,44.3441667
`abd al karim ar rawdan,,09,31.0333333,46.4
`abd al karim bin `izzu,,06,32.4722222,44.1661111
`abd al karim farah,,06,32.9844444,44.1641667
abd al karim ibn `azzu,,06,32.4722222,44.1661111
`abd al karim `uthman,,09,33.4622222,44.315
`abd al kassarah,,10,33.9833333,44.6833333
`abd al kazi§im shalab,,16,32.5088889,45.8475
`abd al khalaf,,01,33.4705556,43.1780556
`abd al kisarah,,10,33.5166667,45.4333333
abd allah,,05,35.4322222,45.3936111
`abd allah,,09,30.9166667,46.4166667
`abd allah,,10,33.7983333,45.0819444
`abd allah,,14,31.9,46.4166667
`abd allah,,18,35.1525,44.4083333
`abd allah ad dahur,,18,34.1125,44.3194444
`abd allah ad darwish,,10,33.6166667,44.7
`abd allah ad duwaysh,,10,33.6166667,44.7
`abd allah afandi,,10,33.9733333,44.71
`abd allah ahmad,,06,32.8919444,44.2186111
`abd allah al `aba'iji,,18,33.7672222,44.3802778
`abd allah al `aba'iki,,18,33.7672222,44.3802778
`abd allah al amir,,16,32.5166667,45.6319444
`abd allah al `awwad,,01,33.355,44.0236111
`abd allah al ghashim,,16,32.4247222,45.885
`abd allah al hasan,,10,33.8336111,45.0588889
`abd allah `ali,,06,32.9358333,44.1711111
`abd allah al ibashi,,18,33.7672222,44.3802778
`abd allah al jabir,,10,33.4819444,44.4716667
`abd allah al jabr,,10,33.4819444,44.4716667
`abd allah al jasim,,07,33.5,44.3
`abd allah al mandhur,,04,32.0919444,45.0886111
`abd allah al manzi§ur,,04,32.0919444,45.0886111
`abd allah al mundhir,,04,32.0919444,45.0886111
`abd allah al yasin,,16,32.08,45.9972222
`abd allah as salih,,10,33.55,44.4666667
`abd allah bayk,,10,34.4333333,45.3333333
`abd allah kazi§im,,06,32.2833333,44.55
`abd allah salim,,10,33.5,45.75
`abd allah suwayd,,10,34.055,44.8947222
`abd al latif al farras,,18,33.6686111,44.3097222
`abd al majid,,18,33.6613889,44.3858333
`abd al manam,,06,32.6875,44.3463889
`abd al mannan,,06,32.6875,44.3463889
`abd al mazarah,,06,32.35,44.4166667
`abd al muhammad,,09,31.4833333,46.2
abd al muhsin as sa`ud,,12,32.6747222,44.1277778
`abd al muhsin ath tha`lab,,16,32.5722222,45.6008333
`abd al nu`mah,,04,31.9841667,44.5408333
`abd al qadir,,09,31.0666667,45.9
abd `alt,,04,31.7019444,45.0094444
`abd al tallaq,,04,31.6230556,45.0722222
`abd `alu al hilw,,01,33.4333333,44.1086111
`abd al wahhab,,14,31.7833333,47.2
abd al wahhab,,14,31.9488889,46.9066667
`abd al wahid,,04,31.9833333,45.4333333
`abd al wahid,,07,33.2722222,44.2780556
`abd al wahid,,09,31.495,46.1247222
`abd al wahid,,17,31.8511111,44.4436111
`abd al wahid shatnan,,17,31.8511111,44.4436111
`abd al wanas,,03,31.2277778,45.5469444
`abd al waras,,03,31.2277778,45.5469444
`abd al washih,,09,31.0166667,45.9833333
`abd amjid,,18,33.6613889,44.3858333
`abdan,,09,31.2,46.5333333
`abd ansif khalil,,10,33.9466667,45.205
ab darisat,,16,32.3833333,45.7
`abd ar rahman,,07,33.0833333,44.6
`abd ar rahman,,10,34.5841667,44.8630556
`abd ar rahman an naqib,,07,33.2544444,44.4808333
`abd ar razzaq,,18,34.0652778,44.1575
`abd ar razzaq al majia,,16,32.995,44.5808333
`abd ar razzaq bak as sa`dun,,16,32.1794444,45.9602778
`abd ar rida',,09,30.8733333,46.5447222
`abd ar rida,,14,31.9563889,46.9283333
`abd ar rida' muzhir,,12,32.525,44.1494444
`abd ar rida `ulaywi,,04,31.6383333,44.6980556
`abd ash shakhir,,06,32.2022222,44.65
`abd ash shukhair,,06,32.2022222,44.65
`abd ash shukhayr,,06,32.2022222,44.65
`abd as sahib hulayl,,09,31.4733333,46.1091667
`abd as sahib hulayyil,,09,31.4733333,46.1091667
`abd as salih,,01,33.4591667,43.0766667
`abd as sarkal,,06,32.3388889,44.3041667
`abd as sattar ash shatb,,10,33.65,45.0338889
`abd at tallak,,04,31.6230556,45.0722222
`abd at tallaq,,04,31.6230556,45.0722222
`abdaywi as salih,,10,33.9730556,44.4152778
abdayyar,,14,31.55,47.1833333
`abd hasan al kaza`,,01,33.4491667,44.3277778
`abd ibrahim,,01,33.4375,44.0672222
`abd ilyan,,02,30.4788889,47.8675
`abd khalaf,,09,31.3219444,46.1261111
`abd nur,,04,31.7783333,44.505
`abd salim shinafah,,12,32.6027778,44.1369444
`abd tahir,,09,30.8911111,46.6027778
`abdul `abbas,,06,32.3713889,44.4119444
abdul al `abhul,,07,33.0188889,44.5161111
ab dulan,,11,36.0380556,44.6294444
`abdul `aziz,,03,31.5058333,45.2366667
`abdul `aziz,,10,33.6333333,44.9833333
abdul-aziz,,18,33.5583333,44.3138889
`abdul aziz,,18,34.9283333,44.2302778
`abdul aziz hamad,,18,33.5583333,44.3138889
`abdul aziz hamadi,,18,33.5583333,44.3138889
`abdul bachi,,07,33.7333333,44.2833333
`abdul ghani,,09,30.9666667,46.2
abdul hadi,,16,32.6208333,45.5027778
abdul hadi beg,,16,32.1794444,45.9602778
abdul hamur,,14,31.8166667,47.1333333
abdul hasan,,14,31.6833333,47.1
`abdul hassun,,06,32.3425,44.4675
`abdul husain,,03,31.2838889,45.2791667
abdul husain,,09,31.3,46.1833333
abdul jabbar,,07,33.3166667,44.4833333
`abdul jabbar ghulam,,07,33.3166667,44.5333333
abdul jasim,,07,33.1,44.55
abdul karim,,04,32.0686111,45.3269444
abdul karim,,10,33.6125,44.3441667
`abdul karim ibn azzu,,06,32.4722222,44.1661111
abdul kasara,,10,33.9833333,44.6833333
abdulla,,09,30.9166667,46.4166667
`abdulla al ibaichi,,18,33.7672222,44.3802778
abdullah,,09,30.9166667,46.4166667
`abdullah,,10,34.055,44.8947222
`abdullah ad darwish,,10,33.6166667,44.7
`abdullah agha,,10,34.5333333,45.3
`abdullah al jabir,,10,33.4819444,44.4716667
`abdullah al jasim,,07,33.5,44.3
`abdullah al mandhur,,04,32.0919444,45.0886111
`abdullah al yasin,,16,32.08,45.9972222
`abdullah as salih,,10,33.55,44.4666667
abdullah beg,,10,34.4333333,45.3333333
`abdullah effendi,,10,33.9733333,44.71
`abdul latif al faras,,18,33.6686111,44.3097222
`abdul manan,,06,32.6875,44.3463889
abdul muhammad,,09,31.4833333,46.2
`abdul shakhir,,06,32.2022222,44.65
abdul wahab,,14,31.7833333,47.2
`abdul wahid,,07,33.2722222,44.2780556
abdul wahid,,09,31.495,46.1247222
`abdul wahid shatnan,,17,31.8511111,44.4436111
abdur radha,,14,31.9563889,46.9283333
abdur razaq al majid,,16,32.995,44.5808333
abdur ridha,,09,30.8733333,46.5447222
abhayayab,,14,32.1852778,46.7111111
abhiri,,15,35.6908333,42.1227778
`abid,,09,31.1513889,46.8933333
abid,,14,31.5666667,47.2666667
`abid `ali,,16,32.3391667,45.9361111
`abid as saddah,,06,32.3,44.6833333
`abid nur,,04,31.7783333,44.505
`abid zanad,,07,33.6,44.3
`abir al murhij,,06,32.2,44.6
`abis al lauh,,06,32.3833333,44.8666667
`abis al muluh,,06,32.3833333,44.8666667
ab jarad,,15,36.1166667,42.935
ablagh,,05,35.5511111,45.4166667
`abrah,,04,31.9713889,45.4066667
abruk,,10,33.55,45.45
`abtan,,14,31.635,47.1197222
abtar,,02,29.9222222,48.4866667
abtir,,15,36.4363889,42.7097222
abu ad daghil,,09,31.4,46.2166667
abu `ajaj,,09,30.8427778,46.6808333
abu `ajilah,,09,30.9333333,46.3666667
abu alaik,,10,34.5366667,44.8080556
abu al fadl,,04,32.0072222,44.875
abu al hayyah,,02,30.7633333,47.6361111
abu `alik,,10,34.5366667,44.8080556
abu al khamis,,10,33.8,44.5666667
abu al khasib,,02,30.4511111,47.985
abu al kurdi,,14,31.8,47.2
abu al muhammar,,02,30.6641667,47.6172222
abu al qurdi,,14,31.8,47.2
`abu al rida al hawas,,03,31.3652778,45.2280556
abu `ara'is,,15,36.0852778,43.0258333
abu `aris,,15,36.0852778,43.0258333
abu `arran,,02,31.0833333,47.4166667
abu `awai,,09,31.1141667,46.2425
abu `awdah,,09,31.3333333,46.3166667
abu `azi§im,,02,29.9761111,48.4130556
abu bakra,,05,36.3852778,45.0841667
abu balamah,,04,31.6991667,44.5683333
abu basal,,10,33.6525,44.4888889
abu bushayr,,02,30.5752778,47.7855556
abu chari,,14,31.5138889,47.2744444
abu chattaf,,14,32.4033333,46.7247222
abu chattat,,14,32.4033333,46.7247222
abu chaulan,,09,30.9586111,47.0805556
abu chawlan,,09,30.9586111,47.0805556
abu chazi,,14,31.5138889,47.2744444
abu chulun,,09,30.9586111,47.0805556
`abudah,,09,31.1363889,46.3869444
abu dakhkh,,16,32.5333333,45.5666667
`abud al `abhul,,07,33.0188889,44.5161111
`abud al marij,,04,31.65,44.65
abud as saiyid,,07,33.45,44.3
abu dhahab riyah,,17,31.8113889,44.5269444
abu dhakar,,14,31.4325,47.5561111
abu dhufr,,16,32.5333333,45.5666667
abu dhukh,,16,32.5333333,45.5666667
abudi,,14,31.4780556,47.33
abu diba`,,17,32.0491667,44.4541667
abu diflah,,02,30.8311111,47.5880556
abu dija`i,,07,33.2291667,44.1958333
abu dukhn,,16,32.5333333,45.5666667
abu dulu`,,06,32.475,44.2752778
abu farhiyah,,06,32.3266667,44.3013889
abu fishkah,,15,36.0497222,43.1272222
abu fulus,,02,29.9311111,48.5536111
abu gaddur,,15,36.3944444,42.7508333
abugassah,,13,35.3675,44.0525
abu gharab,,02,30.9488889,47.3366667
abu ghar,,03,30.4283333,46.1594444
abu gharaib,,01,33.2847222,43.9897222
abu gharaq,,06,32.4736111,44.3466667
abu gharaq ash sharqi,,06,32.4736111,44.3466667
abu gharb,,02,30.7802778,47.6297222
abu gharib,,09,31.1113889,46.0413889
abu ghazi,,14,31.5138889,47.2744444
abu ghirab,,14,32.3833333,47.35
abu ghraib farms,,01,33.3005556,44.2088889
abu ghurab,,14,32.3833333,47.35
abu ghuraib,,09,31.1113889,46.0413889
abu ghuraib,,18,34.5516667,44.5963889
abu ghurayb,,01,33.2847222,43.9897222
abu ghurayb,,18,34.5516667,44.5963889
abu gullar,,15,36.6716667,42.3319444
abu guraib,,18,34.5516667,44.5963889
abu hajarah,,15,36.5844444,42.2916667
abu hamadi al janubiyah,,09,30.8466667,46.5136111
abu hamadi ash shamaliyah,,09,30.8411111,46.5144444
abu hamzah,,09,31.7988889,46.0933333
abu hasawiyah,,10,33.9533333,44.8758333
abu hassawiya,,10,33.9533333,44.8758333
abu haswa,,01,33.6,42.8666667
abu haswah,,01,33.6,42.8666667
abu hayyah,,02,30.7633333,47.6361111
abu hidlan,,15,35.8688889,43.4269444
abu hilalah,,09,31.4833333,46.15
abu hubayl,,14,31.6666667,47.0333333
abu hujaira,,15,36.2125,42.8727778
abu hujayrah,,15,36.2125,42.8727778
abu imlaih,,14,31.3,47.3
abu `iqab,,02,30.1411111,48.3691667
abu jadda,,09,31.06,46.2216667
abu jaradi,,15,36.1166667,42.935
abu jard,,11,36.0833333,43.6
abujerd,,11,36.0833333,43.6
abu jidh',,18,34.54,43.1408333
abu jir,,01,33.2666667,42.8833333
abu jisra,,10,33.9166667,44.8166667
abu jisrah,,10,33.9166667,44.8166667
abu juwari,,15,36.2305556,43.1916667
abu kalhan,,02,30.5922222,47.6725
abu karma,,10,33.9169444,44.6683333
abu karmah,,10,33.9169444,44.6683333
abu kawlan,,09,30.9586111,47.0805556
abu khadir,,09,30.95,46.2
abu khadrawi,,02,30.1069444,48.3855556
abu kha'is,,04,32.1341667,45.0719444
abu khanazir,,10,33.8858333,44.7602778
abu kharjah,,13,35.5916667,44.0438889
abu khayis,,04,32.1341667,45.0719444
abu khulayf,,09,31.3641667,46.1469444
abu khurjah,,13,35.5916667,44.0438889
abu kufuf,,17,32.08,44.4952778
`abul fadhl,,04,32.0072222,44.875
abul haiya,,02,30.7633333,47.6361111
abul khasib,,02,30.4511111,47.985
abul qurdi,,14,31.8,47.2
abul uruj,,07,33.3833333,44.605
abu mahsuj,,04,31.6230556,45.0722222
abu malik,,02,30.6511111,47.67
abu maria,,15,36.4247222,42.6016667
abu mar`i,,01,33.5530556,44.0397222
abu mariyah,,15,36.4247222,42.6016667
abu masuj,,04,31.6230556,45.0722222
abu muhammad,,07,33.1666667,44.1166667
abu mujhim,,18,33.8833333,44.1166667
abu mustafa,,06,32.6613889,44.3269444
abu najm,,16,32.3944444,45.6
abu na±`mah,,16,32.3772222,45.6361111
abu namil,,01,33.6,42.8833333
abu naml,,01,33.6,42.8833333
abu narsi,,09,30.9666667,47.05
abu nujaim,,09,31.3833333,46.1166667
abu nujaym,,09,31.3833333,46.1166667
abu qarhah,,13,35.5916667,44.0438889
abu qattaf,,05,35.0833333,43.4916667
abu qissah,,13,35.3675,44.0525
abu rajash,,18,34.7877778,43.5625
abu rida al hawis,,03,31.3652778,45.2280556
abu rishah,,01,33.4672222,43.2233333
abu risyan,,10,33.4833333,45.25
abu riyah,,14,31.4333333,47.3666667
abu ruba,,14,31.4333333,47.3666667
abu rubah,,14,31.4333333,47.3666667
abu rumman,,16,32.6166667,46.05
abu sab`a,,10,33.9,44.7666667
abu sab`ah,,10,33.9,44.7666667
abu sabah,,14,31.7241667,47.02
abu sabaya,,09,30.9672222,47.1172222
abu sabayah,,09,30.9672222,47.1172222
abu sadda,,04,31.85,44.5333333
abu saddah,,04,31.85,44.5333333
abu saida,,10,33.9166667,44.7833333
abu saida as saghir,,10,33.9166667,44.7833333
abu saif,,15,36.2733333,43.1597222
abu sakhar,,02,30.8952778,47.2908333
abu sakhr,,02,30.8952778,47.2908333
abu salabikh,,09,30.85,46.3833333
abu salih,,14,31.5297222,47.2905556
abu salman,,14,31.6666667,47.05
abu samah,,09,31.0833333,46.0833333
abu samak,,01,34.1952778,42.7272222
abu samak,,09,30.8116667,46.6094444
abu sanam,,15,36.1783333,42.3222222
abu sawahim,,09,30.9377778,47.1908333
abu sawamin,,09,30.9377778,47.1908333
abu sawar sakhr,,04,31.8833333,44.8333333
abu saydah,,10,33.9166667,44.7833333
abu saydah as saghir,,10,33.9166667,44.7833333
abu sayyah,,06,32.9,44.2666667
abu shabbanah,,09,31.0833333,46.0666667
abu sha`ir,,14,31.8136111,47.4402778
abu shakhrah,,13,35.4302778,43.9863889
abu shamah,,09,31.0833333,46.0833333
abu shambalanah,,09,31.0833333,46.0666667
abu shambayanah,,09,31.0833333,46.0666667
abu shamsiyah,,06,32.8833333,44.2
abu sharibah,,02,31.2833333,47.3
abu shattaf,,14,32.4033333,46.7247222
abu shawar khanjar,,04,31.8833333,44.8333333
abu shawlan,,02,30.8455556,47.1638889
abu shawlan,,09,30.9586111,47.0805556
abu shifyat,,09,31.35,46.1166667
abu shifyat al mar`at,,09,31.35,46.1166667
abu shimbalana,,09,31.0833333,46.0666667
abu shujayr,,09,31.0333333,46.0666667
abu shujayrah,,09,31.0333333,46.0666667
abu shuwaiha,,15,36.2033333,42.9113889
abu shuwaiir,,02,30.9077778,46.925
abu shuwair,,02,30.9077778,46.925
abu shuwayhah,,15,36.2033333,42.9113889
abu shuway`ir,,02,30.9077778,46.925
abu shuwayr,,02,30.9077778,46.925
abu shuwayy,,15,36.2033333,42.9113889
abu shuwayyir,,02,30.9077778,46.925
abu silal,,02,30.4811111,47.8775
abu subah,,13,35.4833333,44.2166667
abu sukhair,,17,31.9086111,44.4836111
abu sukhayr,,17,31.9086111,44.4836111
abu sultan,,18,34.985,43.3352778
abu sumaich,,09,30.8116667,46.6094444
abu sumaych,,09,30.8116667,46.6094444
abu sumayj,,09,30.8116667,46.6094444
abu sumayk,,09,30.8116667,46.6094444
abu suwaymin,,09,30.9377778,47.1908333
abu tabikh,,03,31.6097222,45.0986111
abu tabikh,,04,31.6688889,45.0247222
abu tamr,,10,33.8875,44.5494444
abu tamur,,10,33.8875,44.5494444
abu taridah,,14,31.6166667,47.1
abu tibban,,01,33.5166667,43.0166667
abu tina,,10,33.7986111,44.8069444
abu tinah,,10,33.7986111,44.8069444
abu tufayjah,,06,32.35,44.2833333
abu tughara,,01,34.1994444,42.3697222
abu tugharah,,01,34.1994444,42.3697222
abu tughrah,,01,34.1994444,42.3697222
abu `urays,,15,36.0852778,43.0258333
abu `uruj,,07,33.3833333,44.605
abu `uruq,,07,33.3833333,44.605
abu wajnam,,15,36.6922222,42.6227778
abu wali,,15,36.6191667,42.4613889
abu winni hamzabbak,,15,36.6191667,42.4613889
abu yam,,04,32.085,45.1027778
abu yusuf,,09,31.1427778,46.2844444
abu zaid,,14,31.63,47.1997222
abuzawbah,,14,31.4483333,47.3730556
abu zayd,,14,31.63,47.1997222
abu zubaid,,14,31.6333333,47.1666667
abu zubayd,,14,31.6333333,47.1666667
abu zukhayr,,01,33.4547222,43.8461111
abu zulabah,,18,34.1408333,44.0152778
abu zurug,,09,31.0833333,46.6166667
abu zuruk,,09,31.0833333,46.6166667
abu zuwayd,,06,32.4416667,44.2202778
abu zuwayr,,15,35.0247222,42.7833333
abwab,,10,33.5097222,45.1016667
achanyak,,18,35.1622222,44.5975
adai al qadam,,09,31.0666667,45.9
adaim,,10,34.2666667,44.5166667
`adal al jubair,,14,31.55,47.1333333
`adal al jubayr,,14,31.55,47.1333333
adan,,08,37.2408333,43.2902778
`adatah,,09,30.9222222,46.5175
`aday,,09,31.4166667,46.2833333
`adayah,,15,36.2102778,42.7422222
`aday ash shahid,,09,31.4166667,46.2833333
`adayyah,,15,36.2102778,42.7422222
adchaych,,15,35.9452778,43.3183333
ad dabunah,,15,36.3891667,42.6608333
ad daghgharah,,04,32.1425,44.9327778
ad dahamiyah,,14,31.6,47.0333333
`add al `aziz,,03,31.5058333,45.2366667
ad darawish,,10,34.0727778,44.3144444
ad darisat,,16,32.3833333,45.7
ad dariyyan,,10,33.8352778,44.6522222
ad darraji,,03,31.1772222,45.7186111
ad dawali,,01,34.4333333,41.9833333
ad dawib,,02,30.2619444,48.3247222
ad dawir,,02,30.2619444,48.3247222
ad dawr,,18,34.4575,43.7988889
ad dawrah,,02,30.1494444,48.3669444
ad dawrah,,07,33.2513889,44.3919444
ad dawudiyah,,10,33.5438889,44.3525
ad dawwayah,,09,31.495,46.3783333
`adday,,10,33.6344444,45.0780556
ad dayr,,02,30.7966667,47.5777778
ad dirnaj,,15,36.3102778,42.9241667
ad diwania,,04,31.9877778,44.9255556
ad diwaniya,,04,31.9877778,44.9255556
ad diwaniyah,,04,31.9877778,44.9255556
ad-dora,,07,33.2513889,44.3919444
ad du`ayji,,02,30.4883333,48.0019444
ad dujayl,,18,33.8466667,44.2344444
ad dulaimiya,,01,33.4166667,43.95
ad dulu`iyah,,18,34.0572222,44.2155556
ad durah,,02,30.1494444,48.3669444
ad duwaybi,,02,30.1061111,48.3891667
adhamiya,,07,33.3841667,44.3794444
adhatah,,09,30.9222222,46.5175
adhba,,15,36.2166667,43.1
`adhbah,,15,36.2166667,43.1
adh dhawb,,14,31.3788889,47.2730556
adhilir,,14,31.5333333,47.1833333
`adi al qadam,,09,31.0666667,45.8833333
`adin,,03,29.7138889,45.8361111
`afak,,04,32.0625,45.2427778
afandiya,,06,32.75,44.2833333
afaq,,04,32.0625,45.2427778
afarma,,08,37.1313889,42.6586111
`affan,,16,32.9019444,44.5727778
`afif khalaf,,06,32.6769444,44.3213889
`afi khalaf,,06,32.6769444,44.3213889
afikni,,15,36.4847222,42.4241667
afkhan,,08,36.9325,42.5763889
afriyan,,11,36.5997222,44.2916667
afshan,,09,31.55,46.0166667
`afy khalaf,,06,32.6769444,44.3213889
afzarok,,08,37.0197222,42.5091667
agamhuiah,,06,32.2555556,44.3388889
agar zheri,,08,37.2538889,43.1602778
aggar,,16,32.0666667,46.0833333
aghajah mashad,,18,35.0461111,44.5997222
aghaj masbad,,18,35.0461111,44.5997222
aghriv al islamiyah,,01,34.2497222,42.3475
agjlar,,05,35.75,44.9
ahad majid,,10,33.7833333,44.7333333
ahal ghidhab,,18,34.0666667,44.0166667
ahid al mujatam,,06,32.1722222,44.3794444
ahl al azair,,14,31.3833333,47.4
ahl al gharir,,14,31.3833333,47.4
ahl al `uzayr,,14,31.3833333,47.4
ahl ghadab,,18,34.0666667,44.0166667
ahmad `abd al `ali,,10,34.2,45.05
ahmad `abdul `ali,,10,34.2,45.05
ahmad ad daydal,,06,33.2047222,44.3183333
ahmad,,10,34.0075,44.9772222
ahmad al `ali,,18,33.7211111,44.4161111
ahmad al `alwan,,09,33.4877778,44.3116667
ahmad al hamadi,,01,33.4830556,44.3008333
ahmad al hamadi,,06,33.0763889,44.1002778
ahmad al hamadi,,10,34.0075,44.9772222
ahmad al hamdush,,18,34.1108333,44.1491667
ahmad al hammadi,,10,34.0075,44.9772222
ahmad al haq,,10,34.3327778,45.0111111
ahmad al haqq,,10,34.3327778,45.0111111
ahmad al hasan,,07,33.45,44.3
ahmad al hasan,,18,34.2,43.85
ahmad al husain,,01,33.5333333,44.1122222
ahmad al husayn,,01,33.5333333,44.1122222
ahmad `ali,,18,33.7211111,44.4161111
ahmad al khamis,,14,31.7166667,47.15
ahmad al mahmud,,07,33.6333333,44.4
ahmad al yasin,,10,33.5166667,44.8166667
ahmadan,,05,36.2272222,45.15
ahmad as suhayl,,10,33.5158333,44.6497222
ahmadawa,,05,35.2736111,45.6230556
ahmad awah,,05,35.2736111,45.6230556
ahmad bayk,,10,34.35,45.3333333
ahmad beg,,10,34.35,45.3333333
ahmad birinda,,05,35.2286111,45.7438889
ahmad birindah,,05,35.2286111,45.7438889
ahmad birindah birind,,05,35.2286111,45.7438889
ahmad fadil,,06,32.9663889,44.1833333
ahmad farhan,,06,33.1825,44.1805556
ahmad ghajar,,07,33.2088889,44.3544444
ahmad hammadi,,10,34.0075,44.9772222
ahmad jamil,,18,33.6013889,44.3277778
ahmad kulwan,,05,35.6316667,45.89
ahmad lawand,,05,35.4780556,45.0427778
ahmad majid,,10,33.7833333,44.7333333
ahmad shajri,,04,32.0736111,45.1836111
ahmad thiab,,10,33.6666667,44.8833333
ahmad thiyab,,10,33.6666667,44.8833333
ahrinah,,05,35.2536111,45.0402778
ahsam,,02,30.9666667,47.3833333
ahwaiwi,,01,33.3772222,43.6283333
ahwiz,,18,33.5975,44.3363889
aifan bin tanuh,,03,31.4166667,45.35
ai halfayah,,14,31.8247222,47.4377778
`ain baida,,15,36.4166667,42.6166667
`ain bu wadlan,,15,35.8688889,43.4269444
`ain dakhnah,,12,32.55,43.7666667
`ain faris,,10,34.5033333,44.8875
ain lailin,,10,34.2897222,44.7672222
`ain marmiyah,,15,35.8333333,43.3833333
ain nuni,,08,37.2266667,43.4386111
`ain samak,,10,34.1666667,45.2833333
ain sharid,,15,36.0488889,42.9033333
`ain shukur,,10,34.5841667,44.8630556
`ain shukur saghir,,10,34.5333333,44.9
ain sifni,,15,36.6955556,43.3488889
`ain sind,,15,36.3647222,42.1547222
ain zala,,15,36.7202778,42.5580556
`ain zalah,,15,36.7202778,42.5580556
`ain zazu,,01,33.5333333,42.5666667
`ajaji,,18,35.0263889,43.5647222
`ajal as salim,,01,33.4588889,43.3466667
`ajam,,03,31.4141667,45.15
`ajil,,09,31.2052778,46.1947222
`ajil al bashi,,16,32.4666667,45.6333333
`ajil al huwayz,,09,30.9655556,46.5205556
ajil ar radhan,,09,31.5638889,46.1272222
`ajil ar radnan,,09,31.5638889,46.1272222
`ajil ar rawdan,,09,31.5638889,46.1272222
`ajil ash shahir,,06,32.6833333,44.1833333
`ajil at tarbush,,09,31.2052778,46.1947222
`ajil at tawili,,09,31.0147222,46.2305556
`ajil at tuwaili,,09,31.0147222,46.2305556
`ajil at tuwayli,,09,31.0147222,46.2305556
ajjassam,,02,30.9666667,47.3833333
ajqal`ah,,15,36.35,43.5666667
ajrab,,07,33.3333333,44.8666667
ajran,,04,32.1097222,45.265
ajsam,,02,30.9666667,47.3833333
ajundak,,08,37.0,42.9333333
`akaika,,09,30.9158333,46.4761111
akaika,,09,30.95,46.5166667
akhawat razanah,,02,30.5,47.8
akhjir,,10,34.2536111,45.215
akhurah,,11,36.0472222,44.3161111
akika,,11,37.1675,44.2058333
akjij,,15,35.9513889,43.2969444
akkar,,16,32.0666667,46.0833333
akmalah,,08,37.075,42.9708333
akoyan,,11,36.5583333,44.5530556
akre,,15,36.7591667,43.8938889
`aks al nasir,,03,31.6333333,45.0666667
aks an nasir,,03,31.6333333,45.0666667
`akubah,,01,33.5291667,42.9194444
akul katishi,,11,35.6208333,43.5858333
akuyan,,11,36.5583333,44.5530556
akwam nasir,,03,31.3361111,45.4077778
`ala ad din afandi,,06,32.75,44.2833333
al abayachi,,18,33.7405556,44.2802778
al `abbas,,17,32.1588889,44.3658333
al `abbasiyah,,17,32.0788889,44.4430556
al `abbasiyat,,04,31.9419444,44.8508333
al `abbudah,,04,31.6938889,44.5144444
al `abbud,,04,31.9055556,44.9647222
al `abd allah,,04,31.95,45.3166667
al `abid,,09,31.0,46.5
alabja,,05,35.1777778,45.9861111
al abtakh,,15,36.7102778,42.0286111
al `abtan al khuza`i,,04,31.9672222,44.6875
al `abtaniyah,,04,31.8997222,44.5972222
al `abtiyah,,03,29.4336111,45.9305556
aladd khan,,03,31.5466667,45.2997222
al `addusiyah,,17,31.8472222,44.5327778
al `adiah,,15,36.0261111,43.4069444
al `adiyah,,15,36.0261111,43.4069444
al adla,,15,36.0261111,43.4069444
al `adlah,,15,36.0261111,43.4069444
al `adl,,02,31.2497222,47.3294444
al `adl,,14,31.7472222,47.1116667
al `adyah,,15,36.0261111,43.4069444
al afandiya,,06,32.75,44.2833333
al afandiyah,,06,32.75,44.2833333
ala ghair saiyid ahmad,,13,35.5733333,43.9702778
al aghar,,09,31.0166667,46.55
al ahmar,,14,31.3833333,47.2833333
al ahrar,,16,32.5,46.6166667
al ailah,,14,31.5908333,47.1569444
al `airan,,04,32.1097222,45.265
al `aiwah,,14,31.075,47.4241667
alaiwi,,01,32.65,44.2
alaiwi,,14,31.5166667,47.2
al aiwis,,14,31.4333333,47.3166667
alaja,,11,36.0475,44.1511111
al aj jabur,,17,31.8833333,44.4166667
al `ajjamiyah,,01,34.4872222,41.6191667
al `ajran,,04,32.1097222,45.265
alak,,03,31.6208333,45.0858333
alak,,05,35.7577778,45.6177778
al `akar al kabir,,14,31.3175,47.0863889
al akhbawiyah,,17,32.1166667,44.4666667
alakina,,15,36.9927778,43.0216667
al `akl,,09,30.8694444,46.5663889
al akwat,,02,30.4983333,47.9061111
al al `afalijah,,04,31.9566667,44.9619444
alalah,,05,35.93,44.8727778
al `alam,,18,34.6447222,43.7
al `ali,,02,30.5766667,47.7547222
al `ali,,10,34.0427778,44.9594444
alalil fatil,,18,35.2166667,44.1833333
al al jabur,,17,31.8833333,44.4166667
al al munbatah,,17,31.8833333,44.4666667
al al munbatih,,17,31.8833333,44.4666667
`al `alwah,,14,31.4666667,47.35
al `alwiyah,,07,33.3,44.4333333
al `amadiyah,,08,37.0933333,43.4872222
alam,,18,34.6447222,43.7
al `amarah,,14,31.7166667,47.1
`alam baddah,,13,34.8336111,44.035
al `amir,,09,31.3666667,46.4833333
al amir,,16,32.4166667,45.6166667
al `amiriyah,,01,33.1969444,43.9141667
al`amiriyah,,01,33.2958333,44.3002778
al amiriyah,,10,33.6702778,44.5405556
al amlah,,15,36.6416667,42.4472222
al `ammari,,01,34.4686111,41.4377778
al amrini,,15,36.1575,42.9722222
al `amriyah,,01,34.4830556,41.8947222
al amtahiyah,,02,30.4841667,47.8327778
al amzugah,,06,32.2680556,44.3130556
alana,,11,36.5425,44.4425
al `ana fasa,,18,33.5044444,44.3194444
al `anafisah,,18,33.5044444,44.3194444
alan,,05,35.2897222,45.775
al `anbari,,02,30.6372222,47.7491667
al `anbariyin,,06,33.0544444,44.2119444
alan goristan-i daudi,,05,36.2172222,45.1683333
alanish,,08,37.2938889,42.8716667
al `ankushi,,04,31.9830556,44.5611111
al `aqar al kabir,,14,31.3175,47.0863889
al `aqrama,,09,31.2166667,46.4666667
al aqub,,14,31.35,47.5166667
al `arajib,,06,32.4513889,44.4402778
al `aridah,,09,30.8116667,46.6094444
al `arid,,14,31.55,47.0166667
al aridh,,14,31.55,47.0166667
al `ariz,,14,31.55,46.9833333
al `asaf,,09,31.2997222,46.5183333
al `asakirah,,09,31.0002778,46.3608333
al `asf,,09,31.2997222,46.5183333
al`asharah,,06,32.4794444,44.2019444
al `ashar,,02,30.5183333,47.8402778
al `ashiq,,15,36.4475,42.6625
al `ashshar,,02,30.5183333,47.8402778
al ash shatab,,10,33.75,44.7666667
al `asi,,08,37.1697222,42.8283333
alasian,,05,35.5980556,45.5555556
alasiyaw,,05,35.5980556,45.5555556
al `asriyah,,06,32.8838889,44.3841667
al `assaf,,09,31.2752778,46.4886111
al asyan,,05,35.5980556,45.5555556
al `ata',,04,31.9319444,44.9027778
al `ata'ij,,06,32.4547222,44.4486111
al audah,,14,31.5833333,47.05
alawa,,05,36.1994444,45.2141667
alawa,,11,36.3013889,44.3361111
al `awad,,09,31.1297222,45.8652778
al `awafi ash sharqiyah,,01,34.4686111,41.74
al`awaqilah,,18,34.7888889,43.3838889
al `awdah,,14,31.5833333,47.05
`alawi `abd al khalaf,,01,33.3666667,43.6333333
`alawi,,02,30.6333333,47.4
`alawi,,06,32.35,44.35
alawi al-hilla,,07,33.3333333,44.3833333
`alawi al hillah,,07,33.3333333,44.3833333
al `awja',,18,34.5333333,43.7333333
al `awjah,,02,30.4383333,47.9694444
al `awjah,,15,35.9783333,43.0311111
alawkah,,08,36.8391667,42.92
al `awwad,,09,31.1297222,45.8652778
`alayan-i alkubri,,05,34.9566667,45.1005556
alayan-i assaghri,,05,34.915,45.0761111
`alayan-i gawra,,05,34.9566667,45.1005556
alayan-i pichuk,,05,34.915,45.0761111
al `aylah,,14,31.4316667,47.2477778
al `ayn,,04,31.9319444,44.5938889
`alaywi,,12,32.6441667,44.2063889
al `ayyash,,04,31.5836111,44.8108333
al azair,,14,31.3352778,47.4213889
al `azariyah,,15,36.6583333,42.5316667
al a`zi§amiyah,,02,30.4763889,47.8386111
al a`zi§amiyah,,07,33.3841667,44.3794444
al `azir,,14,31.3352778,47.4213889
al `aziz,,09,31.3166667,46.4
al `aziziya,,16,32.9083333,45.0666667
al `aziziyah,,16,32.9083333,45.0666667
al azrakiyah,,01,33.3455556,43.7380556
al ba`aja,,14,31.3166667,47.1666667
al badi,,15,35.9255556,41.5522222
al badr,,09,31.1033333,46.0705556
al badran,,02,30.585,47.7608333
al baghdadi,,01,33.8525,42.5475
al baghdadiyah,,16,32.9666667,44.8666667
al baidhah,,14,31.3666667,47.5333333
al ba`jah,,14,31.3166667,47.1666667
albaljaniya,,02,30.4383333,48.0716667
al baljaniyah,,02,30.4383333,48.0716667
al banawad,,03,31.1166667,45.85
al banawid,,03,31.1166667,45.85
al baq`a,,09,31.3197222,46.5125
al baqah,,09,31.3197222,46.5125
al baqqah,,09,31.3197222,46.5125
al baradi`iyah,,02,30.5027778,47.8525
albarbauh,,14,31.7522222,47.0530556
al barbaw,,14,31.7522222,47.0530556
al barbu,,14,31.7522222,47.0530556
al barit,,15,35.4025,42.6313889
al barjisiyah,,02,30.35,47.5666667
al barkhiyah,,01,34.4508333,41.6744444
al basrah,,02,30.4941667,47.8191667
al basrah al qadimah,,02,30.4955556,47.8175
al bassah,,09,30.8666667,46.45
al batabitsh,,14,31.4672222,47.3572222
al batha',,09,31.1222222,45.875
al bathah,,09,31.1222222,45.875
al battah,,04,31.9808333,44.7394444
al bawadish,,10,33.6497222,44.6958333
al bawtah ash sharqiyah,,15,36.0069444,42.5216667
al baydah,,14,31.3666667,47.5333333
al bayya`,,06,33.27,44.3494444
al bazrakan,,01,33.3238889,44.1238889
al bdair,,04,31.9713889,45.4066667
al bi`aj,,15,36.0425,41.7152778
al bid`ah,,05,31.4522222,46.1702778
al binakani as sadr,,10,33.9669444,44.9602778
al bi'r,,10,33.4794444,44.4872222
al bithij,,09,30.9016667,46.6536111
albu -affah,,18,34.0333333,43.9833333
albu aish,,09,30.98,46.7830556
albu `ajil,,06,33.025,44.4219444
albu `ali,,14,31.5069444,47.1261111
albu `ali,,18,34.8166667,43.5833333
albu `ali al fayyad,,01,33.4233333,43.635
albu `alik,,10,34.5366667,44.8080556
albu `alwan,,01,33.4425,44.0208333
albu `amir,,06,33.1316667,44.1877778
albu `amir,,09,33.4863889,44.3491667
albu `ansah,,06,33.4658333,44.0938889
albu `ayshah,,01,33.4713889,43.3766667
albu `aysh,,09,30.98,46.7830556
al bu azairij,,09,30.8427778,46.6808333
albu bakri,,06,32.4816667,44.4855556
albu bali,,01,33.4502778,43.4722222
albu bani,,01,33.4502778,43.4722222
albu birghuth,,09,33.4094444,44.3377778
al bubiya,,01,34.4577778,41.3383333
al bubiyah,,01,34.4577778,41.3383333
al bu bulaisim,,14,31.3833333,47.5333333
albu bulaysim,,14,31.3833333,47.5333333
albu chamil,,09,31.4,46.0666667
albu chulaif,,09,31.3641667,46.1469444
al budair,,04,31.9713889,45.4066667
al budayr,,04,31.9713889,45.4066667
albu dhahir,,18,33.6158333,44.3380556
albu dhiyab,,01,33.4941667,43.2838889
al budur,,09,31.3,46.05
albu fahd,,01,33.4613889,43.4025
albu faraj,,01,33.4508333,43.3002778
albu faris,,06,32.6030556,44.2375
albu ghannam,,10,34.6861111,44.76
albu gharib,,09,31.1113889,46.0413889
albu ghassaf,,18,34.0994444,43.0244444
al bughaylah,,16,32.5602778,45.4027778
albu ghizlan,,01,33.4733333,43.4280556
albu hamdan,,01,33.3433333,44.1066667
albu hamdan,,06,33.1194444,44.4311111
albu hamdan,,09,30.8311111,46.5236111
al bu hammud,,04,31.6227778,44.6663889
albu hamza,,09,31.7988889,46.0933333
albu hamzah,,01,33.4452778,43.3794444
albu hamzah,,09,31.7988889,46.0933333
al bu hardan,,01,34.3961111,41.0805556
albu hasan,,18,34.7872222,44.5897222
albu hassan,,18,33.9677778,44.3844444
albu hawalah,,09,31.1666667,46.2166667
al bu hayyat,,01,34.4833333,41.5333333
albu hilala,,09,31.4833333,46.15
albu hilalah,,09,31.4833333,46.15
al bu hubail,,14,31.6666667,47.0333333
albu hubayl,,14,31.6666667,47.0333333
albu humaira,,09,31.1166667,46.2
albu humayrah,,09,31.1166667,46.2
albu `isa,,01,33.3663889,44.0663889
albu jadidah,,06,32.6172222,44.2413889
albu jamil,,09,31.4,46.0666667
albu jum`ah,,09,31.1013889,46.3727778
albu juwari,,15,36.2305556,43.1916667
albu kamil,,09,31.4,46.0666667
albu kan`an,,01,33.445,43.4627778
albu karadi,,09,31.0841667,46.3483333
albu khalaf,,09,31.3641667,46.1469444
albu khalid,,06,32.35,44.55
albu khalifah,,09,30.9005556,46.6558333
albu khalil,,01,33.4186111,43.4827778
albu khulayf,,09,31.3641667,46.1469444
albu khulayyif,,09,31.3641667,46.1469444
albu kuraydi,,09,31.0841667,46.3483333
albu mafraj,,18,35.1333333,44.3833333
albu mahi,,06,33.1133333,44.2888889
albu malih,,14,31.3,47.3
albu mar`i,,01,33.5530556,44.0397222
albu matar,,04,31.8391667,44.9041667
albu mufraj,,18,35.1333333,44.3833333
albu muhawish,,06,32.5558333,44.2333333
albu muhaysin,,06,32.4166667,44.3
albu musad,,02,31.2,47.45
albu mustafa,,06,32.6613889,44.3269444
albu najm,,18,34.9894444,44.4147222
albu na±`mah,,16,32.3772222,45.6361111
albu nasir,,01,33.4241667,43.4744444
al bunawad,,03,31.1166667,45.85
albu n`ima,,16,32.3772222,45.6361111
albu nimr,,01,33.4897222,43.0694444
albu nisf,,09,31.4666667,46.0166667
al bunud,,03,31.1166667,45.85
albu nusf,,09,31.4666667,46.0166667
al bunyah al janubiyah,,15,35.3,42.7833333
al buq`ah,,09,31.3197222,46.5125
al bu radha,,18,34.7394444,44.5494444
al bu radho,,18,34.7394444,44.5494444
albu ramzah,,09,31.7988889,46.0933333
albu rashid,,01,33.4416667,43.4680556
albu rida',,18,34.7394444,44.5494444
albu ridan,,18,34.7394444,44.5494444
albu rishah,,01,33.4672222,43.2233333
albu saba,,18,34.8944444,44.3125
albu sabah,,18,34.8944444,44.3125
al bu sabbah,,18,34.9333333,44.5513889
albu salih,,04,31.7213889,44.8855556
albu salih,,09,30.9502778,46.5908333
albu salmah,,14,31.45,47.25
albu sanwan,,14,31.8,47.0833333
albu saraj,,18,34.9833333,44.4
albu sayf,,15,36.2733333,43.1597222
al busayyah,,03,30.1133333,46.1088889
al bushamah,,09,31.0336111,46.9658333
albu shuaikh,,02,30.8666667,47.5333333
albu shujayrah,,09,31.0333333,46.0666667
albu shukhayr,,09,30.9122222,46.6961111
albu shukur,,18,33.9941667,44.3472222
albu shuwaykh,,02,30.8666667,47.5333333
albu sinwan,,14,31.8,47.0833333
albu siraj,,18,34.9833333,44.4
albu subah,,13,35.4833333,44.2166667
albu subbar,,01,33.4755556,43.22
albu sulaymah,,14,31.45,47.25
albu sulayman,,01,33.4677778,43.4072222
albu surdi,,06,32.5838889,44.2791667
albu su`ud,,06,32.7397222,44.3025
albu suway`id,,04,31.6527778,44.6952778
albu talhah,,18,34.5394444,44.4933333
albu tarfa,,09,31.45,46.0166667
albu tarfah,,09,31.45,46.0166667
albu `ubayd,,01,33.4777778,43.4525
albu `uwaid,,09,31.1141667,46.2425
albu `uwayd,,09,31.1141667,46.2425
albu uzayrij,,09,30.8427778,46.6808333
albu ward,,15,36.6025,42.1780556
al buwayr,,15,36.4225,42.7691667
al buwaytah,,15,36.1244444,42.5175
al buwaytir,,13,35.4336111,44.1425
albu yusuf,,09,31.1427778,46.2844444
albu zarqah,,04,31.9625,44.8136111
albu zayd,,14,31.5022222,47.2475
albu zi§ahir,,18,33.6158333,44.3380556
albu zuwaid,,06,32.4416667,44.2202778
al chabaish,,09,30.9672222,47.0138889
al chabash,,09,31.4619444,45.9491667
al chamcha,,03,31.4283333,45.1122222
al charshalu,,13,35.2530556,43.5833333
al chifchafa,,06,32.8183333,44.3838889
al dakhil,,09,30.9388889,46.5672222
al dawaya,,09,31.495,46.3783333
al diwaya,,09,31.495,46.3783333
al dulakh,,03,31.2166667,45.55
ale,,11,37.15,43.7063889
al-emjarin,,10,34.0808333,44.9169444
al fadhil,,01,33.4180556,43.4797222
al fadl allah,,04,32.0386111,45.0797222
al fahd,,16,32.0333333,45.9666667
al fahd bash,,16,32.0333333,45.9666667
al-faisaliya,,15,36.3547222,43.1805556
al fajr,,09,31.9180556,45.9502778
al falluja,,01,33.3561111,43.7827778
al fallujah,,01,33.3561111,43.7827778
al faqqah,,10,34.5230556,44.9202778
al farashah,,01,33.3727778,44.1652778
al farhud,,09,30.9411111,46.5658333
al fartus,,04,31.6580556,44.6591667
al fartus,,14,31.49,47.1133333
al faruq,,09,33.4041667,44.3716667
al fasam,,09,31.3230556,46.4558333
al fasim,,09,31.3230556,46.4558333
((al fathah)),,01,34.2858333,42.2458333
al fatsah,,15,36.0552778,42.6161111
al fatsi,,15,36.0552778,42.6161111
al-fauwaliyah,,10,33.9686111,44.4016667
al faw,,02,29.9680556,48.4672222
al fawwaliyah,,10,33.9686111,44.4016667
al fawwar,,04,32.1,45.1166667
al faysaliyah,,02,30.5166667,47.7833333
al faysaliyah,,15,36.3547222,43.1805556
al faysaliyah,,16,32.4869444,45.7994444
al faysaliyah,,17,31.8016667,44.4902778
al firdaws,,07,33.2963889,44.2925
al fudaydah,,02,30.2677778,48.3188889
((al fuhaymi)),,01,34.2747222,42.1580556
al fuhud,,09,30.9697222,46.7227778
al fulays,,06,32.4363889,44.4475
al furaijat,,14,31.55,47.3833333
al furayj,,09,31.1186111,46.8711111
al furayjat,,14,31.55,47.3833333
al fursan,,01,33.4475,43.4427778
al fursi,,02,30.5063889,47.8316667
algair,,13,35.3233333,44.095
algana,,15,36.675,42.1247222
`alganah,,15,36.675,42.1247222
al garyan,,02,30.1833333,47.6666667
al gayr,,13,35.3233333,44.095
al ghaduri,,04,31.9555556,44.5361111
al ghalibiyah,,10,33.7366667,44.4816667
al ghammas,,04,31.7352778,44.6075
al ghana'im,,04,32.1,44.9333333
al gharib,,16,32.0997222,45.8519444
al gharraf,,09,31.3,46.2461111
al ghayf,,16,32.7833333,45.15
al ghazali,,04,31.6733333,44.5602778
al ghazlan,,17,31.6861111,44.5113889
al ghazzal,,02,30.4336111,47.9666667
al ghizlan,,17,31.6861111,44.5113889
al ghubayshiyah,,09,30.7166667,47.0833333
al ghuwayshiyah,,16,32.6666667,45.25
al ghuzayliyah,,10,33.6783333,44.3466667
al ghzailiyah,,10,33.6783333,44.3466667
algosh,,15,36.7352778,43.0963889
al gubbab,,14,31.3672222,47.1802778
al gubur,,02,31.2666667,47.2333333
al guraitiya,,02,30.2833333,47.6
al gutnah,,06,32.4258333,44.3130556
al guwayr,,11,36.0477778,43.4955556
al habbaniya,,01,33.3819444,43.5772222
al habbaniyah,,01,33.3819444,43.5772222
al habbariyah,,12,32.2833333,42.2097222
al habsh,,04,31.8608333,44.6013889
al hadar,,01,34.4666667,41.9666667
al hadhra,,15,35.9469444,43.3175
al hadhr,,15,35.5711111,42.7322222
al hadithah,,01,34.1397222,42.3780556
al hadrah,,15,35.9469444,43.3175
al hadr,,15,35.5711111,42.7322222
al hafaniya,,14,31.8666667,46.8666667
al hafaniyah,,14,31.8666667,46.8666667
al hafidh,,03,31.2833333,45.4833333
al hafizi§,,03,31.2833333,45.4833333
al haflawiyah,,17,31.8358333,44.5136111
al hafriyah,,16,32.9830556,44.8333333
al haj `alawi,,04,31.8166667,44.95
al haj `ali,,04,32.1991667,44.8847222
al haj `ali,,10,33.9161111,44.6475
al haj `ashur,,02,30.1102778,48.3822222
al haj `athith,,09,31.0058333,46.1588889
al haj `awad,,03,31.3097222,45.3797222
al haj farhan,,04,32.05,44.5608333
al haj hattab,,14,31.4666667,47.1833333
al haj husayn,,09,31.1472222,46.4144444
al haji khalid,,09,30.9666667,46.7333333
al haj `isa,,06,32.2141667,44.7597222
al hajj `abbas an nasif,,01,33.4877778,44.3038889
al hajj `abd as sayyid,,06,32.3333333,44.3166667
al hajj `alawi wa mahdi,,04,31.8166667,44.95
al hajjam albu `uwayd,,09,30.9036111,46.5458333
al hajj ashur,,02,30.1144444,48.3783333
al hajj `athith,,09,31.0058333,46.1588889
al hajj `awwad,,03,31.3097222,45.3797222
al hajj `azay,,04,31.8166667,44.95
al hajj farah,,01,33.4686111,44.0080556
al hajj farhan,,04,32.05,44.5608333
al hajj hasan,,06,32.45,44.3333333
al hajj hattab,,14,31.4666667,47.1833333
al hajj husayn,,06,32.5952778,44.4038889
al hajj husayn,,09,31.1472222,46.4144444
al hajj ja`far,,06,33.1652778,44.3638889
al hajj jasim,,01,33.1947222,44.3097222
al hajj jasim,,17,31.9166667,44.4666667
al hajj kazi§im,,06,32.6763889,43.9480556
al hajj khalid,,09,30.9666667,46.7333333
al hajj mahdi al `ubayd,,03,31.2,45.55
al hajj mahmud,,02,30.1527778,48.3875
al hajj radi,,04,32.1488889,44.8105556
al hajj ramzi,,09,31.0,46.1333333
al hajj ruhayt,,04,31.8838889,44.8822222
al hajj ru`uf shalash,,17,31.7458333,44.4569444
al hajj sahn,,16,32.4344444,45.5830556
al hajj sulayman ad dari,,01,33.2913889,44.0652778
al hajj sulayman,,01,33.3536111,44.0452778
al hajj talal `ali,,06,33.0247222,44.4344444
al hajj `ubayd,,06,33.1547222,44.4736111
alhaj kadhim,,06,32.6763889,43.9480556
al haj mahdial abid,,03,31.2,45.55
al haj mahdi,,06,32.3183333,44.4319444
al haj muhammad,,10,34.0075,44.7161111
al haj radhi,,04,32.1488889,44.8105556
al haj radi,,04,32.1488889,44.8105556
al haj ramdi,,09,31.0,46.1333333
al haj salim,,04,31.6841667,44.5786111
al haj shan,,16,32.4344444,45.5830556
al haj `ubayd,,06,33.1547222,44.4736111
al haj `ulwan,,17,31.9,44.35
al halfayah,,14,31.8247222,47.4377778
al halla,,02,31.0880556,47.4394444
al hallah,,02,31.0880556,47.4394444
al hamasah,,09,31.1333333,46.5833333
al hamdaniyah,,15,36.2694444,43.3772222
al hamishah,,16,32.3477778,45.8030556
al hamish,,09,30.9002778,46.5383333
al hammar,,09,30.9558333,46.8477778
al hamra',,07,33.3011111,44.3144444
al hamra,,09,31.1727778,46.4427778
al hamrah,,09,31.1727778,46.4427778
al hamran,,09,31.1727778,46.4427778
al ham sha,,16,32.3477778,45.8030556
al hamshah,,16,32.3477778,45.8030556
al hamza,,04,32.0833333,45.2666667
al hamzah,,04,31.7244444,44.9769444
al haqlaniyah,,01,34.0888889,42.3605556
al harari,,17,31.7316667,44.5388889
al harb,,09,30.9127778,46.6730556
al harithah,,02,30.5822222,47.7841667
al harithiyah,,07,33.3,44.35
al harrah,,02,31.0666667,47.4166667
al harrah,,14,31.3808333,47.5272222
al harthah,,02,30.5822222,47.7841667
al harthiyah,,07,33.3,44.35
al haryah,,04,32.1,44.55
al hasan,,09,31.0666667,46.4333333
al hasan,,14,31.7333333,47.2166667
al hasan,,18,34.635,43.7202778
al hasasira,,09,31.0686111,46.4427778
al hasasirah,,09,31.0686111,46.4427778
al hashimiyah,,06,32.3672222,44.6575
al hasirah,,09,31.0686111,46.4427778
al haswah,,06,32.8777778,44.3872222
al hatim,,09,31.4111111,46.0833333
al hawafizi§,,02,30.8516667,47.5566667
al hawd,,15,35.8636111,43.2983333
al hawi,,09,31.3944444,46.1844444
al hawr,,01,33.4133333,44.1719444
al hawsah,,09,31.0747222,46.9147222
al haws,,15,35.8636111,43.2983333
al hawtah,,02,30.66,47.7663889
al hay,,16,32.1769444,46.0447222
al hayrah,,17,31.8872222,44.4802778
al hayy,,16,32.1769444,46.0447222
al hayy al markazi,,02,30.5458333,47.7733333
al hayyaniyah,,02,30.5058333,47.77
al haza`,,18,34.9502778,43.3455556
al hillah,,06,32.4794444,44.4327778
al hindiyah,,06,32.5433333,44.2225
al hirah,,17,31.8872222,44.4802778
al hubaysah,,14,31.9313889,47.1691667
al hudayd,,10,33.7669444,44.5602778
al hugnah,,15,36.5622222,42.5552778
al hulaichiyah,,14,31.3166667,47.5
al hulaishiyah,,14,31.3333333,47.5166667
al hulayshiyah,,14,31.3333333,47.5166667
al hulfayah,,10,33.5836111,44.5511111
al humaydat,,04,31.9666667,44.6166667
al humayrah,,14,31.5347222,47.0108333
al huqnah,,15,36.5622222,42.5552778
al huraiba,,02,31.1447222,47.4597222
al huraybah,,02,31.1447222,47.4597222
al hurayran,,04,31.6469444,44.9716667
al hurr,,12,32.6666667,44.0
al husayn,,06,32.3833333,44.5333333
al husayn,,10,33.8169444,45.0655556
al husayniyah,,12,32.67,44.1613889
al huwaidir,,10,33.7708333,44.6216667
al huwair,,02,30.9802778,47.3161111
al huwaish,,10,33.6877778,44.4194444
al huwaychiyah,,14,31.3166667,47.5
al huwaydir,,10,33.7708333,44.6216667
al huwayjah,,13,35.3266667,43.7761111
al huwayjiyah,,14,31.3166667,47.5
al huwaykiyah,,14,31.3166667,47.5
al huwayrah,,02,30.6605556,47.7677778
al huwayr,,02,30.9802778,47.3161111
al huwaysh,,03,31.2113889,45.4272222
al huwaysh,,10,33.6877778,44.4194444
al huwaysh,,15,36.1630556,42.8522222
al huwwah,,17,31.8447222,44.5169444
`aliabad,,10,33.8788889,44.5172222
`ali`abbud,,18,34.8141667,43.3086111
`ali ach chalib,,17,34.0105556,44.2155556
`ali ad dalaf,,01,33.4963889,44.0244444
ali ad dayan,,06,33.2063889,44.4713889
`ali ad dayyan,,06,33.2063889,44.4713889
`ali agha,,10,34.6094444,45.5013889
`ali agha bin namiq agha,,18,35.0333333,44.4666667
`ali aghah,,10,33.8083333,45.5130556
`ali agha ibn namiq agha,,18,35.0333333,44.4666667
`ali ahmad bayk,,10,34.3166667,45.3
`ali ahmad beg,,10,34.3166667,45.3
`ali al `abbas,,06,32.3,44.3333333
`ali al ahmad,,01,33.4961111,44.3061111
`ali al ahmad,,06,33.0666667,44.05
`ali al `amr,,06,33.1033333,44.1144444
`ali al fad`am,,09,31.2,46.1
`ali al fatim,,09,31.2,46.1
ali al fedam,,09,31.2,46.1
`ali al gharbi,,14,32.4641667,46.6786111
ali al haj,,10,33.56,44.3530556
ali al haj `alwan,,09,30.9666667,46.45
`ali al hajj,,10,33.56,44.3530556
`ali al hajj `ulwan,,09,30.9666667,46.45
`ali al hamad,,10,33.7216667,45.1202778
`ali al hamid,,18,34.6305556,43.4330556
`ali al hammud,,17,34.0172222,44.2730556
`ali al hanin,,04,31.6833333,44.5666667
`ali al hasan,,02,30.9333333,47.2833333
`ali al hasan,,10,33.5713889,44.5094444
`ali al hassun,,10,33.6527778,45.1597222
`ali al hassuni,,04,31.4347222,44.8219444
`ali al husain,,06,32.47,44.2130556
`ali al husayn,,06,32.47,44.2130556
`ali,,05,35.4058333,45.4861111
`ali,,06,32.47,44.2130556
`ali,,09,31.35,46.2666667
`ali,,10,34.0333333,44.7833333
`ali,,14,31.5333333,47.3833333
`ali,,16,32.7555556,45.3055556
`ali al ibrahim,,06,32.3344444,44.4644444
`ali al jabbar,,09,31.3833333,46.25
`ali al jauda,,09,31.0713889,45.8891667
`ali al jazrah,,09,31.2666667,46.4833333
`ali al juda,,09,31.0713889,45.8891667
`ali al judah,,09,31.0713889,45.8891667
`ali al kadhim,,07,33.0666667,44.6666667
`ali al kazi§im,,07,33.0666667,44.6666667
`ali al khalaf,,06,33.1516667,44.42
`ali al khalfaj,,09,31.6194444,46.0669444
`ali al khalf,,06,33.1516667,44.42
`ali al khamis,,06,33.0855556,44.4911111
`ali al malih,,10,34.0425,45.1458333
`ali al manfi,,18,34.6786111,43.3836111
`ali al maz`al,,17,31.7,44.4666667
`ali al miz,,17,31.7,44.4666667
ali al mizil,,17,31.7,44.4666667
ali al mizu,,17,31.7,44.4666667
`ali al mu`aybidi,,01,33.3886111,44.1313889
`ali al yasin,,07,33.5333333,44.3
alian,,11,36.2147222,44.3591667
`ali an nadi,,07,33.0833333,44.5666667
`ali an nayif,,18,34.7555556,43.3019444
`ali an nu`man,,01,33.4647222,43.3941667
`ali ash sharqi,,14,32.1175,46.7363889
`ali ash shaykh khalil,,10,33.9697222,45.0572222
`ali as salih,,01,33.4286111,44.1083333
`ali as salim,,06,33.1552778,44.2055556
`ali as salim,,09,31.0666667,46.3552778
`ali as sulayman,,01,33.4819444,44.1188889
`ali as zangana,,10,34.0833333,44.9166667
`ali ath thamir,,04,32.065,44.6266667
`aliawa,,05,35.1838889,45.5291667
aliawa,,05,35.35,45.4333333
`aliawa,,05,35.4463889,45.395
`aliawa,,13,35.2377778,44.5463889
`ali awah,,05,35.1838889,45.5291667
`ali awah,,11,35.8305556,43.4925
`ali awah,,13,35.2377778,44.5463889
`ali awdah,,11,35.8305556,43.4925
`ali az zaidan,,10,34.0116667,44.2113889
`ali az zangana,,10,34.0833333,44.9166667
al `ibadi,,09,31.2366667,46.5480556
`ali baian,,13,35.7663889,44.4016667
`ali balan,,13,35.7663889,44.4016667
`ali bayan,,13,35.7663889,44.4016667
`ali bin fayadh,,18,33.8938889,44.4413889
`ali bin fayyad,,18,33.8938889,44.4413889
`ali bizao,,05,35.5486111,45.145
`ali bizaw,,05,35.5486111,45.145
al ibrahim,,17,31.7408333,44.4583333
al ibrahimiyah,,18,33.8466667,44.2344444
`ali chalabi,,07,33.1666667,44.5333333
`ali chalabi al shaikhli,,07,33.2333333,44.5166667
`ali chalbi,,07,33.1666667,44.5333333
al `id,,09,31.0,46.5
`ali daud,,10,34.3572222,45.2616667
`ali dawud,,10,34.3572222,45.2616667
al idrisi,,07,33.3544444,44.4319444
ali el gharbi,,14,32.4641667,46.6786111
ali esh sharki,,14,32.1175,46.7363889
ali gharbi,,14,32.4641667,46.6786111
aligoran,,05,35.5236111,45.1175
`ali haj hasan,,06,32.3138889,44.3202778
`ali haji qadir,,05,35.1266667,45.1944444
`ali hamadah,,01,33.4875,44.1541667
`ali hammud,,18,34.7166667,43.3619444
`ali hasan,,16,33.1236111,45.9788889
`ali husayn al munsamid,,10,33.9252778,45.0816667
alij,,14,31.4919444,47.1597222
`ali jan,,10,34.3419444,45.3008333
`ali khalah,,10,34.7427778,45.4802778
`ali khan bak,,18,35.1275,44.7891667
`ali khan beg,,18,35.1275,44.7891667
al `ikrimah,,09,31.2166667,46.4666667
`alik zawah,,05,35.5486111,45.145
`ali mahmud,,05,34.6347222,45.3425
`ali mahmud,,06,33.0905556,44.3872222
al imam,,06,32.6666667,44.5833333
al imam ash shaykh muhammad,,10,33.9977778,44.8661111
`ali mansur,,05,35.5119444,44.9069444
`ali mika'il,,13,35.6488889,44.7083333
`ali mir,,10,34.5525,45.6477778
ali m'kayil,,13,35.6488889,44.7083333
`alim nahi,,16,32.3522222,45.9433333
al imtihiyah,,02,30.4841667,47.8327778
`ali muhammad,,05,34.9166667,45.5833333
`ali muhammad,,10,33.5375,45.2972222
`ali mumha,,05,34.6347222,45.3425
`ali musa,,13,35.6802778,44.5961111
ali nayir,,10,33.7836111,45.5411111
alinjagh-i gichka,,11,35.9616667,44.5116667
ali nur ali,,14,32.45,46.7
`ali nur,,14,32.45,46.7
`ali pakan,,10,34.8125,45.5691667
aliqah bozorg,,05,36.0713889,44.8963889
aliqah buzurg,,05,36.0713889,44.8963889
aliqa-i gawra,,05,36.0713889,44.8963889
aliqa-i pichuk,,05,36.0588889,44.8825
al iqbalah,,15,36.4305556,42.8388889
al `iqrimah,,09,31.2166667,46.4666667
ali rash,,11,35.6727778,43.6972222
`ali rash,,15,36.2863889,43.2952778
`ali rashsh,,11,35.6727778,43.6972222
`ali rashsh,,15,36.2863889,43.2952778
`ali sa`d,,01,33.4911111,44.085
`ali saghir,,10,34.2,45.2833333
`ali sarai,,18,35.1019444,44.3494444
`ali saray,,18,35.1019444,44.3494444
al `isawi,,09,30.9438889,46.9719444
al `isawi,,14,31.3833333,47.3666667
`ali shafi,,10,34.5166667,45.3166667
`ali shalabi,,07,33.1802778,44.5558333
`ali shalabi ash shaykhili,,07,33.2333333,44.5166667
`ali shalabi ash shaykhli,,07,33.2333333,44.5166667
`ali sharqi,,14,32.1175,46.7363889
al iskandariyah,,06,32.8933333,44.3516667
al islah,,09,31.1675,46.6005556
al isma`il,,09,30.9216667,46.7052778
`ali sulayman,,01,33.465,44.1080556
al ithsilat,,02,31.1694444,47.4394444
alivawah,,13,35.2377778,44.5463889
`ali wawi,,01,33.4755556,44.0341667
`aliwi `abd al khalaf,,01,33.3666667,43.6333333
`ali ya`qub,,05,34.9333333,45.6833333
ali zangana,,05,35.4680556,45.0833333
`ali zanjana,,05,35.4680556,45.0833333
al `izi§ami,,03,29.5027778,46.3166667
al ja`arah,,17,31.8908333,44.485
al jaba'ish,,09,30.9672222,47.0138889
al jabash,,09,31.4619444,45.9491667
al jabayish,,09,31.4619444,45.9491667
al jabjud,,02,30.1177778,47.8686111
al jabsh,,09,31.4619444,45.9491667
al jabuz,,17,31.8952778,44.4247222
al jadbah,,04,32.0577778,44.6058333
al jadhub,,16,32.25,46.0333333
al jadidah,,02,30.4402778,47.9005556
al jadidah,,10,33.6319444,44.4269444
al jadil,,14,31.8136111,47.4805556
al jadu`iyah,,04,31.6630556,44.5841667
al jadwal al gharbi,,12,32.4944444,44.2
al jady,,14,31.3452778,47.0127778
al jahshiyah,,15,36.6016667,42.6444444
al jala`ah,,02,30.9333333,47.45
al jalabat,,17,31.9188889,44.4647222
al jaliha,,04,31.95,45.2666667
al jalihah,,04,31.95,45.2666667
al jalijah,,04,31.95,45.2666667
al jam`a,,02,30.3833333,47.7333333
al jami`ah,,07,33.3252778,44.3269444
al jamil,,06,32.5333333,44.15
al jamjamah,,06,32.5261111,44.4208333
al j`ara,,17,31.8908333,44.485
al jaramil,,01,34.4052778,41.0752778
al jasamiyat,,06,32.2383333,44.445
al jasim,,02,30.9666667,47.3833333
al jawabir,,02,31.1655556,47.4466667
al jawa'ir,,02,31.1655556,47.4466667
al jawasim,,04,31.9252778,44.8377778
al jawayir,,02,31.1655556,47.4466667
al jawb,,16,32.4933333,45.6294444
al jawdafiyah,,01,33.9569444,42.5613889
al jawhariyah,,17,31.7130556,44.5166667
al jawiyah,,02,30.5897222,47.7933333
al jawwil,,09,30.9655556,46.7397222
al jaybahi,,06,33.1672222,44.4283333
al jayr,,13,35.3233333,44.095
al jaza'ir,,07,33.2594444,44.3705556
al jazirah,,07,33.2658333,44.4058333
al jazirah,,15,35.73,43.1936111
al jazirah al `ulya,,02,30.5833333,47.8
al jazirah ar rabi`ah,,02,30.6286111,47.7663889
al jazirah ath thaniyah,,02,30.6175,47.7747222
al jazrah,,04,31.6972222,44.5138889
al jazzaniyah,,01,34.4563889,41.5777778
al jibab,,01,34.3188889,41.5786111
al jidr,,15,35.3580556,43.3408333
al jihad,,07,33.2763889,44.3316667
al jirahi,,02,30.7208333,47.7183333
al jirjan,,14,31.7833333,47.0666667
al jisr,,07,33.25,44.5833333
al ju`ayfar,,07,33.3333333,44.4833333
al ju`ayfir,,07,33.3333333,44.4833333
al jubaylah,,02,30.5433333,47.8058333
al judaydah,,01,34.2380556,42.3086111
al jum`ah,,02,30.3833333,47.7333333
al jumhuriyah,,02,30.5205556,47.7966667
al jurjan,,14,31.7833333,47.0666667
al jurnah,,18,33.6675,44.3613889
al jurn,,01,34.4447222,41.3383333
al jurn,,14,31.3833333,47.3166667
al jussah al janubiyah,,15,36.5952778,42.68
al jussah ash shamaliyah,,15,36.5977778,42.6780556
alka,,08,36.8236111,44.1458333
alka,,11,36.9152778,44.6005556
al kaba'ish,,09,30.9672222,47.0138889
al ka`d,,04,31.5255556,44.7694444
al kadhimain,,07,33.3766667,44.3372222
al kafarat,,04,31.9891667,45.3161111
alkah,,08,36.8236111,44.1458333
alkah,,11,36.9152778,44.6005556
al kahla',,14,31.6747222,47.2780556
al kakhrah,,15,36.5552778,42.3483333
al kamaniyah,,10,33.7686111,44.4941667
al karabilah,,01,34.3836111,41.0308333
al karat,,17,31.8555556,44.4369444
al kardi,,09,31.2944444,46.5880556
al karimah,,09,31.2166667,46.4666667
al karkh,,07,33.3219444,44.3963889
al karmah,,01,33.4058333,43.9305556
al karmah,,02,30.5702778,47.7233333
al karmah,,10,33.5833333,43.9333333
al karradah,,07,33.3022222,44.4383333
al karradi,,09,31.7225,46.1097222
al karyan,,02,30.1833333,47.6666667
al kasrah al jadidah,,12,32.4647222,42.0916667
al kasrah al qadimah,,12,32.4041667,42.0977778
al kawam,,06,32.3797222,44.36
al kayyarah,,15,35.8002778,43.2897222
al kazi§imiyah,,07,33.3766667,44.3372222
al kazirah,,02,30.5558333,47.7533333
al kazizah,,02,30.5558333,47.7533333
al-kemaniya,,10,33.7686111,44.4941667
al khabbaz,,09,30.9405556,46.5888889
al khadra',,07,33.3163889,44.3144444
al khadr,,03,31.2069444,45.5491667
al khadr,,09,31.0688889,46.5386111
al khadraniyah,,15,35.6108333,43.2405556
al khalidiyah,,01,33.3833333,43.5272222
al khalidiyah,,15,35.8208333,43.3866667
al khalifah,,04,31.9744444,44.9847222
al khalis,,10,33.8183333,44.5244444
al khamisiya,,09,30.7830556,46.4861111
al khamisiyah,,09,30.7830556,46.4861111
al khan,,15,35.8775,43.3416667
al khaniniya,,03,31.3016667,45.435
al kharjah,,18,33.9833333,44.2166667
al kharm,,04,31.7197222,44.5888889
al khasaba,,03,31.2833333,45.2833333
al khasasif,,02,30.4466667,48.0977778
al khashshaniyah,,04,31.9194444,44.6219444
al khass,,02,30.95,47.3
al khawarnaq,,04,31.8,44.7333333
al khawiyah,,09,30.9563889,46.7191667
al khawrah,,02,30.3166667,48.1833333
al khawrajah,,02,30.65,47.7666667
al khayrat,,12,32.4166667,44.2666667
al khibnah,,14,31.8766667,46.9341667
al khidhr,,03,31.2069444,45.5491667
al khidr,,03,31.2069444,45.5491667
al khidr,,06,32.45,44.7
al khinaq,,03,31.25,45.0
al khisaf,,14,31.5,47.2166667
al khora,,02,30.3166667,48.1833333
al khulaywi,,09,31.2972222,46.5677778
al khums,,04,31.6463889,44.57
al khunainiya,,03,31.3016667,45.435
al khunayniyah,,03,31.3016667,45.435
al khuraib,,14,31.4736111,47.3544444
al khurayb,,14,31.4736111,47.3544444
al khushnam,,02,30.1833333,48.4033333
al khuwain,,15,36.09,42.8494444
al khuwayn,,15,36.09,42.8494444
al kifl,,06,32.2244444,44.3669444
al kirdi,,09,31.2944444,46.5880556
al kishash,,09,31.2,46.5
al kubab,,14,31.3672222,47.1802778
al kufa,,17,32.0347222,44.4033333
al kufah,,17,32.0347222,44.4033333
al kumait,,14,32.0336111,46.8775
al kuray,,02,31.1638889,47.345
al kuray`at,,07,33.3905556,44.3422222
al kuraykhat,,06,32.4280556,44.4822222
al kuraytiyah,,02,30.2833333,47.6
al kurdi,,09,31.2944444,46.5880556
al kurmashiyah al gharbiyah,,09,30.8336111,46.5569444
al kurmashiyah ash sharqiyah,,09,30.8269444,46.5605556
alkushk,,08,37.2116667,43.3155556
alkushki,,08,37.015,43.1933333
al kusur,,18,34.14,44.0247222
al kut al faranji,,02,30.5516667,47.7972222
al kut,,16,32.4975,45.8291667
al kuwait,,18,34.2166667,43.8666667
al kuwaykhat,,06,32.4280556,44.4822222
al kuwayr,,11,36.0477778,43.4955556
al kuziyah,,01,34.4666667,41.8333333
al lafiyah,,02,30.7936111,47.6066667
allah quli,,05,35.6666667,45.05
allak ad dhahir,,03,31.2502778,45.5352778
allak adh dhahir,,03,31.2502778,45.5352778
allam sadia,,09,31.1447222,46.4372222
`allam sadiq,,09,31.1447222,46.4372222
allanah,,11,36.7069444,44.9783333
al latif,,02,30.5925,47.7519444
al latifiyah,,06,32.9638889,44.3475
`allawi,,02,30.6333333,47.4
allayi khwaru,,05,35.5816667,45.175
allayi saru,,05,35.5833333,45.1666667
al lazakah,,15,35.87,43.3122222
al lishman,,02,30.6313889,47.7502778
al`ltan,,07,33.1152778,44.5597222
al luqmaniyah,,10,33.7538889,44.4972222
al ma`aniyah,,17,30.7333333,42.9833333
al ma`badi 2,,15,36.1594444,43.2458333
al mabarr rasul,,04,31.7947222,44.9658333
al mabrad,,09,31.0833333,46.9
al mada'in,,07,33.15,44.6166667
al ma`dan,,02,30.5922222,47.6725
alma`dan,,09,31.0416667,46.9111111
al ma`dan,,09,31.0791667,46.8988889
al madhalim,,16,32.295,45.6836111
al madhatiyah,,06,32.3963889,44.6711111
al madina,,02,30.9652778,47.255
al madinah,,02,30.9652778,47.255
al madinah as siyahiyah,,01,33.2419444,43.5722222
almafiqiya,,16,32.2697222,45.9258333
al mahajir ash sharqiyah,,17,31.9163889,44.5116667
al mahawil,,06,32.6608333,44.4077778
al mahawiya,,04,32.0533333,44.5619444
al mahdi,,15,36.2605556,42.0986111
al mahdiyah,,01,34.4713889,41.5888889
al mahilah,,02,30.2961111,48.2852778
al mahmudiya,,06,33.0580556,44.3697222
al mahmudiyah,,06,33.0580556,44.3697222
al mahnawiya,,04,32.0533333,44.5619444
al mahnawiyah,,04,32.0533333,44.5619444
al mahraqah,,02,30.5047222,47.8533333
al maia,,09,31.1166667,46.0166667
al ma`iyah,,09,31.1166667,46.0166667
al majall,,15,31.6333333,47.4333333
al majar al kabir,,14,31.575,47.1580556
al majarr al kabir,,14,31.575,47.1580556
al majd,,03,31.3211111,45.2191667
al majidiyah,,02,30.6119444,47.7508333
al majira,,11,35.5897222,43.6019444
al majir,,11,35.5897222,43.6019444
al makarin,,10,34.0869444,44.9322222
al makinah,,02,30.5166667,47.8166667
al malah,,09,31.1166667,46.0166667
al malihah,,04,31.8875,44.5461111
al mammon,,07,33.3008333,44.3469444
al-mamoun city,,07,33.3008333,44.3469444
al mana`iyah,,15,36.5908333,42.2336111
al mansuriya,,10,33.7588889,44.3969444
al mansuriyah,,10,33.7588889,44.3969444
al maqalim,,16,32.295,45.6836111
al ma`qil,,02,30.5516667,47.7972222
al mardh,,12,32.5619444,43.5158333
al marj,,15,36.0933333,42.9927778
al mashahidah,,10,33.5683333,44.4355556
al mashhad,,01,33.8738889,42.5227778
al mashru`,,06,32.7483333,44.6127778
al mashru`,,10,34.0833333,44.7833333
al mashyakhah,,01,33.4369444,43.9866667
al maskhan,,01,33.6988889,42.7477778
al maslakh,,07,33.4166667,44.3666667
al masluhah,,04,31.545,44.7863889
al masraf al gharbi,,07,33.5244444,44.3069444
al matla`,,02,31.1266667,47.5111111
al matu`ah,,02,30.3952778,48.1686111
al mawali,,15,36.3252778,42.8380556
almawan,,11,36.4052778,44.2169444
almawan-i kon,,11,36.4061111,44.2216667
al mawsil al jadidah,,15,36.3291667,43.0861111
al mawsil,,15,36.335,43.1188889
al ma`yarah,,04,31.7113889,44.5797222
al maymunah,,14,31.6794444,46.9677778
al ma`yuf jama`a,,09,31.4833333,46.3833333
al ma`yuf jama`ah,,09,31.4833333,46.3833333
al mazi§alim,,16,32.295,45.6836111
al mazlaq,,02,30.5227778,47.8355556
al mazlaq,,14,31.75,47.7333333
al mazra`,,15,36.4325,42.6277778
al mesharah,,14,31.8191667,47.4341667
al mibrad,,09,31.0833333,46.9
al mi`dan,,02,31.0633333,47.3386111
al mihnawiyah,,04,31.8502778,44.5944444
al mijar al kabir,,14,31.575,47.1580556
al mi`mar,,09,33.4427778,44.3522222
al miqdadiyah,,10,33.9786111,44.9369444
al mishan,,02,30.6313889,47.7502778
al mishkhab,,17,31.8016667,44.4902778
al mizra,,15,36.4325,42.6277778
al mu`adhdham,,07,33.3841667,44.3794444
al muari,,15,36.6125,42.5758333
al mu`aybdi,,15,36.1883333,43.1202778
al mu`aydi,,02,30.65,47.75
al mudayzah,,09,30.9227778,46.5852778
al mudayzhah,,09,30.9227778,46.5852778
al muhallabiyah,,15,36.265,42.7044444
al muhammadi,,01,33.5475,42.9011111
al muhawwalah,,10,33.8925,44.7791667
al muhawwatah,,10,33.8925,44.7791667
al muhsin [1],,10,33.5333333,45.0666667
al muhsin [2],,10,33.5183333,45.07
al mukhaysah,,10,33.9055556,44.7252778
al mukhtari,,15,36.1697222,42.6736111
al mulayhat,,15,36.0583333,42.5730556
al mulayshah,,14,31.3333333,47.5166667
al mulla `alwan,,07,33.4275,44.3436111
al mumi,,15,36.625,42.0452778
al mundhiriyah,,10,34.3333333,45.3666667
al muqabba`,,09,30.9280556,46.7855556
al muqri,,15,36.6125,42.5758333
al muradiyah,,06,32.2891667,44.3725
al muradiyah,,07,33.2502778,44.4247222
al muradiyah,,10,33.6830556,44.5630556
al muradiyah al qadimah,,04,31.8530556,45.4311111
al murdi,,12,32.5619444,43.5158333
al musabihiyah,,16,32.6180556,45.3213889
al musaiyib,,06,32.7786111,44.29
al musandaq,,16,32.5183333,46.4308333
al musayyib,,06,32.7786111,44.29
al mushahidah,,07,33.6347222,44.2336111
almushahir,,09,31.1788889,46.6647222
al musharrah,,14,31.8191667,47.4341667
al mushayrafah as saghirah,,15,36.8036111,42.0816667
al musil,,15,36.335,43.1188889
al muslakhah,,13,35.0925,43.5219444
al mutawwa±`ah,,02,30.3952778,48.1686111
al muthanna,,07,33.3227778,44.4555556
al muwaffaqiyah,,16,32.2697222,45.9258333
al muwaijid,,09,31.0822222,46.6230556
al muwayjid,,09,31.0822222,46.6230556
al muzaira,,02,31.02,47.4533333
al muzayra±`ah,,02,31.02,47.4533333
al muzayrah,,02,31.02,47.4533333
al nabhan,,04,31.7333333,44.6141667
al nahar,,09,31.2727778,46.5544444
al najagh,,11,35.9422222,44.0722222
al nasr allah,,09,31.2291667,46.5763889
aloka,,08,36.8391667,42.92
aloka,,15,36.8516667,43.2688889
alokan,,11,36.9333333,44.7
`alo maha,,05,34.6347222,45.3425
al qadawi,,07,33.25,44.4925
al qadawi,,10,33.6305556,44.7938889
al qadhawi,,10,33.6305556,44.7938889
`al qadimah,,08,36.7883333,42.6405556
al qadisiyah,,17,31.6902778,44.4691667
al qahirah,,07,33.3638889,44.4138889
al qahirah,,08,36.7966667,42.8397222
al qa'im,,01,34.3669444,41.1388889
al qa'im,,04,31.59,44.5394444
al qa'im,,15,36.5086111,43.1844444
al qaiyara,,15,35.8002778,43.2897222
al qal`ah,,02,30.9533333,47.175
al qal`ah,,18,34.1666667,43.7833333
al qanat,,15,36.675,42.1247222
al qaraghuliyah,,07,33.3,44.5333333
(( al qari al qadimah )),,08,36.7883333,42.6405556
al qari,,15,36.785,42.5969444
al qaryah al `asriyah,,01,33.2886111,43.6997222
al qaryah al `asriyah,,06,32.8838889,44.3841667
al qaryah al ishtirakiyah,,14,32.4427778,47.1666667
al qaryah,,16,32.4372222,45.8152778
al qasad,,13,35.3011111,43.9
al qasim,,06,32.3077778,44.6788889
al qasr,,15,36.2255556,43.2255556
al qassad,,13,35.3011111,43.9
al qat`ah,,02,30.3486111,48.175
al qataniyah,,16,32.9247222,44.9894444
al qattarah,,12,32.5166667,43.8
al qayyarah,,15,35.8002778,43.2897222
alqazbaygi,,05,35.95,44.8333333
alqazbegi,,05,35.95,44.8333333
al qit`ah,,02,30.3486111,48.175
alqosh,,15,36.7352778,43.0963889
al qubab,,14,31.3672222,47.1802778
al qubaiba,,02,31.1447222,47.3886111
al qubaybah,,02,31.1447222,47.3886111
al qubayb,,02,31.1447222,47.3886111
al qubayyah,,10,33.6905556,45.0947222
al qubbah,,10,33.8925,44.7097222
al qubur,,02,31.2666667,47.2333333
al quds,,07,33.4027778,44.4038889
al qulay`ah,,10,33.9538889,44.7241667
al qurna,,02,31.0158333,47.4305556
al qurnah,,02,31.0158333,47.4305556
al qurtiyah,,02,30.2833333,47.6
al qusayr,,12,32.75,43.2166667
al qush,,15,36.7352778,43.0963889
al qushlah,,02,29.9166667,48.5333333
al quwayr,,11,36.0477778,43.4955556
al rahhaliya,,12,32.7663889,43.3919444
al ruhaiya,,15,36.4713889,42.9627778
al sabah,,04,31.8066667,44.9080556
al sabah,,09,31.35,46.1497222
al sabbah,,04,31.8066667,44.9080556
al sabih,,17,31.9,44.3833333
al sabikha,,03,31.17,45.7505556
al sabikhah,,03,31.17,45.7505556
al sabti,,04,31.5052778,44.8377778
al s`adan,,07,33.2338889,43.9052778
al saghir,,09,31.0677778,46.3163889
al sa`idiyah,,13,35.2147222,44.1163889
al saiyid hani as saiyid hadi,,04,32.2755556,45.0583333
al salim,,04,31.5238889,44.8594444
al sayyah,,09,31.35,46.1497222
al shadid,,09,30.9825,46.54
al shibl,,04,31.6322222,44.5763889
al sih,,02,31.1166667,47.4333333
al subayhah,,03,31.17,45.7505556
al sudan,,14,31.4166667,47.2666667
al suray`,,04,31.8680556,44.6341667
al tahrir,,04,31.9713889,45.4066667
altinji ihtiyat,,10,34.5333333,45.45
altin kopru,,13,35.7572222,44.1361111
altrama ain,,09,31.2166667,46.3333333
altramah `ain,,09,31.2166667,46.3333333
altun kopru,,13,35.7572222,44.1361111
altun kubri,,13,35.7572222,44.1361111
altun kupri,,13,35.7572222,44.1361111
al tuzliyah,,01,34.4658333,41.6436111
al u`aywir,,04,31.9713889,44.6541667
al ubaija±`i,,16,32.1191667,45.8013889
al `ubayd,,15,36.6530556,42.0066667
al `ubaydi,,01,34.4233333,41.1980556
al `ubayja`,,16,32.1191667,45.8013889
al ubayja±`,,16,32.1191667,45.8013889
al ubaytir,,12,32.6297222,44.1655556
al `udamah,,04,31.9580556,44.9522222
al uhaymir,,04,31.6619444,44.5444444
alukan,,11,36.9333333,44.7
((al `ulyah)),,01,34.2966667,42.2447222
`alu mahmud,,13,35.5419444,44.2355556
al umnaythir,,03,31.3166667,45.8166667
alus,,01,34.0191667,42.4105556
al `ushsh,,01,34.3780556,41.12
al `usrah,,04,31.5886111,44.6186111
al `utaykah,,02,30.4625,47.8652778
al uthaylat,,02,31.1694444,47.4394444
al `uthman,,09,33.4794444,44.3077778
al `utub,,14,31.35,47.5166667
al uwaidat,,14,31.55,47.3333333
al `uwaydat,,14,31.55,47.3333333
al`uwayli,,14,31.1777778,47.2194444
al `uways,,14,31.4333333,47.3166667
al `uwaysan,,02,30.4830556,47.8572222
al uzair,,14,31.3352778,47.4213889
al `uzayr,,14,31.3352778,47.4213889
al `uzi§aym,,10,34.2666667,44.5166667
al `uzi§miyah,,02,30.4763889,47.8386111
alwa,,02,30.8166667,47.5666667
alwa,,09,31.0333333,46.1333333
`alwah,,02,30.8166667,47.5666667
`alwah,,09,31.0333333,46.1333333
al wahdah,,07,33.3086111,44.4422222
al wajihiyah,,10,33.95,44.9833333
al waki,,02,30.5716667,47.7458333
al wali,,16,32.55,45.9
al walid,,15,36.9291667,42.2211111
`alwan `abd ar rida,,16,32.4372222,45.8152778
`alwan ad d`anti,,17,31.9,44.35
alwan al `abid,,10,33.5677778,44.4511111
`alwan al husayn,,06,32.3,44.6833333
`alwan al jawwal,,06,32.4666667,44.25
`alwan al khalaf,,06,33.1352778,44.4619444
`alwan al muhammad al barrak,,10,33.6,45.0666667
`alwan,,06,32.4402778,44.8116667
`alwan,,17,31.7594444,44.49
alwand,,10,34.3166667,45.4166667
`alwan shallal,,06,33.1211111,44.2825
alwan sulaiman,,07,33.0666667,44.2166667
`alwan sulayman,,07,33.0666667,44.2166667
alwar al `abid,,10,33.5677778,44.4511111
alw'ar,,03,31.4036111,45.1972222
al warishiyah,,04,31.9647222,44.5733333
al warka',,03,31.4708333,45.2933333
`alwash,,10,34.4127778,45.1058333
al washash,,07,33.3333333,44.35
al wasiliyah,,02,30.3,48.3
al wasiliyeh,,02,30.3,48.3
al wasitah,,14,31.3930556,47.3947222
`alwat al fasil saiba,,02,30.3333333,48.25
al watiya,,14,31.8333333,46.9
al watiyah,,14,31.8333333,46.9
al wawi,,14,31.5866667,47.1680556
al waziriyah,,07,33.37,44.3830556
al windiyah as saghirah,,10,33.8666667,44.6833333
al windiyat as saghir,,10,33.8666667,44.6833333
alwiya,,07,33.3,44.4333333
alwiyah,,07,33.3,44.4333333
(( al yahudi )),,02,30.4533333,47.9330556
(( al yahudiyah )),,02,30.4608333,47.945
`alyan gawra,,05,34.9566667,45.1005556
al yarmuk,,07,33.3005556,44.3391667
al yasir,,17,31.6275,44.5347222
`alyawah,,11,35.8305556,43.4925
alyawah,,11,36.1941667,44.4169444
`alyawah,,13,35.2377778,44.5463889
`alyawi,,14,31.6627778,47.15
al yusufiyah,,06,33.0838889,44.2561111
al zikri,,17,31.8666667,44.45
al ziyad,,04,31.6583333,44.5666667
al zuwayr,,04,31.8097222,44.875
`amadah,,08,36.7888889,44.0369444
`amadan,,08,36.7888889,44.0369444
amadia,,08,37.0933333,43.4872222
amadin,,05,35.8333333,45.4666667
`amadiya,,08,37.0933333,43.4872222
`amadiyah,,08,37.0933333,43.4872222
amadiyeh,,08,37.0933333,43.4872222
`amahraw,,10,34.4166667,45.4166667
amam as sabmah,,06,32.2422222,44.4419444
amanj,,05,36.335,44.7172222
`amara,,14,31.7166667,47.1
amara,,14,31.8452778,47.1752778
amarah,,14,31.8452778,47.1752778
amarau,,10,34.4166667,45.4166667
`amarawa,,10,34.4166667,45.4166667
`amaraw,,10,34.4166667,45.4166667
amare,,14,31.8452778,47.1752778
amar kakol,,05,36.2436111,45.1936111
amarliya,,18,34.7219444,44.5825
amarliyah,,18,34.7219444,44.5825
amar qal`a,,05,35.1461111,45.5438889
amedi,,08,37.0933333,43.4872222
amhali al shabana,,04,32.2202778,44.9547222
amhali ash shabanah,,04,32.2202778,44.9547222
`amil,,10,33.3641667,45.38
amin afandi sirhan,,07,33.4661111,44.3875
aminah,,10,33.8902778,45.4277778
amin baqir,,10,34.3833333,45.4
amin effendi sarhan,,07,33.4661111,44.3875
amin habib,,10,34.39,45.1486111
amin shatub,,10,34.1397222,45.0986111
amirah,,09,31.3227778,46.2825
`amir,,14,31.7586111,47.2816667
`amirat,,09,31.3227778,46.2825
amirini,,15,36.1575,42.9722222
amiriya,,01,33.1969444,43.9141667
amiriya,,10,33.6702778,44.5405556
amiriyah,,10,33.6702778,44.5405556
amirli,,18,34.7219444,44.5825
`amm al husayn,,03,31.2305556,46.2
`amman,,02,30.7513889,47.6519444
`ammar,,09,31.4333333,46.1333333
amo bakir,,05,36.3852778,45.0841667
amobakr,,05,36.3852778,45.0841667
amokan,,11,36.6252778,44.2797222
amran,,06,32.7333333,44.3666667
`amran as sarkhal,,06,32.2069444,44.3666667
amraniyah,,10,33.8452778,44.9144444
`amrini,,15,36.1575,42.9722222
`amr khushah,,08,36.6833333,43.8666667
`amr khush,,08,36.6833333,43.8666667
`amud dafi',,02,30.0777778,48.4161111
amukan,,11,36.6252778,44.2797222
amura,,05,35.3502778,46.0122222
amurah,,05,35.3502778,46.0122222
amurli,,18,34.7219444,44.5825
ana,,01,34.4666667,41.9308333
anab,,05,35.2066667,46.0183333
`anah,,01,34.4666667,41.9308333
`anajir,,13,35.4888889,43.9813889
andayban,,04,31.95,44.5166667
andik,,05,36.34,44.7155556
angoz,,05,36.3197222,44.7344444
anhad,,06,32.7333333,44.3666667
anitak al bulbul,,04,31.6738889,44.7275
anjira,,05,35.4113889,45.6908333
anjirah,,05,35.4113889,45.6908333
ankawa,,11,35.6555556,43.3966667
`ankawah,,11,35.6555556,43.3966667
an nabi yunus,,04,32.1333333,45.1166667
an nadawat,,01,33.4597222,44.3075
(( an naelah )),,02,30.45,47.9
an nahar,,09,31.2666667,46.5886111
an nahdah,,04,31.5222222,44.8594444
an nahidayn,,01,32.25,39.6
an nahiya,,01,34.4336111,41.5644444
an nahiyah,,01,34.4336111,41.5644444
an nahiyah,,15,35.6513889,43.3086111
an nahr,,09,31.2666667,46.5886111
an nahyah,,01,34.4336111,41.5644444
an najaf,,17,31.9961111,44.3147222
an najmi,,03,31.6686111,45.1819444
an nakhil,,04,31.6977778,44.5786111
annana,,06,32.5502778,44.4141667
`annanah,,06,32.5502778,44.4141667
annan sh sharqiyah,,06,32.5502778,44.4141667
an nashwah,,02,30.8163889,47.605
an nasiriya,,09,31.0541667,46.2594444
an nasiriyah,,09,31.0541667,46.2594444
an nasr,,09,31.5302778,46.13
an nata'ij,,06,32.4547222,44.4486111
an nijmiyah,,06,32.2738889,44.3716667
an nil,,06,32.525,44.55
an nil,,07,33.3441667,44.3986111
an nukhayb,,12,32.0411111,42.2547222
an nukhaylah,,06,32.4225,44.4894444
an nu`maniyah,,16,32.5602778,45.4027778
an nuwasirah,,09,31.1588889,46.6402778
an rahhaliya,,12,32.7663889,43.3919444
ansar,,06,32.6833333,44.2
anton nasrani,,14,31.7833333,47.1333333
antun nasrani,,14,31.7833333,47.1333333
(( `anzah )),,15,36.65,42.95
anzarkan,,01,33.3238889,44.1238889
aobar,,10,35.055,45.6855556
aola gujilan,,11,35.7602778,43.8105556
aoles,,11,35.6258333,43.8527778
aora,,15,36.7591667,43.8938889
apiarliyah,,18,34.4833333,44.5333333
`aqabah,,01,33.5291667,42.9194444
aqar,,09,31.0166667,46.2333333
aqchalar,,05,35.7480556,44.8983333
aqi,,14,31.55,47.2666667
`aqiqah,,09,30.9158333,46.4761111
aq jallar,,05,35.7480556,44.8983333
`aqra',,09,30.9208333,47.1036111
aqra,,15,36.7591667,43.8938889
`aqrah,,15,36.7591667,43.8938889
`aqr,,09,31.0166667,46.2333333
aquba,,01,33.5291667,42.9194444
`aqubah,,15,35.7686111,43.2847222
aquban-i khwaru,,11,36.355,44.4255556
aquban-i zhuru,,11,36.3463889,44.4080556
`aquwah,,15,35.7686111,43.2847222
`arab `abbas hasan,,12,32.6794444,44.205
`arab `abd `ali fayruz,,06,32.5761111,44.4297222
`arab `abd al karim,,01,33.3138889,44.0566667
`arab `abd al khalaf,,01,33.4705556,43.1780556
`arab `abd al khalat,,01,33.4705556,43.1780556
`arab `abd allah,,16,32.5166667,45.6319444
`arab `abd allah khattab,,06,32.8836111,44.2286111
`arab `abd ar raghd,,12,32.6294444,44.1408333
`arab `abd khadir ad dawsh,,06,32.8880556,44.1977778
arab abdulla,,16,32.5166667,45.6319444
`arab `abdullah,,16,32.5166667,45.6319444
`arab abu al hadid,,10,33.8494444,44.7988889
`arab abu fahd,,01,33.3544444,43.4613889
arab abu nawas,,10,33.8666667,44.8833333
`arab abu nuwas,,10,33.8666667,44.8833333
`arab ad dalim,,07,33.075,44.5347222
`arab `ajil,,18,33.95,44.3
`arabakan,,05,34.8991667,45.5955556
`arab aksibah,,10,33.8166667,44.8166667
`arab al `awaz,,14,31.7166667,47.3166667
`arab al `aziz,,07,33.4061111,44.3469444
`arab albu `atshan,,12,32.5547222,44.14
`arab albu `ayshah,,01,33.4877778,43.3541667
`arab albu faraj,,01,33.4508333,43.3002778
`arab albu ghanim,,01,33.455,43.3608333
`arab albu hazim,,01,33.4416667,43.9452778
`arab albu khalifah,,01,33.3336111,43.4786111
`arab albu mujhem,,18,33.8833333,44.1166667
`arab albu mujhim,,18,33.8833333,44.1166667
`arab al dalim,,07,33.075,44.5347222
`arab al fahham,,10,33.7852778,45.2980556
`arab al fu'adiyah,,14,31.7166667,47.3333333
`arab al fuwadiya,,14,31.7166667,47.3333333
`arab al hajj ghathith,,09,31.0058333,46.1588889
`arab al hajj khalluf,,10,33.5730556,44.5261111
`arab al husayniyah,,10,33.5472222,44.6247222
`arab `ali al qubtan,,07,33.85,44.7166667
`arab `ali an nahi,,06,32.7302778,44.3380556
`arab `ali azi§ zi§ahir,,06,32.9775,44.1938889
`arab `ali bashir,,18,34.3016667,43.2813889
`arab `ali mukhaylif,,06,32.6769444,44.3213889
`arab al jasim,,10,33.9061111,45.3158333
`arab al jubur,,18,34.1561111,44.3386111
`arab al khadir,,10,33.8833333,44.8758333
`arab al kuraydat,,06,32.565,44.2686111
`arab al musa,,06,32.4327778,44.3222222
`arab al muzayrib,,09,30.9222222,46.6333333
`arab al qal`ia,,10,33.9538889,44.7241667
`arab al qawuqji,,10,33.8,44.8
`arab al qay`iyah,,10,33.9538889,44.7241667
`arab al qulay`ah,,10,33.9538889,44.7241667
`arab al `ujaymi,,10,33.9866667,44.7405556
`arab al `uyun,,10,33.8666667,44.9833333
`arab al waist,,18,33.9666667,44.0833333
`arab alwara,,10,33.6305556,44.7938889
`arab amari,,10,33.5761111,45.4683333
`arab an`am,,12,32.6355556,44.2241667
(( `araban )),,05,36.1166667,44.95
`arab `argub dhiyabah,,10,34.1388889,44.3630556
arab arkuba,,10,33.8833333,44.8758333
`arab ar ruhaima,,17,31.9588889,44.1030556
`arab ar ruhaymah,,17,31.9588889,44.1030556
`arab ar rutlah,,09,30.8311111,46.6472222
`arab as`ad,,06,32.6352778,44.3725
`arab ash shahir,,06,33.2261111,43.9886111
`arab ash shaykh mahdi,,18,33.9675,44.0725
`arab as sabah,,16,32.6666667,45.25
`arab as sadah,,06,32.3216667,44.2908333
`arab as saiyid husain,,10,34.2130556,45.2319444
`arab as suwaydi,,10,33.8452778,44.8486111
`arab at tal`ah,,01,33.4952778,43.2608333
`arab `aziz karim,,12,32.6530556,44.0744444
`arab banat al hasan,,18,34.1508333,44.0211111
`arab batha,,06,32.6269444,44.3644444
`arabchandi,,11,36.1430556,43.9005556
`arab dari musayr,,06,32.9633333,44.1786111
`arab dawud ash shatb,,10,33.8472222,45.3180556
`arab dulaym,,18,33.9338889,44.065
`arab dulem,,18,33.9338889,44.065
`arab duwayj,,10,33.8591667,45.0811111
`arab farhatiya,,18,33.9333333,44.0833333
`arab farhatiyah,,18,33.9333333,44.0833333
`arab faysal farhan,,12,32.6422222,44.1922222
`arab halabsa,,18,33.8819444,44.0819444
`arab halabsah,,18,33.8819444,44.0819444
`arab hamid bashir,,18,34.3169444,43.1691667
`arab hamid hamzah,,12,32.69,44.0227778
`arab hammadah,,10,34.0361111,44.9288889
arab hasan ad duwaza,,16,32.2036111,46.0141667
`arab hasan ad duwazah,,16,32.2036111,46.0141667
`arab hasan as suhayl,,01,33.3230556,44.1555556
`arab hasan kurdi,,12,32.5772222,44.1136111
`arab husayn,,01,33.3513889,44.2316667
`arab ibrahim afandi,,10,33.6833333,44.8333333
`arab ibrahim al khalil,,10,33.8522222,45.2472222
`arab ibrahim effendi,,10,33.6833333,44.8333333
`arab ibrahim muhammad,,01,33.3402778,43.275
`arab `inad `asi,,06,32.7194444,44.3541667
`arabit,,05,35.4202778,45.5805556
`arab jabbar majid huwaydi,,06,32.9241667,44.1680556
`arab jad`an,,10,33.8108333,45.2894444
`arab jalub,,07,33.375,44.3216667
`arab jasim,,18,33.9088889,44.3386111
`arab jawamir,,10,34.15,45.1372222
arab juwamer,,10,34.15,45.1372222
`arabkandi,,11,36.1430556,43.9005556
`arab kanti,,11,36.1430556,43.9005556
`arab kazi§im al isma`il,,10,33.9975,44.7108333
`arab kazi§im,,06,32.65,44.3833333
`arab kazi§im dakhl,,12,32.6266667,44.1930556
`arab kazi§im jarbu`,,18,34.35,43.3386111
`arab kazi§im sitar,,12,32.5297222,44.1505556
`arab khamfarah,,06,32.6333333,44.3666667
`arab khamphara,,06,32.6333333,44.3666667
`arab koi,,18,35.0647222,44.3891667
arab kol,,18,35.0647222,44.3891667
`arab kul,,18,35.0647222,44.3891667
`arab kuy,,18,35.0647222,44.3891667
`arab mahdi al `abd,,10,33.9433333,44.6972222
`arab mandil as samawi,,06,32.6963889,44.4488889
`arab mansi,,06,32.3922222,44.3022222
`arab mirzah najm,,06,32.7852778,44.2386111
`arab muhammad al `allush,,06,32.7397222,44.3238889
`arab muhammad al fahd,,10,33.7911111,45.2922222
`arab muhammad al `ifan,,06,32.9291667,44.3866667
`arab mukhlif fayyad,,18,34.3713889,43.0305556
`arab mulla zi§ahir,,06,33.2086111,44.2683333
`arab qauqchi,,10,33.8,44.8
`arab sadiq ash shunnaf,,10,33.9833333,44.7166667
`arab sahi,,09,31.1947222,46.5697222
`arab salih al hasan,,01,33.3458333,44.0683333
`arab salim,,10,34.1691667,45.0961111
`arab salman,,01,33.3711111,44.2052778
`arab sattam `awdah,,18,34.3280556,43.1761111
`arab sayyid husayn,,10,34.2130556,45.2319444
`arab shahin,,10,33.5933333,44.5022222
`arab shaikh mehdi,,18,33.9675,44.0725
`arab subakh,,06,32.9833333,44.15
`arab swaidi,,10,33.8452778,44.8486111
`arab tariq al `askari,,07,33.6116667,44.2425
`arab tarki,,01,33.1352778,43.9766667
`arab tuwaijran,,10,33.8333333,44.8
`arab tuwayjiriyin,,10,33.8333333,44.8
`arab `ubayd shamir,,12,32.6597222,44.1655556
`arab `ulwan al hasan,,10,33.9833333,44.7666667
`arab `ulwan hasan,,10,33.9833333,44.7666667
`arab yahuda,,07,33.4333333,44.5666667
`arab yahudah,,07,33.4333333,44.5666667
`arab yasin,,06,32.7602778,44.2405556
`arab zarkosh,,10,34.1425,45.1319444
arab zuhra,,14,31.6,47.1333333
`arab zuhrah,,14,31.6,47.1333333
aradha,,02,30.9166667,47.3166667
aradhi summar,,16,32.65,45.4166667
aradi hubbak al kidhar,,06,32.9166667,44.2002778
aradina,,11,37.1097222,43.3175
aradin,,11,37.1097222,43.3175
aradi shubbak al khidr,,06,32.9166667,44.2002778
aradi summar,,16,32.65,45.4166667
arah din,,11,37.1097222,43.3175
araka,,11,36.9138889,44.5886111
aran,,13,35.1583333,43.4438889
araytu,,14,31.7119444,47.0722222
arba`ilu,,11,36.19,44.0088889
`arba`in,,03,31.0333333,45.6
arbajiyah,,15,36.3688889,43.2019444
arbali,,13,35.5286111,44.4233333
arbat,,05,35.4202778,45.5805556
`arbayin,,03,31.0333333,45.6
arbela,,11,36.19,44.0088889
arbet,,05,35.4202778,45.5805556
arbid,,15,36.1833333,43.0833333
arbil,,11,36.19,44.0088889
archan,,10,34.6530556,44.8180556
ardabil,,11,37.2186111,44.2375
ardamah,,01,32.9722222,40.0913889
ardawel,,11,37.2186111,44.2375
ardhama,,01,32.9722222,40.0913889
ardumah,,01,32.9722222,40.0913889
areda,,08,37.0691667,43.0075
argaba sharqi,,15,35.7413889,43.2755556
argen,,08,36.9291667,43.6175
ar ghaif,,16,32.7833333,45.1333333
argini,,08,37.1833333,42.9
argosh,,11,37.135,44.1794444
`argubah al gharbiyah,,15,35.7686111,43.2847222
`argubah ash sharqiyah,,15,35.7413889,43.2755556
`argub dhiyabah,,10,34.1461111,44.3633333
arhayyah,,15,36.4713889,42.9627778
ari,,11,37.1116667,44.5805556
aridah,,08,37.0691667,43.0075
arifawa,,05,35.4552778,45.4866667
`arij,,15,36.1855556,43.2088889
`arishah,,04,31.9963889,44.6080556
`arish,,15,36.0930556,42.9413889
aritawa,,05,35.4552778,45.4866667
ariz,,10,33.5,45.4666667
arjin,,08,36.9291667,43.6175
arka,,05,36.3555556,45.1797222
arkabah sharqi,,15,35.7413889,43.2755556
arkin,,08,36.9291667,43.6175
ar kubr,,14,31.2897222,47.2125
arkush,,11,37.135,44.1794444
arlis,,08,37.2805556,43.9761111
armisht,,08,37.0472222,42.8027778
armush,,11,36.9986111,44.5922222
armuta,,11,36.0669444,44.6080556
arqush,,11,37.135,44.1794444
ar rabbat,,02,30.5322222,47.8252778
`arrabi,,01,34.0330556,42.4869444
ar rabit,,01,34.4225,41.0458333
arrad al fadhil,,10,34.0108333,44.9016667
ar radwaniyah,,07,33.1894444,44.0086111
ar rafa`iya,,02,30.3594444,47.4044444
ar rafidhiya,,02,30.2833333,47.8
ar rafidiyah,,02,30.2833333,47.8
ar rafi`iyah,,02,30.3594444,47.4044444
ar rahbi,,10,33.6,44.7666667
ar rahhaliya,,12,32.7663889,43.3919444
ar rahhaliyah,,12,32.7663889,43.3919444
ar rahim,,07,32.9091667,44.4608333
ar rahmaniyah,,15,36.1888889,42.8033333
ar rakkah,,10,33.8,44.6
ar ramadi,,01,33.4238889,43.3025
ar ramilat,,10,33.7833333,44.8
ar ramlah,,02,30.5738889,47.7883333
ar raml,,06,32.4758333,44.2088889
arrapha,,13,35.4666667,44.3833333
arrar,,02,31.0372222,47.4288889
ar rasafah,,07,33.3227778,44.4363889
ar rashidiyah,,06,32.4283333,44.4838889
ar rashidiyah,,10,33.5527778,44.3725
ar rasif,,15,36.02,43.2727778
ar ratawi,,02,30.6288889,47.2102778
ar rattawi,,12,31.65,41.7
ar rawashid,,04,31.9861111,45.3713889
ar rawi,,15,35.6666667,42.0311111
ar rayhaniyah,,15,36.3844444,42.89
ar rayyath,,04,31.9588889,44.9377778
ar razazah,,12,32.6838889,43.8986111
ar razzazah,,12,32.6838889,43.8986111
ar ribat,,02,30.5322222,47.8252778
ar ribat as saghir,,02,30.5166667,47.8333333
ar ridwaniyah,,07,33.1894444,44.0086111
ar rifa`i,,09,31.7225,46.1097222
ar rihaniyah,,15,36.3844444,42.89
arripha,,13,35.4666667,44.3833333
ar riyad,,13,35.3,43.9166667
ar rubaydhah,,18,34.7925,43.6119444
ar ruhaiya,,15,36.4713889,42.9627778
ar ruhaymah,,17,31.9588889,44.1030556
ar ruhayyah,,15,36.4713889,42.9627778
ar rumaila,,02,30.5769444,47.355
ar rumaylah,,02,30.2741667,47.3497222
ar rumaylat,,10,33.7833333,44.8
ar rumaythah,,03,31.5261111,45.2063889
ar rummanah,,01,34.4333333,41.1666667
ar rusaynm,,10,33.5,45.2666667
ar rustamiyah,,07,33.2763889,44.5177778
ar rutbah,,01,33.0380556,40.2844444
arshiba,,04,32.0541667,45.2275
arshibah,,04,32.0541667,45.2275
artajah,,01,34.4411111,41.4161111
artash,,08,37.1563889,43.8152778
artis,,08,37.2805556,43.9761111
artish,,08,37.1563889,43.8152778
artun,,02,36.8630556,43.8413889
arundkinar,,02,29.9830556,48.4636111
aruzar,,05,35.6475,45.8108333
arwan,,08,36.8091667,44.1911111
aryan,,11,36.2147222,44.3591667
arzah,,08,37.1380556,43.1855556
arze,,08,37.1380556,43.1855556
as`ad bak,,10,34.3166667,45.25
as`ad bayk,,10,34.3166667,45.25
as`ad beg,,10,34.3166667,45.25
asakala,,05,35.2791667,45.5588889
`asakhir,,09,31.0002778,46.3608333
`asakirah,,09,31.0002778,46.3608333
`asakir,,09,31.0002778,46.3608333
asas,,15,36.8319444,43.2741667
asbih,,15,35.3294444,43.3675
asdah,,18,34.7333333,44.7333333
asehi,,08,37.1944444,43.3547222
asfil,,11,36.7644444,44.4872222
`asfok `abd al `ali,,16,32.5166667,45.8166667
`asfok abdul ali,,16,32.5166667,45.8166667
asfuriya,,09,30.9833333,46.3
asgai,,09,30.8797222,47.0997222
ashan,,08,37.0508333,42.8936111
ashar,,02,30.5183333,47.8402778
ashawa,,08,37.0252778,43.2897222
ashhar,,15,35.4586111,43.2572222
ashhur,,15,35.4586111,43.2572222
ashi baram,,05,35.75,45.6666667
ashiq,,15,36.4475,42.6625
`ashirat al harith,,10,33.5333333,45.5166667
ashizada,,05,36.2080556,45.2338889
ashizara,,05,36.2080556,45.2338889
ashkafkti,,08,36.8975,42.7113889
ashkafta,,08,36.9036111,43.4922222
ashkafta,,11,36.2366667,44.3347222
ashkaftah,,15,36.8238889,43.9372222
ashkaft,,15,36.7791667,43.3172222
ashkaft-e hinduwan,,15,36.7791667,43.3172222
ashkaft-e mara,,08,37.1541667,42.6802778
ashkaft saqah,,11,36.2366667,44.3347222
ashkan,,15,36.6708333,43.5386111
ashkawta,,11,36.4469444,44.4966667
ashkifta,,15,36.8238889,43.9372222
ashokan,,11,36.3211111,43.9311111
ashqolka,,05,36.4130556,45.0286111
ash sha`ald,,09,30.85,46.5333333
ash shabachah,,17,30.8136111,43.6716667
ash shabakah,,17,30.8136111,43.6716667
ash shabaziyah,,02,30.9494444,47.465
ash shabib,,09,30.9338889,46.5291667
ash shabicha,,17,30.8136111,43.6716667
ash shabiji,,02,30.2738889,48.3141667
ash shaffaniyah,,02,31.1333333,47.3333333
ash shafi,,02,30.8561111,47.5286111
ash shafi`iyah,,04,31.9475,44.8416667
ash shaf`iyah,,04,31.9475,44.8416667
ash shahabi,,16,32.8833333,46.425
ash shahban,,02,30.8025,47.6019444
ash shahid sahib ar ramahi,,04,31.8947222,44.9572222
ash shahin,,02,30.9869444,47.4483333
ash shahiyah,,15,36.555,42.9333333
ash shaikh ahmad,,07,33.4833333,44.2833333
ash shaikh hasan as suhail,,01,33.4008333,44.1608333
ash shaikh hasan as suhayl,,01,33.4008333,44.1608333
ash shakk,,15,35.25,43.2833333
ash shalafah,,15,31.6,47.4166667
ash shalafiyah,,04,31.5997222,44.9730556
ash shalchiyah,,07,33.3833333,44.3666667
ash shalikiyah,,07,33.3833333,44.3666667
ash shallah,,04,31.9913889,44.5966667
ash shamah,,01,34.3413889,42.3030556
ash shamikhiyah,,14,31.7055556,47.025
ash shamiya,,04,31.9630556,44.5977778
ash shamiyah,,04,31.9630556,44.5977778
ash shanin,,02,30.9869444,47.4483333
ash sharafiyah,,15,36.6894444,43.0961111
ash sharif,,09,31.0852778,46.1013889
ash sharifiyah,,09,31.0852778,46.1013889
ash sharifiyah,,13,35.4280556,44.1686111
ash shariy`ah,,15,35.3802778,43.63
ash sharqat,,15,35.4586111,43.2572222
ash shatrah,,09,31.4175,46.1772222
ash shawmali,,04,32.3252778,44.9161111
ash shaykh `abbas,,10,34.3761111,45.25
ash shaykh `abbud,,09,31.0588889,46.5788889
ash shaykh `abd al karim,,06,32.5047222,44.3119444
ash shaykh `adi,,15,36.7716667,43.3022222
ash shaykh ahmad,,07,33.4833333,44.2833333
ash shaykh `ali,,06,32.8,44.3666667
ash shaykh `ali,,07,32.8833333,44.2833333
ash shaykhali,,14,31.6308333,47.2086111
ash shaykhan,,15,36.8855556,42.3652778
ash shaykh `aziz al jadu`,,16,32.5961111,45.9644444
ash shaykh chalabi,,10,34.4166667,45.3166667
ash shaykh falih,,14,31.6630556,47.4586111
ash shaykh hamad,,18,33.5669444,44.3197222
ash shaykh hasan as suhayl,,01,33.4008333,44.1608333
ash shaykh hasan as su`ud,,01,33.5166667,44.0666667
ash shaykh husayn shar`,,04,32.1005556,44.8122222
ash shaykh ibrahim as samawi,,06,32.3463889,44.4430556
ash shaykh jabbar,,04,31.65,44.55
ash shaykh jasim,,06,32.7094444,44.3758333
ash shaykh juwi,,14,32.3741667,46.7502778
ash shaykh mansuri,,05,36.0730556,44.7830556
ash shaykhmazhar al falih,,14,31.7972222,47.2941667
ash shaykh mubarak,,10,34.0666667,44.85
ash shaykh nahif,,01,33.5488889,44.1108333
ash shaykh sa`id al `adawani,,10,33.5,45.2666667
ash shaykh salman an nasr allah,,09,31.2013889,46.5338889
ash shaykh shunayf,,10,34.0502778,44.6169444
ash shaykh `uthman,,11,36.6163889,44.9136111
ash shaykh wahib,,18,34.1833333,44.0
ash shaykh wassan,,11,36.4325,44.5572222
ash shebaish,,09,30.9672222,47.0138889
ash sheykh hamad,,18,33.5669444,44.3197222
ash shibli,,16,32.0333333,45.95
ash shihabi,,16,32.8833333,46.425
ash shinafiyah,,04,31.5822222,44.6455556
ash shirwaniyah,,01,34.4883333,41.7877778
ash shu`aybah al qadimah,,02,30.3969444,47.6077778
ash shu`aybah,,02,30.3969444,47.6077778
ash shubaychi,,14,32.2341667,47.2127778
ash shufayjat,,09,31.1333333,46.2833333
ash shuhada',,15,36.3305556,42.8483333
ash shuhaymiyah,,16,32.7005556,44.9702778
ash shu`lah,,07,33.3683333,44.2744444
ash shu`lah,,09,30.85,46.5333333
ash shumrani,,16,32.5322222,45.7538889
ash shurah,,15,35.9930556,43.2205556
ash shurah jadid,,15,35.95,43.2166667
ash shursh,,04,31.8513889,44.5461111
ash shuwayrah,,15,35.9366667,43.2705556
ash shuwayti,,14,31.7758333,47.5294444
ash shuwayyib,,02,30.9616667,47.4944444
ash sukhayri,,09,31.0555556,46.0511111
ashuran,,05,36.2552778,45.0022222
asian,,02,31.0333333,47.3
`asi,,08,37.1697222,42.8283333
asis,,15,36.8319444,43.2741667
askal,,14,31.7511111,47.1427778
askar,,02,30.5183333,47.8402778
`askar,,05,35.8280556,44.9116667
`askar,,06,32.2333333,44.5666667
`askar,,10,33.7813889,45.0713889
`askar,,14,31.7333333,47.15
aski kalak,,11,36.27,43.6355556
aski kalak,,13,36.2636111,43.6480556
aski kifri,,10,34.6333333,44.9
aski kubri,,10,34.3711111,44.8886111
aski kupri,,10,34.3711111,44.8886111
aski mawsil,,15,36.5152778,42.7391667
aski mosul,,15,36.5152778,42.7391667
aski musil,,15,36.5152778,42.7391667
aslan,,02,31.0333333,47.3
asl at tamrah,,09,30.9558333,46.5088889
asmawa,,08,36.8075,43.6541667
asmawah mirza,,15,36.5588889,43.5647222
asmawah mirzah,,15,36.5588889,43.5647222
asmawa mirza,,15,36.5588889,43.5647222
asriya,,06,32.8838889,44.3841667
`asriyah,,06,32.8838889,44.3841667
as sabaghiyah,,15,35.2769444,43.4808333
as sabbaghiyah,,06,32.6561111,44.4733333
as sabbaghiyah,,15,35.2769444,43.4808333
as sabghan,,04,31.9902778,44.5213889
as sabtiya,,10,33.7833333,44.6166667
as sabtiyah,,10,33.7833333,44.6166667
as sabuniyah,,15,36.4069444,42.8922222
as sada,,10,33.7961111,44.6752778
as sadah al hurayj,,04,31.8719444,44.62
as sadah,,06,32.4144444,44.4972222
as sadah,,10,33.7961111,44.6752778
as sadah,,13,35.1797222,44.2236111
as sadah,,15,36.0313889,42.5097222
as sa`dah,,15,36.8122222,42.0919444
as saddah,,09,31.0333333,46.9
as sa`diya,,10,34.1863889,45.1183333
as sa`diyah,,10,34.1863889,45.1183333
as safinah,,11,35.9825,43.3425
as saghir,,09,31.0677778,46.3163889
as sahaji,,15,36.28,42.9436111
as sahi,,04,31.7022222,44.6097222
as sahl,,15,36.5872222,42.4122222
as sa`id,,09,31.0,46.4166667
as saiyid `abdulla,,06,32.2666667,44.55
as saiyid ahmad,,10,33.725,44.4327778
as saiyid `ali an naqib,,10,33.8333333,44.8666667
as saiyid alib,,03,31.3833333,45.3
as saiyid,,10,33.8666667,44.6166667
as saiyid ghazi,,04,32.0666667,45.3166667
as saiyid hamadi,,04,31.9177778,44.895
as saiyid hammadi,,04,31.9177778,44.895
as saiyid hamud al hasan,,09,31.2666667,46.4166667
as saiyid hamud,,04,31.7833333,44.9666667
as saiyid hashim,,06,31.65,44.5833333
as saiyid jabir,,03,31.3088889,45.4525
as saiyid jasim,,03,31.4858333,45.2005556
as saiyid majid,,10,33.8333333,44.85
as saiyid muhammad,,09,31.7833333,45.9666667
as saiyid-muhammad,,10,33.6066667,44.4086111
as saiyid musa,,04,32.0833333,45.3333333
as saiyid rumaidh,,04,32.1422222,45.205
as saiyid taha,,07,33.4,44.3166667
as saiyid taufiq,,16,33.0372222,44.7202778
as saiyid turfa,,09,31.8111111,45.98
as salahiyah,,04,31.8997222,44.5972222
as salam,,14,31.4666667,46.9333333
as salibiyat,,06,33.1952778,44.2475
as salihiyah,,07,33.3166667,44.3833333
`as salihiyah,,14,32.0933333,46.7652778
as salihiyah,,15,36.52,42.4955556
as salihiyah,,18,34.9288889,43.4097222
as salijiyah,,04,32.0177778,44.5477778
as salim,,04,31.5238889,44.8594444
as salman,,03,30.5016667,44.5469444
as salmaniyat,,01,33.3725,44.2288889
as salubi,,18,34.5133333,43.1858333
as samawah,,03,31.3094444,45.2802778
as samhat,,04,31.6777778,44.9230556
as sammah,,01,34.4433333,41.2027778
as saniyah,,04,32.0616667,44.7722222
as sanqar,,02,30.4638889,47.9391667
as saqlawiyah,,01,33.3963889,43.6833333
as sarifah,,02,31.2,47.4166667
as sarraji,,02,30.4883333,47.8513889
as sawrah,,06,32.5666667,44.4
as saybah,,02,30.3333333,48.25
as sayhudah,,04,31.7275,44.5588889
as saykal,,14,31.2694444,46.9736111
as sayqal,,14,31.2694444,46.9736111
as sayyid `abbas,,04,31.4033333,44.8375
as sayyid `abbas,,10,33.9666667,44.6666667
as sayyid `abd allah,,06,32.2666667,44.55
as sayyid `abd,,04,32.1486111,44.8577778
as sayyid adib,,03,31.3833333,45.3
as sayyid ahlil,,04,32.0508333,44.6908333
as sayyid ahmad,,10,33.725,44.4327778
as sayyid `ali an naqib,,10,33.8333333,44.8666667
as sayyid `alil,,03,31.3833333,45.3
as sayyid,,09,31.0,46.4166667
as sayyid,,10,33.8666667,44.6166667
as sayyid `aziz,,16,32.2111111,45.98
as sayyid ghazi,,04,32.0666667,45.3166667
as sayyid habib,,04,32.0102778,44.4975
as sayyid habib,,06,32.5166667,44.2833333
as sayyid hadi,,06,32.4636111,44.1944444
as sayyid hammadi,,04,31.9177778,44.895
as sayyid hammud al hasan,,09,31.2666667,46.4166667
as sayyid hamud al hasan,,09,31.2666667,46.4166667
as sayyid hamud,,04,31.7833333,44.9666667
as sayyid hani as sayyid hadi,,04,32.2755556,45.0583333
as sayyid hasan,,16,32.2833333,45.9333333
as sayyid hashim,,06,31.65,44.5833333
as sayyid hassun,,17,31.7416667,44.4805556
as sayyid idris,,04,31.7,44.5166667
as sayyid jabir,,04,31.9833333,44.8166667
as sayyid jasim,,03,31.4858333,45.2005556
as sayyid jasim,,04,31.9811111,44.8366667
as sayyid mahdi al tufayjah,,06,32.35,44.2833333
as sayyid mahdi,,06,32.4936111,44.2383333
as sayyid mahdi,,09,31.1236111,45.9016667
as sayyid majid,,10,33.8333333,44.85
as sayyid mansur,,16,32.4666667,45.9166667
as sayyid muhammad `ali,,06,32.3677778,44.2569444
as sayyid muhammad,,09,31.7833333,45.9666667
as sayyid muhij,,16,32.2322222,45.9222222
as sayyid muhsim abu tabikh,,04,31.6688889,45.0247222
as sayyid murhij,,16,32.2322222,45.9222222
as sayyid musa,,04,32.0833333,45.3333333
as sayyid qasim,,12,32.7166667,44.1833333
as sayyid rahman,,04,32.0233333,44.6797222
as sayyid rida',,06,32.5636111,44.6197222
as sayyid rumayd,,04,32.1422222,45.205
as sayyid sabih,,04,31.75,44.9833333
as sayyid sabihih,,04,31.75,44.9833333
as sayyid sha`lan,,06,32.5475,44.6794444
as sayyid tafi,,04,31.9113889,44.7908333
as sayyid taha',,07,33.4,44.3166667
as sayyid tawfiq,,16,33.0372222,44.7202778
as sayyid turfah,,09,31.8111111,45.98
as sayyid `usfur as sayyid safi,,04,31.9113889,44.7908333
as sayyid `usfur,,04,31.8166667,44.95
as sayyid yasir al hamud,,03,31.25,45.5333333
as sayyid yasir,,04,31.6833333,44.5333333
as sharif,,09,31.4,46.2833333
as sharifiya,,09,31.0852778,46.1013889
as sharit,,09,31.4,46.2833333
as si'adah,,10,33.4333333,45.2166667
as sibah,,02,30.3333333,48.25
as sih,,02,31.1166667,47.4333333
as sila,,09,31.0333333,46.0166667
as sindiyah,,10,33.8763889,44.4425
as siniyah,,01,33.8088889,42.7197222
as siniyah,,18,34.9277778,43.4041667
as sinniyah,,04,32.0616667,44.7722222
as sudan,,14,31.4166667,47.2666667
as sudayrah,,02,30.3647222,47.6047222
as sudayr,,04,31.8261111,44.9477778
as sulaikh,,07,33.3972222,44.3572222
as sulayb,,14,31.3,47.4
as sulayhat,,17,31.7447222,44.5172222
as sulaykh,,07,33.3972222,44.3572222
as sulaymaniyah,,01,34.1497222,42.3819444
as sulaymaniyah,,05,35.5616667,45.4408333
as summakah,,09,31.1869444,46.8736111
as suqayt,,10,34.0336111,44.3169444
as suraydat,,09,33.4383333,44.3519444
as suwari,,01,34.325,42.2722222
as suwayb,,02,30.9616667,47.4944444
as suwayda±`,,02,30.9833333,47.4333333
as suwaydi,,06,33.1330556,44.3577778
as suwayjid,,02,30.8572222,47.5516667
as suwaynikh,,01,34.0161111,42.5125
as suwayrah,,16,32.9255556,44.7758333
as suwayr,,03,31.3113889,45.4080556
as suwayyib,,02,30.9616667,47.4944444
asta,,11,36.8747222,44.0975
astel [2],,05,35.2452778,45.4036111
astel,,05,35.2758333,45.4447222
asterik,,05,35.8011111,45.5911111
asterilan,,05,36.2527778,44.8091667
asteriyan,,15,36.6191667,44.1575
asterokan,,05,36.4330556,44.9719444
asumra,,08,36.8172222,44.0702778
aswad,,07,33.8263889,44.5613889
aswadi,,03,31.4052778,45.2330556
asyahi,,08,37.1944444,43.3547222
atahiral ikhlaywi,,09,31.2972222,46.5677778
`ataij,,06,32.4547222,44.4486111
`ataq,,14,31.6772222,47.1716667
atawa al qadima,,03,31.345,45.43
atawa,,03,31.345,45.43
`atawah al qadimah,,03,31.345,45.43
`atawah,,03,31.345,45.43
`atayij,,06,32.4547222,44.4486111
athar qaryat amri,,12,32.3752778,42.2688889
athia,,17,32.0333333,44.0666667
ath tha`alba,,07,33.4108333,44.3030556
ath tha`alibah,,07,33.4108333,44.3030556
ath thabandar,,14,31.7413889,47.1594444
ath tha`labah,,07,33.4108333,44.3030556
ath thaweta,,03,31.3166667,45.6166667
ath thawih,,03,31.3166667,45.6166667
ath thuwayn,,03,31.3166667,45.6166667
aththuwayyah,,03,31.3166667,45.6166667
`ati haji `alwan,,04,32.0425,44.7872222
`atirah,,15,35.5097222,43.8144444
`atiya al `abid,,10,33.9833333,44.8333333
`atiyah al `ali,,01,33.485,44.3025
`atiyah,,14,31.2736111,46.96
`atiyah hilal,,18,34.4947222,43.4805556
`atiyat al `abbas,,17,31.9166667,44.3666667
`atiyat al `abd,,10,33.9833333,44.8333333
atlas ash shahin,,03,31.3527778,45.3680556
