names,population,state_code,lat,lon
12 de agosto,,01,-33.7833333,-60.6
12 de octubre,,01,-35.6,-60.9
16 de julio,,01,-37.1833333,-60.1666667
17 de agosto,,01,-37.9166667,-62.9333333
17 de octubre,,05,-31.3833333,-64.1833333
1 de mayo,,08,-32.2666667,-68.4166667
20 de febrero,,17,-25.4166667,-65.5333333
20 de septiembre,,08,-32.3833333,-59.6666667
20 de setiembre,,08,-32.3833333,-59.6666667
23 de agosto,,10,-23.7666667,-64.6833333
24 de febrero,,01,-34.5333333,-63.1666667
25 de mayo,,01,-35.4280556,-60.1741667
25 de mayo,,11,-37.8,-67.6833333
25 de mayo,,13,-34.5833333,-68.55
25 de mayo,,14,-27.3833333,-54.7666667
28 de noviembre,,20,-51.65,-72.3
28 de septiembre,,01,-34.6,-58.6333333
2 de mayo,,14,-27.0333333,-54.65
30 de agosto,,01,-36.2666667,-62.55
3 de mayo,,13,-32.6666667,-68.6166667
4 de febrero,,21,-33.8,-61.5833333
4 de noviembre,,01,-34.15,-60.8
6 de septiembre,,01,-34.6425,-58.6180556
7 de abril,,24,-26.2833333,-64.4833333
9 de julio,,01,-35.4541667,-60.8913889
9 de julio,,06,-28.8333333,-58.8333333
9 de julio,,18,-31.65,-68.4
aaron castellanos,,21,-34.3166667,-62.3833333
abasto,,01,-34.9761111,-58.0972222
abbott,,01,-35.2833333,-58.8
abdon castro tolay,,10,-23.3666667,-66.0666667
abel,,01,-35.6,-62.0166667
aberastain,,18,-31.65,-68.5833333
abra del medio,,22,-28.5333333,-64.85
abra grande,,22,-27.2833333,-64.3666667
abra laite,,10,-23.2,-65.7833333
abramo,,11,-37.8833333,-63.85
abra pampa,,10,-22.7166667,-65.7
abra rica,,24,-27.1333333,-64.8833333
a. brown,,01,-34.7880556,-58.4038889
acambuco,,17,-22.1833333,-63.95
a. carboni,,01,-35.2,-59.3333333
acassuso,,01,-34.4833333,-58.5166667
a. castellanos,,21,-34.3166667,-62.3833333
a. castro tolay,,10,-23.3666667,-66.0666667
acebal,,21,-33.2333333,-60.8333333
a. ceballos,,11,-35.3,-63.7666667
acequiones,,24,-26.3,-65.2666667
acevedo,,01,-33.75,-60.45
achalco,,02,-28.3666667,-65.1666667
acheral,,24,-27.1166667,-65.45
achico,,15,-40.3333333,-70.3333333
achiras,,05,-33.1666667,-65.0
achupallas,,01,-35.1,-60.0666667
achuppallas,,01,-35.1,-60.0666667
acoite,,17,-22.2833333,-65.0166667
a. corti,,01,-38.6166667,-62.05
acosta,,17,-25.5,-65.2333333
acostilla,,24,-27.3,-65.2
acostillas,,24,-27.3,-65.2
acuna,,06,-29.9166667,-57.9666667
adan quiroga,,18,-30.7325,-68.6352778
adela,,01,-35.6833333,-57.9666667
adela corti,,01,-38.6166667,-62.05
a. de la cruz,,01,-34.3333333,-59.1166667
adelia maria,,05,-33.6166667,-64.0333333
a. de toledo,,01,-35.6333333,-59.6166667
adolfo alsina,,01,-37.1833333,-62.7333333
adolfo e. carranza,,02,-29.0333333,-66.0166667
adolfo gonzales chaves,,01,-38.0333333,-60.1
adolfo van praet,,11,-35.0166667,-64.05
a.e. carranza,,02,-29.0333333,-66.0166667
aerolito,,22,-27.2333333,-62.3833333
a. etcheverry,,01,-35.0333333,-58.0666667
a. gascon,,01,-37.4666667,-63.2666667
a. gazcon,,01,-37.4666667,-63.2666667
agote,,01,-34.6333333,-59.3666667
agrelo,,13,-33.1166667,-68.8833333
agronomia,,07,-34.6,-58.4833333
agua azul,,22,-26.5333333,-64.1666667
agua blanca,,12,-28.9666667,-66.9833333
agua blanca,,17,-22.7333333,-64.3666667
agua caliente,,10,-23.05,-65.7833333
agua calientes,,10,-24.5833333,-64.9166667
agua chica,,10,-22.9166667,-65.7333333
agua colorada,,12,-30.9,-66.2
aguada cecilio,,16,-40.85,-65.85
aguada chos malal,,11,-36.7666667,-68.15
aguada de castro,,15,-37.7833333,-69.9333333
aguada de guerra,,16,-41.0666667,-68.4166667
aguada de guerro,,16,-41.0666667,-68.4166667
aguada de guzman,,16,-39.9833333,-68.8666667
aguada del toro,,13,-36.6333333,-68.5333333
aguada grande,,20,-47.3333333,-67.4833333
agua de canale,,15,-38.2,-69.4333333
agua de castro,,15,-37.7833333,-69.9333333
agua de las palomas,,02,-27.6166667,-66.1333333
agua de las piedras,,05,-30.8166667,-64.2
agua del chanar,,05,-30.7166667,-64.1
agua del overo,,15,-39.3,-70.1166667
agua del tala,,05,-31.25,-65.3333333
agua de oro,,05,-31.0666667,-64.3
agua de ramon,,05,-30.7833333,-65.35
aguadita,,10,-23.7666667,-65.9166667
aguadita,,12,-29.3166667,-68.7
aguaditas,,12,-29.0833333,-68.1
agua dulce,,24,-27.0333333,-65.0166667
agua escondida,,13,-36.15,-68.3
agua nueva,,13,-34.9666667,-69.15
aguapey,,06,-29.0833333,-56.6
aguaray,,17,-22.2666667,-63.7333333
aguas blancas,,17,-22.7333333,-64.3666667
aguas buenas,,11,-35.0166667,-63.9333333
aguas de ramon,,05,-30.7833333,-65.35
aguas muertas,,17,-24.2,-62.6833333
agua sucia,,17,-24.45,-63.8333333
aguay,,06,-29.2666667,-58.5333333
aguayo,,12,-31.6666667,-65.9
aguila blanca,,05,-30.8666667,-64.5666667
aguilar,,10,-23.2,-65.7
aguilar,,17,-22.3666667,-65.1833333
aguilares,,24,-27.4333333,-65.6166667
aguirre,,21,-33.15,-60.5166667
aguirres,,12,-30.8,-66.1
agustina,,01,-34.4666667,-61.0666667
agustina libarona,,22,-26.7666667,-62.7166667
agustin libarona,,22,-26.7666667,-62.7166667
agustin livarona,,22,-26.7666667,-62.7166667
agustin roca,,01,-34.5,-60.85
agustoni,,11,-35.7833333,-63.4
ahi veremos,,05,-29.55,-64.15
ahi veremos,,22,-25.8666667,-63.9666667
ahrenfeld,,15,-40.1166667,-70.7333333
aibar,,02,-29.1166667,-65.35
aicuna,,12,-29.5166667,-67.75
aike,,20,-51.65,-69.5833333
aike guer,,20,-51.65,-69.5833333
aimogasta,,12,-28.55,-66.8166667
aive,,22,-27.6,-64.2666667
ajo,,01,-36.4,-56.9666667
alabahama,,24,-26.8,-64.95
alagon,,01,-35.95,-61.9666667
alamos,,01,-36.9,-62.35
alanices,,12,-30.7666667,-65.9833333
alastuey,,01,-34.4166667,-59.2166667
alba posse,,14,-27.55,-54.7
albardon,,18,-31.4372222,-68.5255556
albarellos,,21,-33.2333333,-60.6333333
albarino,,01,-36.05,-62.1166667
alberdi,,01,-34.4333333,-61.8
alberdi,,21,-32.8833333,-60.7
alberdi viejo,,01,-34.45,-61.8833333
alberti,,01,-35.0333333,-60.2666667
albigasta,,02,-28.5833333,-65.2333333
alcaraz,,08,-31.4666667,-59.6
alcazar,,12,-30.3333333,-66.5666667
alcira,,05,-32.75,-64.3333333
alcorta,,21,-33.5333333,-61.1166667
aldao,,05,-33.1166667,-62.1
aldao,,21,-32.7166667,-60.8166667
aldea,,04,-45.55,-71.5333333
aldea apeleg,,04,-44.6833333,-70.85
aldea appeleg,,04,-44.6833333,-70.85
aldea asuncion,,08,-32.8166667,-59.2333333
aldea brasilera,,08,-31.9,-60.6
aldea brava,,08,-32.1166667,-60.5833333
aldea camarero,,08,-32.0666667,-60.4666667
aldea chaleco,,08,-31.9833333,-60.35
aldea chavez,,08,-32.1333333,-60.3333333
aldea cuatro casas,,08,-32.0,-60.3833333
aldea cuesta,,08,-31.95,-60.25
aldea de las aranas,,08,-31.95,-60.6333333
aldea el chaleco,,08,-31.9833333,-60.35
aldea jacobi,,08,-32.05,-60.2833333
aldea jaroslawky,,08,-31.85,-60.1666667
aldea kranevitter,,08,-32.0333333,-60.45
aldea krapzenthal,,08,-31.95,-60.4833333
aldea la asuncion,,08,-32.8166667,-59.2333333
aldea la primavera,,13,-32.9166667,-68.6666667
aldea maria luisa,,08,-31.8833333,-60.3833333
aldea nueva,,08,-31.8666667,-60.2333333
aldea protestante,,08,-32.0333333,-60.5666667
aldea reffino,,08,-31.8,-60.2333333
aldea reflino,,08,-31.8,-60.2333333
aldea repollo,,08,-32.0166667,-60.35
aldea romana,,01,-38.7,-62.2166667
aldea ruiz moreno,,08,-32.1333333,-60.3833333
aldea salto,,08,-31.95,-60.55
aldea san alfonso,,08,-32.1333333,-60.4
aldea san antonio,,08,-32.6333333,-58.7
aldea san francisco,,08,-31.95,-60.6333333
aldea san gregorio,,08,-31.7166667,-58.2666667
aldea san jose,,08,-32.0166667,-60.3166667
aldea san juan,,08,-32.7,-58.7666667
aldea san miguel,,08,-32.0833333,-60.1666667
aldea san simon,,08,-32.4166667,-59.5166667
aldea santa anita,,08,-32.1666667,-58.7833333
aldea santa celia,,08,-32.6666667,-58.7333333
aldea santa maria,,08,-31.6,-60.0
aldea santa rosa,,08,-32.0166667,-60.2333333
aldea spatzenkutter,,08,-31.9166667,-61.5833333
aldea spazzenkuter,,08,-31.9166667,-61.5833333
alderetes,,24,-26.8166667,-65.1333333
aldo bonzi,,01,-34.7,-58.5166667
a. ledesma,,05,-33.6166667,-62.6166667
alegre,,01,-35.45,-58.2666667
alejandra,,21,-29.9,-59.8333333
alejandro,,05,-33.35,-63.7166667
alejandro korn,,01,-34.9827778,-58.3825
alejandro petion,,01,-34.9769444,-58.6869444
alejandro roca,,05,-33.35,-63.7166667
alejandro stefenelli,,16,-39.05,-67.5333333
alejo ledesma,,05,-33.6166667,-62.6166667
alem,,01,-34.5,-61.4
alemania,,17,-25.6,-65.6333333
alem cue,,06,-29.15,-57.4666667
alen cue,,06,-29.15,-57.4666667
alfarcito,,10,-23.5833333,-65.35
alferez san martin,,01,-38.6333333,-62.5333333
alfonso,,01,-33.9166667,-60.8333333
alfonso loma,,06,-28.9666667,-58.1666667
alfredo pena,,11,-35.9333333,-63.5166667
algarrobal,,13,-32.8166667,-68.7666667
algarrobal,,17,-25.4166667,-64.0333333
algarrobal viejo,,22,-25.7166667,-64.0333333
algarroba verde,,18,-31.7333333,-68.3
algarrobitos,,08,-32.2833333,-60.0666667
algarrobo,,01,-38.8833333,-63.1333333
algarrobo del aguila,,11,-36.4333333,-67.15
algarrobo del aguilla,,11,-36.4333333,-67.15
algarrobo grande,,12,-31.6666667,-65.9
algarrobo grande,,19,-32.5833333,-66.7833333
algarrobos grandes,,19,-32.9333333,-66.5666667
algarrobo verde,,18,-31.7333333,-68.3
alhuampa,,22,-27.1166667,-62.5666667
alicia,,05,-31.95,-62.4833333
alijilan,,02,-28.15,-65.4833333
allen,,16,-38.9666667,-67.8333333
alli veremos,,22,-27.4333333,-64.1333333
almacen la picaza,,15,-39.5833333,-70.1333333
almafuerte,,05,-32.2,-64.25
almafuerte,,14,-27.5166667,-55.4
almagro,,07,-34.6,-58.4166667
almirante brown,,01,-34.7880556,-58.4038889
almirante brown,,07,-34.6666667,-58.45
almirante brown,,17,-25.9,-64.7666667
almirante brown,,23,-54.85,-67.5166667
almirante solier,,01,-38.8833333,-62.0666667
almona,,17,-25.9666667,-64.5166667
alpachiri,,11,-37.3666667,-63.7666667
alpachiri,,24,-27.3333333,-65.75
alpa corral,,05,-32.6833333,-64.7333333
alpasinche,,12,-28.3166667,-67.05
alpatacal,,13,-33.5666667,-67.2666667
alsa,,19,-32.5,-65.45
alsina,,01,-33.9,-59.3833333
alta cordoba,,05,-29.8,-63.6166667
alta de la piedra,,05,-31.6,-64.3666667
alta gracia,,02,-28.0166667,-65.1666667
alta gracia,40385,05,-31.6666667,-64.4333333
alta gracia,,24,-26.7166667,-65.1333333
alta italia,,11,-35.3666667,-64.1333333
altamira,,01,-34.6666667,-59.3666667
altamirano,,01,-35.35,-58.15
altamirano norte,,08,-32.0666667,-59.1833333
altamirano sud,,08,-32.0833333,-59.1666667
altamirano sur,,08,-32.0833333,-59.1666667
altautina,,05,-31.7833333,-65.1666667
alta vista,,01,-37.6666667,-62.7166667
alto alegre,,05,-32.35,-62.8833333
alto alegre,,09,-25.55,-59.85
alto alegre,,22,-28.4166667,-64.8666667
alto cordoba,,05,-31.3833333,-64.1833333
alto de flores,,05,-30.4,-64.0333333
alto de flores,,17,-22.7333333,-62.5
alto de la esquina,,02,-29.1,-65.5833333
alto de la piedra,,05,-31.6,-64.3666667
alto de la sierra,,17,-22.7333333,-62.5
alto de las lechuzas,,24,-27.3833333,-65.2666667
alto del mistol,,17,-25.2833333,-64.1166667
alto del pelador,,10,-22.4166667,-65.4666667
alto del salvador,,13,-33.0333333,-68.3666667
alto del tala,,05,-31.3833333,-65.2
alto de medina,,24,-26.3666667,-65.05
alto de san pedro,,05,-31.05,-64.4666667
alto de sierra,,17,-22.7333333,-62.5
alto de sierra,,18,-31.5333333,-68.4166667
alto fresco,,05,-30.9166667,-64.3
alto la torre,,10,-24.2666667,-65.1333333
alto la vina,,10,-24.2,-65.2666667
alto lindo,,19,-32.75,-65.25
altona,,01,-36.4666667,-60.1166667
alto pelado,,19,-33.8333333,-66.15
alto pencoso,,19,-33.4333333,-66.9333333
alto pozo,,22,-27.3666667,-64.4666667
alto rio mayo,,04,-45.55,-71.3
alto rio senguer,,04,-45.0333333,-70.8333333
alto rio senguerr,,04,-45.0333333,-70.8333333
altos,,02,-28.05,-65.4666667
alto san pedro,,05,-31.05,-64.4666667
altos de chipion,,05,-30.95,-62.35
altos del olvido,,13,-32.65,-68.55
alto verde,,05,-30.1833333,-64.1166667
alto verde,,13,-33.15,-68.35
alto verde,,21,-31.6666667,-60.6833333
alto verde,,24,-27.3666667,-65.6
alumbrera,,02,-27.5166667,-66.0333333
alumbrera,,12,-28.6833333,-69.15
alumine,,15,-39.2166667,-70.95
alvarado,,17,-24.85,-65.4666667
alvarez,,21,-33.1333333,-60.8
alvarez de toledo,,01,-35.6333333,-59.6166667
alvarez jonte,,01,-35.3166667,-57.4666667
alvarino,,01,-36.05,-62.1166667
alvear,,06,-29.1,-56.55
alvear,,21,-33.0666667,-60.6166667
alzaga,,01,-37.8666667,-59.95
amadores,,02,-28.2833333,-65.65
amaicha,,24,-26.6,-65.9166667
amaicha del valle,,24,-26.6,-65.9166667
amalia,,01,-35.4666667,-61.0333333
amama,,22,-27.2,-63.05
amana,,02,-28.9333333,-65.5166667
amana,,12,-30.0666667,-67.5166667
amanal,,02,-28.9333333,-65.5166667
amanao,,02,-27.55,-66.5166667
amapola,,22,-27.3666667,-64.8666667
ambargasta,,22,-29.05,-63.95
amberes,,17,-22.5166667,-62.5333333
ambil,,12,-31.1333333,-66.35
amboy,,05,-32.1833333,-64.5833333
ambrosetti,,21,-30.0166667,-61.5833333
ambul,,05,-31.4833333,-65.05
ameghino,,01,-34.8333333,-62.45
ameghino,,07,-43.8,-65.75
amenabar,,21,-34.1333333,-62.4
amicha,,22,-27.6333333,-64.85
aminga,,12,-28.8333333,-66.9
amoschina,,12,-28.5833333,-67.1833333
ampacama,,08,-30.95,-67.9333333
ampajango,,02,-26.9,-66.0666667
ampallo,,02,-28.1666667,-65.1333333
ampascachi,,17,-25.3333333,-65.5333333
ampata,,24,-27.45,-65.2166667
ampatilla,,24,-27.4833333,-65.0666667
ampolla,,02,-28.1666667,-65.1333333
amuschina,,12,-28.5833333,-67.1833333
anana,,02,-28.9333333,-65.5166667
anasagasti,,01,-35.0166667,-59.4
anatuya,,22,-28.4666667,-62.8333333
ana zumaran,,05,-32.4,-63.0666667
ancajan,,22,-28.4333333,-64.9333333
ancajuli,,24,-26.5833333,-65.5666667
ancasti,,02,-28.8166667,-65.5
anchico nuevo,,12,-29.6333333,-66.3833333
anchorena,,01,-34.4833333,-58.4833333
anchorena,,19,-35.6833333,-65.45
anchoris,,13,-33.3333333,-68.9166667
ancom,,01,-35.5666667,-61.85
ancon,,01,-35.5666667,-61.85
ancon,,13,-33.2833333,-69.1833333
andacollo,,15,-37.1833333,-70.6833333
andaguala,,02,-26.8666667,-66.0333333
andalgala,,02,-27.6,-66.3166667
andalhuala,,02,-26.8666667,-66.0333333
andalucas,,12,-28.5833333,-67.1833333
andant,,01,-36.5666667,-62.1166667
anderson,,01,-35.2833333,-60.2666667
andino,,21,-32.6666667,-60.8833333
andrade,,08,-32.3333333,-59.45
andrade,,13,-33.1833333,-68.5166667
anelo,,15,-38.35,-68.7833333
anfama,,24,-26.75,-65.5833333
anga,,22,-29.0166667,-63.35
angastaco,,17,-25.6333333,-66.1833333
angel etcheverry,,01,-35.0333333,-58.0666667
angelica,,21,-31.55,-61.55
angostaco,,17,-25.6333333,-66.1833333
angostura,,17,-22.2,-63.6333333
angua,,06,-28.3333333,-58.6
angualasto,,18,-30.05,-69.15
anguilan,,12,-29.2,-67.4666667
anguil,,11,-36.5166667,-64.0166667
anguinan,,12,-29.2,-67.4666667
anguincila,,02,-28.7666667,-65.55
angulas,,12,-28.6333333,-67.6333333
anguli,,22,-27.6,-64.8666667
angulos,,12,-28.6333333,-67.6333333
anillaco,,12,-28.8,-66.95
animana,,17,-25.9833333,-65.9666667
animan,,12,-28.85,-66.95
animan,,22,-29.45,-63.9
animas,,17,-25.1166667,-65.6166667
anisacate,,05,-31.7333333,-64.4
anizacate,,05,-31.7333333,-64.4
anjuli,,02,-28.6833333,-65.2666667
anjuli,,22,-27.6,-64.8666667
anjulio,,02,-28.6833333,-65.2666667
anjullan,,12,-28.7166667,-66.9333333
anjullon,,12,-28.7166667,-66.9333333
anjullor,,12,-28.7166667,-66.9333333
anquincila,,02,-28.7666667,-65.55
anta,,17,-24.9166667,-64.4666667
antaje,,22,-27.6166667,-64.2666667
antapoca,,02,-28.5333333,-65.7666667
antartida argentina,,21,-32.9333333,-60.7333333
antelo,,08,-32.5333333,-60.05
antiguo tucuman,,24,-27.2166667,-65.5833333
antiguyo,,10,-22.7166667,-66.35
antilla,,17,-26.1166667,-64.6
antinaco,,02,-27.2,-67.6
antinaco,,12,-28.8166667,-67.3166667
antiuyo,,10,-22.7166667,-66.35
antofagasta de la sierra,,02,-26.0666667,-67.4166667
antofalla,,02,-25.5166667,-67.6833333
antonio carboni,,01,-35.2,-59.3333333
antonio de biedma,,20,-47.4833333,-66.5
antonio maya,,01,-35.6263889,-61.3602778
antonio pini,,21,-29.0666667,-61.7333333
antonio quijarro,,17,-22.8333333,-63.85
antonio tomas,,08,-31.4166667,-60.05
antuco,,22,-29.4833333,-63.7166667
anzoategui,,11,-38.9666667,-63.85
anzulon,,12,-30.8666667,-66.2833333
aparicio,,01,-38.6166667,-60.8666667
apayerey,,09,-24.9833333,-58.7
apeadero cochabamba,,17,-26.05,-64.6333333
apeadero punke,,01,-35.4666667,-58.9833333
apeleg,,04,-44.6,-71.1
a. pena,,11,-35.9333333,-63.5166667
a. pessagno,,01,-35.8,-57.8
apipe,,06,-27.5166667,-56.7333333
apolinario saravia,,17,-24.4166667,-64.0333333
apostoles,,14,-27.9166667,-55.7666667
apuyaco,,02,-28.3,-66.15
a. quiroga,,18,-30.7325,-68.6352778
aragon,,01,-35.95,-61.9666667
aragones,,22,-27.5,-64.7
arana,,01,-35.0,-57.9
aranguren,,08,-32.25,-60.1666667
arano,,01,-37.0833333,-63.2666667
araoz,,24,-27.05,-64.9333333
arata,,11,-35.6333333,-64.3333333
arauca,,12,-28.5833333,-66.7833333
arauco,,12,-28.5833333,-66.7833333
araujo,,01,-35.3,-60.3333333
arbol blanco,,05,-30.1333333,-64.7333333
arbol blanco,,22,-26.8333333,-61.9833333
arboledas,,01,-36.8833333,-61.4833333
arboles grandes,,24,-27.7,-65.0
arbolito,,01,-33.9166667,-60.9333333
arbolito,,02,-28.6833333,-65.75
arbol solo,,19,-32.5,-66.5
arbol solo,,22,-28.7333333,-64.8333333
arbol solo,,24,-27.0166667,-64.9666667
arcadia,,24,-27.3,-65.5666667
ardiles,,22,-27.4,-64.5
arenal,,17,-25.9166667,-65.1166667
arenales,,01,-34.2833333,-61.2833333
arenaza,,01,-34.9666667,-61.7666667
arequito,,21,-33.15,-61.4666667
arerungua,,06,-27.5833333,-57.4666667
argentina,,22,-29.55,-62.2833333
argerich,,01,-38.7666667,-62.6166667
arguello,,05,-31.35,-64.25
arias,,05,-33.6333333,-62.4166667
ariel,,01,-36.5333333,-59.9
aristobulo del valle,,14,-27.1166667,-54.9166667
arizona,,19,-35.7166667,-65.3
arminda,,21,-33.2666667,-60.9666667
armindo,,21,-33.2666667,-60.9666667
armonia,,22,-27.2833333,-63.2166667
armstrong,,21,-32.7816667,-61.6077778
a. roca,,01,-34.5,-60.85
arocena,,21,-32.0833333,-60.9666667
arraga,,22,-28.0666667,-64.2333333
arrecifes,,01,-34.05,-60.1166667
arribenos,,01,-34.2166667,-61.3666667
arrocera,,06,-28.9,-56.3333333
arrocera san luis,,06,-28.6833333,-56.1833333
arroyito,,05,-31.4166667,-63.05
arroyito,,13,-32.8333333,-67.3
arroyito,,15,-39.0833333,-68.5833333
arroyito,,19,-32.3666667,-65.3666667
arroyito,,21,-32.9166667,-60.6833333
arroyito challaco,,15,-39.0833333,-68.5833333
arroyo algodon,,05,-32.2,-63.1666667
arroyo baru,,08,-31.8666667,-58.4333333
arroyo blanco,,15,-37.2666667,-70.2833333
arroyo cabral,,05,-32.4833333,-63.3833333
arroyo cle,,08,-32.6333333,-59.4
arroyo colorado,,10,-24.35,-64.6833333
arroyo corto,,01,-37.5,-62.3333333
arroyo de alvarez,,05,-31.55,-63.2166667
arroyo de la cruz,,01,-34.3333333,-59.1166667
arroyo de la ventana,,16,-41.6666667,-66.1
arroyo del medio,,01,-33.5833333,-60.7833333
arroyo del medio,,08,-31.2666667,-59.1
arroyo del medio,,14,-27.7,-55.4166667
arroyo de los heros,,01,-36.3333333,-59.7666667
arroyo de los huesos,,01,-37.0166667,-59.55
arroyo dulce,,01,-34.0833333,-60.4
arroyo los berros,,16,-41.4666667,-65.9666667
arroyo nevado,,01,-37.1,-62.55
arroyo parejas,,01,-38.9333333,-62.0666667
arroyo pescado,,07,-43.0,-70.7666667
arroyo ponton,,06,-27.6166667,-58.5666667
arroyo seco,,21,-33.15,-60.5166667
arroyo tomas,,14,-27.65,-55.6333333
arroyo urquiza,,08,-32.3833333,-58.2333333
arroyo venado,,01,-37.1,-62.55
arroyo verde,,04,-42.0,-65.1
arroyo verde,,16,-41.9166667,-66.1666667
arrufo,,21,-30.25,-61.75
arruto,,21,-30.25,-61.75
arteaga,,21,-33.0833333,-61.8
artigal,,17,-22.1833333,-64.9166667
arturo segui,,01,-34.8780556,-58.1358333
arturo vatteone,,01,-37.2,-62.8333333
asamblea,,01,-35.2166667,-60.4166667
ascasubi,,05,-32.1666667,-63.8833333
ascension,,01,-34.2166667,-61.1166667
ascochinga,,05,-30.95,-64.2666667
a. segui,,01,-34.8780556,-58.1358333
assunta,,05,-33.6333333,-63.2
a. stefenelli,,16,-39.05,-67.5333333
astica,,18,-30.9333333,-67.3833333
astra,,04,-45.7333333,-67.5
astra,,15,-38.8666667,-69.0833333
asturias,,01,-36.1666667,-61.8833333
atahona,,05,-30.8833333,-63.6833333
atahona,,24,-27.4166667,-65.2833333
atahualpa,,01,-36.3,-62.2
atalaya,,01,-35.0333333,-57.5333333
ataliva,,21,-30.9833333,-61.45
ataliva roca,,11,-37.0166667,-64.2833333
atamisqui,,22,-28.4833333,-63.8
atencio,,08,-30.6333333,-58.6333333
atiles,,12,-30.7666667,-66.6666667
atilio pessagno,,01,-35.8,-57.8
atos pampa,,05,-31.9833333,-64.7
atrauco,,11,-37.1333333,-63.8166667
atreuco,,11,-37.1333333,-63.8166667
atucha,,01,-33.9666667,-59.3
atuel sud,,13,-34.8333333,-67.9
auca mahuida,,15,-37.8833333,-68.5166667
augustin roca,,01,-34.5,-60.85
aurelia,,21,-31.3666667,-61.35
aurelia norte,,21,-31.3666667,-61.35
aurelia sud,,21,-31.4166667,-61.4166667
aurelia sur,,21,-31.4166667,-61.4166667
ausonia,,05,-32.65,-63.2333333
avalos,,06,-29.5666667,-58.25
a. van praet,,11,-35.0166667,-64.05
avellaneda,,01,-34.6505556,-58.3822222
avellaneda,,05,-30.5833333,-64.2
avellaneda,,14,-26.65,-54.7833333
avellaneda,,21,-29.1166667,-59.6666667
averias,,22,-28.75,-62.45
avestruz,,01,-37.6666667,-63.35
avia terai,,03,-26.7,-60.7333333
ayacucho,,01,-37.15,-58.4833333
ayajasco,,02,-28.3333333,-65.2333333
ayajaso,,02,-28.3333333,-65.2333333
ayapaso,,02,-28.3333333,-65.2333333
ayui,,06,-31.2666667,-57.9833333
azampay,,02,-27.35,-67.05
azara,,14,-28.0666667,-55.6833333
azcuenaga,,01,-34.3833333,-59.35
azcurra,,19,-32.1333333,-66.7666667
azopardo,,01,-37.7333333,-62.9166667
azucena,,01,-37.4833333,-59.3
azul,52333,01,-36.7833333,-59.85
azulcuesta,,17,-22.55,-65.1166667
babilonia,,22,-26.0833333,-63.8
baez,,22,-29.5333333,-63.5333333
baggle,,04,-43.1666667,-71.6666667
bagual,,19,-35.15,-65.5833333
bahada colorada,,15,-39.85,-69.7333333
bahia blanca,282950,01,-38.7166667,-62.2833333
bahia bustamante,,04,-45.1333333,-66.5333333
bahia laura,,20,-48.4,-66.4833333
bahia oso marino,,20,-47.9333333,-65.8
bahia san blas,,01,-40.55,-62.25
bahia thetis,,23,-54.6166667,-65.2333333
bahia thetys,,23,-54.6166667,-65.2333333
bahoma,,22,-27.6,-64.85
baibiene,,06,-29.6,-58.1666667
baigorrita,,01,-34.75,-60.9833333
bajada,,02,-28.3666667,-65.6166667
bajada colorada,,15,-39.85,-69.7333333
bajada del agrio,,15,-38.3833333,-70.0333333
bajada grande,,08,-31.7166667,-60.5833333
bajada nueva,,19,-35.2333333,-66.5166667
bajastine,,24,-27.8666667,-65.55
bajestine,,24,-27.8666667,-65.55
bajo caracoles,,20,-47.45,-70.9333333
bajo chico,,05,-31.7166667,-64.3333333
bajo de gallo,,12,-30.4166667,-66.8833333
bajo de las palomas,,11,-36.3,-64.5
bajo del gallo,,12,-30.4166667,-66.8833333
bajo de los caracoles,,20,-47.45,-70.9333333
bajo grande,,05,-31.6166667,-64.2166667
bajo grande,,12,-30.5666667,-66.15
bajo grande,,17,-25.35,-64.5
bajo grande,,22,-26.45,-63.6666667
bajo hondo,,01,-38.7666667,-61.9
bajo hondo,,12,-31.6833333,-66.0166667
bajo hondo,,19,-33.15,-66.35
bajo hondo,,22,-27.2,-64.4833333
bajo lunlunta,,13,-33.05,-68.8166667
bajo picaso,,20,-49.05,-68.3833333
bajo picazo,,20,-49.05,-68.3833333
bajos hondos,,19,-33.15,-66.35
balbastro,,07,-34.65,-58.4666667
balboa,,17,-25.8666667,-64.8
balcarce,,01,-37.8333333,-58.25
balcarce,,19,-32.55,-65.05
balcosna,,02,-27.8833333,-65.7166667
balcozna,,02,-27.8833333,-65.7166667
balde,,19,-33.3333333,-66.6333333
balde,,22,-26.2333333,-64.1333333
baldecito,,12,-31.8666667,-65.8333333
baldecitos,,12,-30.2166667,-67.6833333
balde de azcurra,,19,-32.1333333,-66.7666667
balde de escudero,,19,-32.0833333,-65.5833333
balde de la mora,,05,-31.8,-65.6833333
balde de los torres,,19,-32.0333333,-66.1166667
balde del rosario,,18,-30.3166667,-67.6833333
balde de puertas,,19,-32.4333333,-66.2166667
balde de quines,,19,-32.05,-65.7333333
balde de torres,,19,-32.0333333,-66.1166667
balde los torres,,19,-32.0333333,-66.1166667
balderrama,,24,-27.2,-65.4
balde salado,,12,-31.1833333,-65.8666667
baldes de quines,,19,-32.05,-65.7333333
balde viejo,,19,-32.1166667,-66.15
ballester,,01,-34.5333333,-58.55
ballesteros,,05,-32.55,-62.9833333
ballesteros sud,,05,-32.5833333,-63.0333333
ballesteros sur,,05,-32.5833333,-63.0333333
balnearia,,05,-31.0,-62.6666667
balneario claromeco,,01,-38.85,-60.0833333
balneario el condor,,16,-41.0833333,-62.8
balneario la balandra,,01,-34.9,-57.7
balneario la boca,,16,-41.05,-62.85
balneario los angles,,01,-38.6666667,-58.9833333
balneario mar azul,,01,-37.3333333,-57.0166667
balneario mar chiquita,,01,-37.75,-57.4166667
balneario mar de ajo,,01,-36.7166667,-56.6666667
balneario massini,,16,-41.05,-62.85
balneario monte hermoso,,01,-38.9833333,-61.3
balneario oceano,,01,-38.9,-60.3333333
balneario orense,,01,-38.8166667,-59.7666667
balneario oriente,,01,-38.9166667,-60.5333333
balneario ostende,,01,-37.15,-56.8833333
balneario pehuen-co,,01,-39.0,-61.6166667
balneario pinamar,,01,-37.1166667,-56.8333333
balneario punta indio,,01,-35.2666667,-57.2333333
balneario reta,,01,-38.8833333,-60.35
balneario san clemente,,01,-36.3666667,-56.7166667
balneario san clemente del tuyu,,01,-36.3666667,-56.7166667
balneario santa teresa,,01,-36.5333333,-56.6833333
balneario sauce grande,,01,-38.9833333,-61.1833333
balneario union,,04,-43.3166667,-65.0333333
balsa,,01,-34.8,-61.6666667
banado,,02,-28.1,-65.3166667
banado,,24,-26.4333333,-65.9666667
banado de ovanta,,02,-28.1,-65.3166667
banado de soto,,05,-30.7666667,-65.0333333
banado sur,,06,-27.4833333,-58.85
bancalari,,01,-34.4666667,-58.6
banda del rio sali,,24,-26.8333333,-65.1666667
banda de varela,,02,-28.4333333,-65.75
banda florida,,12,-29.2833333,-68.2166667
banda grande,,17,-25.4166667,-66.2333333
bandera bajada,,22,-27.2333333,-63.5166667
bandera,,22,-28.9,-62.2666667
banderalo,,01,-35.0,-63.35
banfield,,01,-34.75,-58.4
banitos,,18,-29.3,-69.55
bano centenario,,18,-30.3166667,-69.2833333
bano pismanta,,18,-30.2666667,-69.2166667
banos,,22,-27.4833333,-64.8666667
banos de borbollon,,13,-32.8,-68.75
banos de copahue,,15,-37.8,-71.1166667
banos lunlunta,,13,-33.0666667,-68.8333333
baradero,,01,-33.7966667,-59.5208333
barborin,,24,-26.15,-65.5166667
barburin,,24,-26.15,-65.5166667
barcala,,13,-33.0166667,-68.5833333
barda del medio,,16,-38.7166667,-68.1666667
bardas blancas,,13,-35.8666667,-69.8
bariloche,,01,-35.5,-62.2333333
bariloche,,16,-41.15,-71.3
barker,,01,-37.6333333,-59.4
barra,,14,-28.1166667,-55.5833333
barra bonita,,14,-27.5833333,-54.85
barracas,,07,-34.65,-58.3666667
barracon,,14,-26.25,-53.65
barra concepcion,,14,-28.1166667,-55.5833333
barra de concepcion,,14,-28.1166667,-55.5833333
barranca,,04,-43.5166667,-71.25
barranca colorada,,19,-33.25,-66.3666667
barrancas,,10,-23.3666667,-66.0666667
barrancas,,13,-33.1,-68.7166667
barrancas,,15,-36.8166667,-69.9166667
barrancas,,21,-32.2333333,-60.9833333
barrancas,,22,-28.6666667,-63.55
barrancas viejo,,21,-32.2,-60.9666667
barranca yaco,,05,-30.8666667,-64.0833333
barranqueras,,03,-27.4833333,-58.9333333
barraquero,,13,-32.9,-68.8333333
barreal,,05,-29.7166667,-64.2166667
barreal,,12,-29.6333333,-66.1
barreal,,17,-25.9666667,-65.9166667
barreal,,18,-31.6333333,-69.4666667
barrealito,,02,-28.2166667,-66.3833333
barreto,,05,-33.35,-63.3
barrial,,17,-25.9666667,-65.9166667
barriales,,18,-31.6333333,-69.4666667
barrialito,,02,-28.2166667,-66.3833333
barrialito,,18,-31.3333333,-69.5333333
barrialito,,22,-27.6,-64.8
barrialito,,24,-27.3,-64.9166667
barrio almirante brown,,23,-54.8166667,-68.3333333
barrio arroyito,,21,-32.9166667,-60.6833333
barrio belgrano,,21,-32.9333333,-60.7166667
barrio colina alegre,,01,-38.0166667,-57.6833333
barrio colinas verdes,,01,-37.9,-57.8166667
barrio colonia alegre,,01,-38.0166667,-57.6833333
barrio comandante piedrabuena,,01,-38.8833333,-62.0833333
barrio copacabana,,01,-38.2333333,-57.7833333
barrio cuidad atlantida,,01,-38.8833333,-62.0333333
barrio del panal,,05,-32.7,-62.1166667
barrio de suboficiales,,01,-38.9333333,-61.9666667
barrio el retazo,,01,-37.9166667,-57.5833333
barrio esteban echeverria,,01,-34.8133333,-58.4752778
barrio felix u camet,,01,-37.9,-57.5166667
barrio flores,,05,-31.45,-64.25
barrio godoy,,21,-32.9666667,-60.7166667
barrio gottling,,01,-38.8666667,-62.0666667
barrio la fortuna,,05,-32.6333333,-62.3
barrio laprida,,04,-45.8166667,-67.5166667
barrio laprida y manantial rosales,,04,-45.8166667,-67.5166667
barrio las flores,,01,-38.2333333,-57.8666667
barrio los zarzales,,01,-37.8333333,-57.6
barrio mendoza,,21,-32.9333333,-60.7
barrio monte grande,,05,-32.1666667,-64.1333333
barrio norte,,07,-34.5833333,-58.4
barrio nuevo,,01,-37.3166667,-59.1833333
barrio rivadavia,,18,-31.55,-68.55
barrio saavedra,,04,-45.8333333,-67.5333333
barrio san patricio,,01,-38.1166667,-57.6166667
barrio union,,21,-32.9,-60.7
barro negro,,10,-24.3,-64.9333333
barrow,,01,-38.3,-60.2333333
bartolome de las casas,,09,-25.4,-59.5666667
bartolome mitre,,01,-34.05,-60.1166667
basail,,03,-27.8666667,-59.3
basavilbaso,,08,-32.3666667,-58.8833333
batan,,01,-38.0,-57.7166667
batavia,,19,-34.7833333,-65.6833333
batea,,05,-30.3666667,-65.3
batel,,06,-28.9666667,-58.7833333
bathurst,,01,-37.5833333,-61.8166667
baudrix,,01,-35.25,-60.3166667
bauer y sigel,,21,-31.2666667,-61.95
baviano,,02,-28.7833333,-65.3
bayauca,,01,-34.85,-61.3
bayo muerto,,22,-27.6,-64.1166667
bazan,,12,-29.1666667,-66.65
bazan,,15,-40.1166667,-71.2166667
b. de irigoyen,,21,-32.1666667,-61.15
b. duranona,,01,-35.4833333,-60.15
beazley,,19,-33.75,-66.65
beccar,,01,-34.4666667,-58.5333333
belbeder,,08,-32.3833333,-59.9166667
belen,,01,-34.3466667,-58.8186111
belen,,02,-27.65,-67.0333333
belen de escobar,,01,-34.3466667,-58.8186111
belgrano,,07,-34.5666667,-58.4666667
belgrano,,08,-32.0666667,-60.6166667
belgrano,,21,-32.9333333,-60.7166667
belgrano,,22,-25.8833333,-63.9333333
belicha huaico,,24,-27.3,-65.4833333
bella vista,,01,-34.55,-58.6833333
bella vista,,02,-28.6166667,-65.4833333
bella vista,,05,-29.5333333,-64.1666667
bella vista,,06,-28.5,-59.05
bella vista,,10,-23.6333333,-65.4
bella vista,,12,-30.5,-66.2666667
bella vista,,14,-25.9,-54.65
bella vista,,15,-37.0333333,-70.8166667
bella vista,,17,-25.0666667,-65.6
bella vista,,18,-30.4333333,-69.25
bella vista,,19,-32.3333333,-66.5833333
bella vista,,21,-32.7,-60.7333333
bella vista,,22,-27.5833333,-63.6
bella vista,,24,-27.0333333,-65.3
belloco,,01,-35.9166667,-61.5333333
bellocq,,01,-35.9166667,-61.5333333
bell ville,35106,05,-32.6166667,-62.7
beltran,,22,-27.8333333,-64.0666667
benard,,21,-33.1666667,-60.9
benavides,,01,-34.4094444,-58.7094444
benavidez,,01,-34.4094444,-58.7094444
bengolea,,05,-33.0333333,-63.6833333
benitez,,01,-34.9666667,-60.1333333
benitez,,03,-27.3333333,-58.9333333
benito juarez,,01,-37.6666667,-59.8
benjami gould,,05,-33.5833333,-62.7333333
benjamin araoz,,24,-26.5666667,-64.8
benjamin gould,,05,-33.5833333,-62.7333333
benjamin larroude,,11,-35.0333333,-63.5666667
benjamin paz,,24,-26.3666667,-65.3
benjamin zorrilla,,16,-39.1,-65.4833333
benjamin zorrillo,,16,-39.1,-65.4833333
berabevu,,21,-33.3333333,-61.8666667
berazategui,,01,-34.7333333,-58.2552778
berdier,,01,-34.4,-60.2666667
berduc,,08,-31.9166667,-58.3166667
berisso,,01,-34.8666667,-57.8833333
bermejo,,03,-26.9333333,-58.5
bermejo,,13,-32.8833333,-68.8
bermejo,,18,-31.6166667,-67.65
bermudez,,01,-34.7,-61.3333333
berna,,21,-29.2666667,-59.8666667
bernal,,01,-34.7166667,-58.3
bernardo de irigoyen,,14,-26.25,-53.65
bernardo de irigoyen,,21,-32.1666667,-61.15
bernardo larroude,,11,-35.0333333,-63.5666667
bernasconi,,11,-37.9,-63.7166667
beron de astrada,,06,-27.55,-57.5333333
berraondo,,01,-38.4166667,-62.8333333
berreta,,05,-33.35,-63.3
berreta,,21,-32.9333333,-61.2833333
berretta,,21,-32.9333333,-61.2833333
berros,,18,-31.9511111,-68.6622222
berrotaran,,05,-32.4666667,-64.4
beruti,,01,-35.8666667,-62.5
berutti,,01,-35.8666667,-62.5
b. esperanza,,19,-34.75,-65.25
betania,,17,-24.6833333,-65.1333333
betbeder,,08,-32.3833333,-59.9166667
bialet masse,,05,-31.3,-64.4666667
bicha,,21,-30.85,-61.85
bigand,,21,-33.3833333,-61.1833333
bigano,,21,-33.3833333,-61.1833333
bilisman,,02,-28.4833333,-65.45
billinghurst,,01,-34.5833333,-58.5833333
bilo mallin,,15,-37.45,-70.7666667
blanca grande,,01,-36.5333333,-60.8833333
blanca pozo,,22,-28.7166667,-63.1
blanco pozo,,24,-27.0166667,-64.7666667
blandengues,,01,-34.5333333,-61.2666667
blaquier,,01,-34.6333333,-62.4833333
b. larroude,,11,-35.0333333,-63.5666667
blas de rosales,,05,-31.2666667,-63.8666667
blas duranona,,01,-35.4833333,-60.15
boa vista,,14,-27.5333333,-55.5333333
bobadal,,22,-26.7166667,-64.3833333
boca,,07,-34.6333333,-58.35
boca de la quebrada,,18,-30.15,-68.6166667
boca de la travesia,,16,-40.2166667,-64.0666667
boca de la zanja,,04,-43.35,-65.9333333
boca del tigre,,05,-33.3166667,-64.7333333
boca del tigre,,22,-27.25,-64.7166667
bocayuva,,01,-36.2166667,-63.0666667
bochahuasi,,10,-21.8833333,-66.25
boedo,,07,-34.6333333,-58.4166667
boeuf,,11,-35.9666667,-64.45
bogardo,,21,-33.3166667,-60.6
boliche,,16,-39.9833333,-67.8333333
bolivar,,01,-36.25,-61.1
bolson,,02,-27.9166667,-65.8833333
bombal,,21,-33.45,-61.3333333
bompland,,06,-29.8166667,-57.4333333
bonifacio,,01,-36.8166667,-62.2166667
bonnement,,01,-35.7166667,-58.4666667
bonorino,,07,-34.6333333,-58.4666667
bonpland,,06,-29.8166667,-57.4333333
bonpland,,14,-27.4833333,-55.4833333
boqueron,,06,-28.8166667,-58.15
boqueron,,22,-28.6166667,-63.6666667
bordenave,,01,-37.8,-63.05
bordeu,,01,-38.7,-62.35
bordo la isla,,10,-24.4,-65.1833333
borghi,,21,-32.7833333,-60.7333333
bosch,,01,-37.6333333,-58.2333333
bosques,,01,-34.8166667,-58.2333333
bossi,,21,-30.6666667,-61.7833333
bote,,15,-37.0,-70.7333333
botija,,19,-32.2166667,-66.6
boulevard atlantico,,01,-38.2666667,-57.9833333
boulogne,,01,-34.5,-58.5666667
bouquet,,21,-32.4166667,-61.9
bouvier,,09,-25.45,-57.5833333
bouwer,,05,-31.5666667,-64.1833333
bovril,,08,-31.35,-59.4333333
bowen,,13,-35.0,-67.5166667
bragado,,01,-35.1191667,-60.5047222
brandsen,,01,-35.1716667,-58.23
bravo grande,,10,-22.35,-66.2333333
brazilera,,08,-31.9,-60.6
brazo largo,,08,-33.7833333,-58.6
brazo norte,,04,-45.0333333,-70.8333333
brea,,02,-28.9833333,-65.7666667
brealito,,17,-25.2666667,-66.35
brea pozo,,22,-28.25,-63.95
brea pununa,,22,-27.5666667,-64.65
breas,,02,-28.9833333,-65.7666667
bremen,,05,-33.4666667,-62.7166667
brete,,17,-26.0666667,-65.3666667
brinkman,,05,-30.8666667,-62.0333333
brinkmann,,05,-30.8666667,-62.0333333
britos,,08,-32.7666667,-58.8833333
brown,,23,-54.85,-67.5166667
brugo,,08,-31.3833333,-60.1
buchanan,,01,-34.9686111,-58.2325
buchardo,,05,-34.7166667,-63.5166667
buena esperanza,,15,-38.6166667,-69.1833333
buena esperanza,,18,-30.0333333,-69.15
buena esperanza,,19,-34.75,-65.25
buena nueva,,13,-32.9,-68.75
buenas aires chico,,04,-42.0833333,-71.2333333
buena vista,,01,-34.55,-58.6833333
buena vista,,05,-31.7333333,-64.1
buena vista,,06,-29.4333333,-59.2666667
buena vista,,09,-23.3333333,-61.6
buena vista,,12,-29.0166667,-66.05
buena vista,,19,-32.8166667,-65.8166667
buena vista,,22,-29.4,-63.6
buenos aires,,07,-34.5875,-58.6725
buenos aires chico,,04,-42.0833333,-71.2333333
buen pasto,,04,-45.0833333,-69.4666667
buey muerto,,05,-31.2166667,-63.3166667
bulnes,,05,-33.5166667,-64.6833333
bumipunco,,24,-27.9833333,-65.55
bunge,,01,-34.7666667,-63.2
burmeister,,05,-34.75,-63.6
burruyaco,,24,-26.5,-64.75
burruyacu,,24,-26.5,-64.75
burzaco,,01,-34.8166667,-58.4
bustamante,,04,-45.1333333,-66.5333333
bustamante,,22,-29.6166667,-63.2833333
bustamente,,04,-45.1333333,-66.5333333
bustinza,,21,-32.7333333,-61.3
butaco,,13,-36.9,-69.8
buta mallin,,15,-37.5666667,-70.7333333
buta ranquil,,11,-37.0333333,-67.8666667
buta ranquil,,15,-37.05,-69.8333333
buta ranquilco,,11,-37.0333333,-67.8666667
b. vista,,01,-34.55,-58.6833333
b. zorrilla,,16,-39.1,-65.4833333
caa cati,,06,-27.75,-57.6166667
caa yari,,14,-27.4833333,-55.3166667
cabal,,21,-31.1,-60.75
caballa,,02,-28.9833333,-65.3333333
caballito,,07,-34.6166667,-58.45
cabalonga,,05,-31.3666667,-64.5666667
cabana,,05,-31.2166667,-64.3666667
cabana de rio pinto,,05,-30.7666667,-64.2166667
cabeza de buey,,17,-24.7833333,-65.0166667
cabeza del buey,,17,-24.7833333,-65.0166667
cabeza del novillo,,19,-32.3833333,-65.4
cabeza del tigre,,03,-27.9833333,-61.1
cabeza de novillo,,19,-32.3833333,-65.4
cabildo,,01,-38.4833333,-61.9
cabinda,,05,-30.9833333,-63.8333333
cabituyo,,05,-31.3166667,-63.1333333
cabo blanco,,20,-47.2,-65.75
cabo primero lugones,,09,-24.2833333,-59.8333333
cabo raso,,04,-44.35,-65.2333333
cabred,,06,-30.0166667,-57.6333333
cabrera,,05,-32.8,-63.8666667
cabure-i,,14,-25.6833333,-54.1333333
cachari,,01,-36.4,-59.5333333
cacheuta,,13,-33.0166667,-69.1166667
cachi adentro,,17,-25.0833333,-66.2333333
cachi,,17,-25.1,-66.1833333
cachi,,22,-29.5333333,-63.7833333
cachinal,,17,-24.25,-66.0666667
cachipampa,,17,-25.1833333,-65.8666667
cachirulo,,11,-36.7333333,-64.35
cachi yaco,,05,-29.6166667,-64.05
cachi yaco,,24,-27.2,-64.9833333
cachi yacu,,05,-29.6166667,-64.05
cachiyuyo,,02,-28.0,-67.55
cachiyuyo,,05,-30.5333333,-65.2666667
cachiyuyu,,02,-28.0,-67.55
cachueta,,13,-33.0166667,-69.1166667
cacique ariacaiquin,,21,-30.65,-60.2333333
cactaca,,10,-23.1166667,-65.2833333
cadetes de chile,,13,-33.5666667,-67.2666667
cadillal,,24,-26.6833333,-65.2666667
cadillo,,05,-31.3166667,-65.5
cadret,,01,-35.7833333,-61.3333333
cafayate,,17,-26.0833333,-65.9666667
cafayete,,17,-26.0833333,-65.9666667
cafferata,,07,-34.6333333,-58.4333333
cafferata,,21,-33.4333333,-62.1
caimancito,,10,-23.7333333,-64.5833333
caitaco,,16,-39.55,-67.2833333
cajas,,10,-22.25,-65.3
cajon,,22,-29.3166667,-63.8833333
cajon,,24,-26.5333333,-64.8666667
cajon de almanza,,15,-38.1666667,-70.5
cajon del manzano,,15,-38.3,-70.5166667
calabacilla,,08,-31.5,-58.1333333
calabacillas,,08,-31.5,-58.1333333
calabacillas entre rios,,08,-31.5,-58.1333333
calafate,,20,-50.3333333,-72.3
calaza,,07,-34.6666667,-58.4833333
calchaqui,,21,-29.9,-60.3
calchin,,05,-30.5333333,-64.35
calchines,,21,-31.4166667,-60.3333333
caldao,,05,-33.1166667,-62.1
c. aldao,,05,-33.1166667,-62.1
caldenadas,,19,-33.7833333,-65.8333333
caldera,,17,-24.6,-65.3833333
calderilla,,17,-24.65,-65.3666667
calderon,,01,-38.7333333,-62.0666667
calera avellaneda,,01,-36.9666667,-60.25
calera,,05,-31.7833333,-65.15
calera,,12,-29.2833333,-66.8833333
caleta cordoba,,04,-45.7333333,-67.0666667
caleta cordova,,04,-45.7333333,-67.0666667
caleta olivia,,20,-46.4333333,-67.5333333
caleufu,,11,-35.5833333,-64.55
caleufu,,15,-40.5,-71.1666667
calfucura,,01,-37.4833333,-57.4333333
calilegua,,10,-23.7833333,-64.7833333
calimonte,,24,-26.45,-65.9666667
calingasta,,18,-31.3386111,-69.415
callejon bajada,,22,-27.1166667,-63.6333333
calmayo,,05,-32.05,-64.4666667
calmuco,,13,-36.7833333,-69.8833333
calva,,01,-38.7666667,-61.4
calvo,,01,-38.7666667,-61.4
calzada,,21,-32.9666667,-60.6333333
camarones,,04,-44.8,-65.7
cambaceres,,01,-34.85,-57.9166667
camet,,01,-37.8833333,-57.6
camilo aldao,,05,-33.1166667,-62.1
caminaga,,05,-30.0666667,-64.05
caminiaga,,05,-30.0666667,-64.05
campamento i,,04,-45.6666667,-67.6333333
campamento primero,,04,-45.6666667,-67.6333333
campamento rio cochuna,,24,-27.3,-65.9166667
campamento villegas,,04,-43.4333333,-66.1333333
campana,83175,01,-34.1769444,-58.9208333
campana mahuida,,15,-38.2,-70.6
campanas,,12,-28.5666667,-67.6166667
campbell,,21,-31.1833333,-60.75
campichuelo,,17,-23.1,-64.0166667
campo alegre,,09,-25.1333333,-60.3333333
campo alegre,,17,-23.15,-64.05
campo andino,,21,-31.2333333,-60.5333333
campo azul,,24,-27.3333333,-65.0833333
campo blanco,,17,-22.2333333,-63.7
campo de garay,,21,-29.6833333,-61.6166667
campo de la flor,,24,-26.95,-65.0166667
campo del cielo,,22,-27.8833333,-61.8166667
campo del rio pica,,04,-44.2166667,-71.35
campo del trigal,,17,-23.0666667,-64.8333333
campodonico,,01,-36.3333333,-59.7666667
campo duran,,17,-22.2333333,-63.7
campo gallo,,22,-26.5833333,-62.85
campo garay,,21,-29.6833333,-61.6166667
campo grande,,05,-30.05,-63.6
campo grande,,06,-27.4666667,-58.4
campo grande,,14,-27.2166667,-54.9666667
campo grande,,15,-39.9333333,-71.3666667
campo grande,,17,-22.1333333,-63.95
campo grande,,22,-26.3666667,-63.9833333
campo grande,,24,-27.5333333,-65.4
campo la flor,,24,-26.95,-65.0166667
campo largo,,03,-26.8,-60.8333333
campo largo,,17,-22.5333333,-62.5166667
campo los andes,,13,-33.7,-69.15
campo quijano,,17,-24.9166667,-65.65
campo ramon,,14,-27.4666667,-55.0
campo salles,,01,-33.4,-60.2333333
campos,,08,-31.5333333,-58.4
campos salles,,01,-33.4,-60.2333333
campo viera,,14,-27.3833333,-55.0333333
camps,,08,-32.1166667,-60.2333333
canada angosta,,19,-32.4666667,-66.55
canada,,05,-30.0666667,-63.35
canada,,22,-27.7666667,-65.05
canada de alvarez,,05,-32.3833333,-64.55
canada de coro,,05,-31.1166667,-64.6666667
canada de gomez,,21,-32.8169444,-61.4008333
canada de ipizca,,02,-28.7833333,-65.5166667
canada de jume,,05,-30.8666667,-63.8166667
canada de las ovejas,,08,-32.1666667,-58.55
canada del coro,,05,-31.1166667,-64.6666667
canada del ucle,,21,-33.4,-61.6166667
canada de luque,,05,-30.7166667,-63.7166667
canada de machado,,05,-31.4166667,-63.5833333
canada de paez,,02,-28.7,-65.5
canada de rio pinto,,05,-30.7666667,-64.2166667
canada de salas,,05,-31.3,-65.2
canada honda,,05,-30.55,-63.5
canada honda,,18,-31.9761111,-68.5477778
canada honda,,19,-32.8333333,-66.0333333
canada la negra,,05,-32.3166667,-65.1
canada larga,,02,-29.0666667,-65.6333333
canada martel,,05,-30.9,-64.3333333
canada ombu,,21,-28.3,-60.0
canada rica,,21,-33.5166667,-60.6166667
canada rosquin,,21,-32.05,-61.6
canada seca,,01,-34.4333333,-62.95
canada seco,,01,-34.4333333,-62.95
canada verde,,05,-34.8333333,-64.5833333
canaditas,,06,-30.2,-59.0833333
canadon 11 de septiembre,,20,-48.6833333,-67.4
canadon de las vacas,,20,-50.55,-69.25
canadon de las vacas ranch,,20,-50.55,-69.25
canadon lagarto,,04,-45.8666667,-68.4166667
canadon leon,,20,-48.7666667,-70.25
canadon once de septiembre,,20,-48.6833333,-67.4
canadon once de setiembre,,20,-48.6833333,-67.4
canadon perdido,,04,-45.7166667,-67.6166667
canadon seco,,20,-46.55,-67.5833333
canaleja,,13,-35.2,-66.5166667
canalejas,,13,-35.2,-66.5166667
canals,,05,-33.55,-62.8833333
canani,,17,-22.3166667,-64.8833333
cancha carrera,,20,-51.25,-72.2333333
cancha huinganco,,15,-37.0166667,-70.3833333
canchicot,,23,-53.8833333,-67.9333333
candelaria,,02,-28.7,-65.45
candelaria,,05,-29.8166667,-63.3333333
candelaria,,14,-27.4666667,-55.7333333
candelaria,,17,-26.1,-65.1
candelaria,,19,-32.0666667,-65.8166667
candelaria,,22,-25.9,-63.8
candelaria,,23,-53.8666667,-67.7833333
candelaria norte,,05,-29.8166667,-63.3333333
candelarias,,05,-30.8166667,-63.8
candelaria sud,,05,-30.8166667,-63.8
candelaria totoral,,05,-30.8166667,-63.8
candioti,,21,-31.4,-60.75
candonga,,05,-31.1,-64.3666667
canete,,24,-26.8833333,-64.8666667
cangallo,,01,-37.2166667,-58.7
cangrejilla,,10,-22.4166667,-65.5666667
cangrejillos,,10,-22.4166667,-65.5666667
cangrejillos,,17,-23.8166667,-66.05
cangrejos,,10,-22.4666667,-65.5333333
canning,,01,-34.8769444,-58.5205556
cano,,05,-32.6333333,-64.6
canonigo gorriti,,01,-37.55,-63.25
canque,,04,-44.5333333,-68.3666667
canquel,,04,-44.5333333,-68.3666667
cantadero,,12,-29.2166667,-66.8666667
cantera aguirre,,01,-37.35,-59.0
canteras,,19,-33.15,-65.7333333
canteras piedras chatas,,19,-32.85,-65.3166667
canteras quilpo,,05,-30.8333333,-64.6666667
canuelas,,01,-35.0469444,-58.7497222
capacho,,13,-33.65,-69.05
capala,,10,-23.3166667,-65.2833333
capayan,,02,-28.7666667,-66.0666667
capdevila,,13,-32.75,-68.8
capdevilla,,13,-32.75,-68.8
capdeville,,13,-32.75,-68.8
capilla,,01,-34.3,-59.1
capilla de dolores,,05,-31.25,-63.7833333
capilla de la sagrada familia,,05,-31.2833333,-63.4166667
capilla del carmen,,05,-31.4,-65.45
capilla del monte,,05,-30.85,-64.5166667
capilla de los remedios,,05,-31.4333333,-63.8166667
capilla del rosario,,13,-32.1333333,-68.2166667
capilla del senor,,01,-34.3,-59.1
capilla de romero,,05,-32.1333333,-65.2166667
capilla de san antonio,,05,-31.5,-62.8166667
capilla de siton,,05,-30.5833333,-63.7166667
capilla remedios,,05,-31.4333333,-63.8166667
capilla san jose,,13,-32.3833333,-68.25
capillas,,10,-24.0833333,-65.1666667
capillas,,17,-24.6166667,-66.0333333
capillitas,,02,-27.35,-66.4
capillitas,,06,-27.7666667,-57.65
capiovi,,14,-26.9333333,-55.0666667
capiovicino,,14,-26.8666667,-55.05
capita mini,,06,-28.95,-58.3666667
capitan bermudez,,21,-32.8166667,-60.7166667
capitan castro,,01,-35.9166667,-62.25
capitan eyroa,,20,-51.75,-70.1
capitan general bernardo o'higgins,,05,-33.25,-62.2833333
capitania balsa,,06,-28.9166667,-57.25
capitan joaquin madariaga,,06,-29.85,-58.25
capitan juan page,,17,-23.6833333,-62.3833333
capitan montoya,,13,-34.5833333,-68.45
capitan sarmiento,,01,-34.1666667,-59.8
capitan solari,,03,-26.8,-59.5666667
capivara,,21,-30.45,-61.2666667
capla,,10,-23.3166667,-65.3
capon bonito,,14,-28.0666667,-55.5833333
caprara,,15,-40.75,-71.6833333
captain montoya,,13,-34.5833333,-68.45
carabajal,,22,-29.2,-63.4666667
carabelas,,01,-34.05,-60.8666667
caracara,,10,-22.3166667,-65.65
carachi yacu,,22,-29.5333333,-63.7333333
cara cienaga,,02,-25.85,-67.35
caraguatay,,14,-26.6166667,-54.7666667
caraguatay,,21,-29.4,-60.1333333
carahuasi,,10,-22.4833333,-65.95
caranchi yaco,,22,-29.5333333,-63.7333333
carapaligue,,05,-34.0666667,-63.6166667
carapato,,05,-30.65,-64.1
caraza,,01,-34.7,-58.4333333
carbo,,08,-33.1333333,-59.2333333
carbo estacion,,08,-33.1333333,-59.2333333
carboncito,,17,-23.3166667,-63.95
carboni,,01,-35.2,-59.3333333
carcano,,05,-32.4833333,-63.1
carcarana,,21,-32.85,-61.15
cardenal cagliero,,01,-40.65,-62.75
cardoso,,03,-27.4166667,-59.2333333
cardozo,,22,-27.9333333,-64.1666667
cardozos,,22,-27.9333333,-64.1666667
carhue,,01,-37.1833333,-62.7333333
carlos beguerie,,01,-35.4833333,-59.1
carlos beguerle,,01,-35.4833333,-59.1
carlos casares,,01,-35.6263889,-61.3602778
carlos keen,,01,-34.4833333,-59.2333333
carlos maria naon,,01,-35.2333333,-60.8333333
carlos m. naon,,01,-35.2333333,-60.8333333
carlos naon,,01,-35.2333333,-60.8333333
carlos pellegrini,,01,-36.2666667,-63.15
carlos pellegrini,,06,-28.5333333,-57.1666667
carlos pellegrini,,21,-32.05,-61.8
carlos salas,,01,-35.3833333,-61.9833333
carlos tejedor,,01,-35.3833333,-62.4166667
carmen,,10,-24.3833333,-65.2666667
carmen,,17,-22.7333333,-65.25
carmen,,21,-33.7333333,-61.7666667
carmen,,23,-54.4166667,-67.8666667
carmen de areco,,01,-34.3858333,-59.8294444
carmen del sauce,,21,-33.2333333,-60.8166667
carmen de patagones,,01,-40.8,-62.9833333
carmen de sauce,,21,-33.2333333,-60.8166667
carmensa,,13,-35.1333333,-67.6333333
carnerillo,,05,-32.9166667,-64.0333333
carnerito,,12,-28.4166667,-69.1833333
carolina,,05,-33.5166667,-64.2166667
carolina,,19,-32.8,-66.1
caroya,,05,-31.0333333,-64.0833333
carpinteria,,18,-31.8227778,-68.5527778
carpinteria,,19,-32.4,-65.0166667
carranza,,02,-29.0333333,-66.0166667
carrayalde,,04,-44.6666667,-66.6666667
carrenleufu,,04,-43.5833333,-71.7
carrera,,20,-51.25,-72.2333333
carreras,,21,-33.6,-61.3166667
carreta quebrada,,05,-31.1666667,-64.1833333
carril,,17,-25.0833333,-65.4666667
carrilobo,,05,-31.8666667,-63.1333333
carrisalito,,18,-29.8,-69.1333333
carrisito,,18,-29.2666667,-69.0833333
carrizal,,02,-29.2666667,-65.5333333
carrizal,,12,-28.8833333,-67.55
carrizales,,21,-32.5,-61.0333333
carrizalillo,,18,-29.8,-69.1333333
carrizalito,,18,-29.2666667,-69.0833333
carrodilla,,13,-32.9666667,-68.8666667
carro quemado,,11,-36.4666667,-65.3333333
casa armada,,02,-28.6666667,-65.5333333
casa bamba,,05,-31.35,-64.4
casabindo,,10,-22.9666667,-66.0666667
casablanca,,21,-30.9666667,-61.75
casa colorada,,10,-22.3,-66.3
casa de piedra,,02,-26.8166667,-66.0833333
casa de piedra,,20,-49.9833333,-68.9
casaffousth,,05,-31.3666667,-64.45
casa folch,,20,-47.45,-70.9333333
casa grande,,05,-31.1666667,-64.4833333
casa koslowsky,,04,-45.95,-71.5166667
casalegno,,21,-32.2666667,-61.1333333
casalins,,01,-36.3,-58.55
casana,,12,-31.1,-66.55
casares,,22,-28.95,-62.8
casa riera,,20,-48.4,-70.5333333
casas,,10,-22.25,-65.3
casas,,21,-32.1333333,-61.55
casas coloradas,,05,-32.5833333,-64.25
casavindo,,10,-22.9666667,-66.0666667
casbas,,01,-36.75,-62.5
cascada,,01,-37.3,-62.3166667
cascada de olaen,,05,-31.1833333,-64.6166667
caserio de calafates,,20,-50.3333333,-72.3
caserio la lonja,,05,-32.3,-62.9
caseros,,01,-34.5961111,-58.5455556
caseros,,08,-32.4666667,-58.4833333
casey,,01,-36.7,-62.3166667
casilda,,21,-33.0441667,-61.1680556
casillas,,10,-22.75,-65.35
casimiro gomez,,19,-35.0833333,-65.1166667
caspala,,10,-23.3166667,-65.1333333
caspar campos,,13,-34.65,-67.4833333
caspi,,05,-29.8166667,-64.0666667
caspichango,,02,-26.7333333,-65.95
caspichango,,24,-27.0666667,-65.5
caspi corral,,22,-27.3666667,-63.5333333
caspinchango,,24,-27.0666667,-65.5
cassaffousth,,05,-31.3666667,-64.45
castano,,18,-30.9833333,-69.5666667
castano nuevo,,18,-31.0333333,-69.55
castano viejo,,18,-30.9833333,-69.5666667
castelar,,01,-34.6666667,-58.6666667
castellanos,,21,-34.3166667,-62.3833333
castelli,,01,-36.1,-57.7833333
castelli,,03,-25.95,-60.6166667
castex,,11,-35.9,-64.3
castilla,,01,-34.6,-59.9
castilla,,10,-22.8333333,-65.3666667
castillo,,23,-53.6666667,-68.4666667
castro barros,,12,-30.5833333,-65.7333333
castro urdiales,,05,-33.25,-62.6
catamarca,213601,02,-28.4666667,-65.7833333
catan lil,,15,-39.75,-70.6166667
cataratas del iguazu,,14,-25.6666667,-54.45
catinzaco,,12,-29.6666667,-67.3833333
catriel,,16,-37.8666667,-67.8333333
catrilo,,11,-36.4333333,-63.4
catua,,10,-23.8666667,-67.0166667
catuna,,12,-30.95,-66.2166667
caucete,,18,-31.6541667,-68.2852778
cauchicol,,23,-53.8833333,-67.9333333
cavalango,,05,-31.3666667,-64.5666667
cavanagh,,05,-33.4833333,-62.35
cavour,,21,-31.3833333,-61.0166667
cayanta,,15,-37.15,-70.7833333
cayasta,,21,-31.2,-60.1666667
cayastacito,,21,-31.1,-60.5666667
cayuqueo,,05,-32.7833333,-63.1166667
cayuqueo,,16,-41.6,-66.45
cazador,,19,-33.85,-66.3833333
cazadores correntinos,,06,-29.9666667,-58.2833333
cazapan,,06,-28.2833333,-56.1166667
caza pava,,06,-28.2833333,-56.1166667
cazon,,01,-35.5833333,-59.6666667
c. beguerie,,01,-35.4833333,-59.1
c. cagliero,,01,-40.65,-62.75
c. casares,,01,-35.6263889,-61.3602778
c. choel,,16,-39.2666667,-65.6833333
c. de areco,,01,-34.3858333,-59.8294444
c. de mayo,,01,-34.5,-58.6833333
ceballos,,11,-35.3,-63.7666667
cebil solo,,24,-27.3666667,-65.7333333
cebollar,,12,-29.1333333,-66.55
cedro solo,,17,-23.2666667,-64.4166667
ceibal,,17,-26.1,-65.0166667
ceibalito,,17,-25.0833333,-64.3166667
ceibas,,08,-33.4333333,-58.75
cejolao,,22,-27.4833333,-62.3
centenario,,01,-35.8333333,-61.4333333
centenario,,15,-38.8,-68.1333333
centeno,,21,-32.3,-61.4166667
centinela del mar,,01,-38.4333333,-58.2166667
centro,,07,-34.6,-58.3833333
centro guerrero,,01,-36.05,-57.8333333
centro rio mayo,,04,-45.5833333,-71.1
centro urquiza,,01,-38.4666667,-61.3666667
cepeda,,21,-33.4,-60.6166667
cercado,,02,-29.35,-65.4833333
cereales,,11,-36.8166667,-63.85
ceres,,21,-29.8833333,-61.95
cerrillos,,10,-22.3166667,-65.8166667
cerrillos,,17,-24.9,-65.4833333
cerrillos,,22,-28.0666667,-64.7
cerrito,,01,-35.45,-62.8166667
cerrito,,02,-29.4,-65.4
cerrito,,06,-27.8333333,-57.9
cerritos,,21,-29.3,-60.3333333
cerro abanico,,16,-40.9666667,-68.3
cerro azul,,14,-27.6333333,-55.4833333
cerro blanco,,10,-22.7333333,-65.4833333
cerro blanco,,20,-47.4166667,-66.7333333
cerro colorado,,05,-30.1,-63.9333333
cerro cora,,14,-27.5166667,-55.6166667
cerro de la gloria,,01,-35.9666667,-57.45
cerro de oro,,19,-32.3833333,-65.0
cerro de policia,,16,-39.7333333,-68.5166667
cerro dragon,,04,-45.7166667,-68.3333333
cerro mesa,,16,-41.7,-70.4666667
cerro negro,,01,-37.0,-60.15
cerro negro,,02,-28.2666667,-67.1333333
cerro negro,,15,-40.2333333,-71.3833333
cerro policia,,16,-39.7333333,-68.5166667
cerro sotuyo,,01,-36.9666667,-60.1
cerrudo cue,,06,-27.5666667,-57.95
cervantes,,16,-39.05,-67.3833333
cevallos,,11,-35.3,-63.7666667
cevil pozo,,24,-26.85,-65.1166667
cevil redondo,,24,-26.7833333,-65.2833333
chabas,,21,-33.25,-61.3666667
chabela,,24,-26.7833333,-65.0833333
chacabuco,34587,01,-34.6416667,-60.4738889
chacaico,,15,-39.3,-70.3
chacarita,,07,-34.5833333,-58.45
chacarita,,10,-24.05,-64.6833333
chacay huarruca,,16,-41.6666667,-70.7333333
chacay melehue,,15,-37.2333333,-70.3666667
chachapoyas,,17,-24.75,-65.3833333
chacharramendi,,11,-37.3166667,-65.65
chacho,,05,-30.8,-65.6666667
chacra del mistol,,02,-29.15,-65.35
chacras,,13,-36.1833333,-69.6666667
chacras,,19,-32.55,-65.7833333
chacras,,22,-26.6833333,-64.1333333
chacras de coria,,13,-33.0,-68.8666667
chacras viejas,,05,-30.45,-64.05
chaguaral,,17,-24.05,-64.0166667
chajan,,05,-33.55,-65.0
chajari,,08,-30.7666667,-57.9833333
chalacea centro,,05,-30.65,-63.6
chalacea,,05,-30.7333333,-63.5666667
chalanta,,19,-33.7166667,-65.9666667
chaleco,,08,-31.9833333,-60.35
chalican,,10,-24.0666667,-64.8
challaco,,15,-38.9666667,-68.9666667
chamaico,,11,-35.05,-64.9666667
chamical,,12,-30.35,-66.3166667
chamico,,05,-31.4166667,-65.1
chanar bajada,,22,-26.25,-63.7833333
chanar,,08,-31.2,-58.7
chanar,,12,-30.5333333,-65.9666667
chanar,,17,-22.8,-65.0
chanares,,24,-26.5333333,-66.1
chanaritas,,05,-33.2833333,-64.8166667
chanarito,,22,-26.3333333,-63.7333333
chanarito,,24,-26.8833333,-65.2333333
chanaritos,,02,-28.8833333,-65.2
chanaritos,,05,-33.2833333,-64.8166667
chanaritos,,22,-26.3333333,-63.7333333
chanar ladeado,,21,-33.3,-62.05
chanar ladeador,,21,-33.3,-62.05
chanar laguna,,02,-28.5,-65.15
chanarmullo,,12,-28.6,-67.5666667
chanarmuyo,,12,-28.6,-67.5666667
chanar muyo,,17,-25.0666667,-64.2666667
chanarmyo,,12,-28.6,-67.5666667
chanar pozo,,22,-26.9666667,-63.6833333
chanar viejo,,05,-30.0,-63.8833333
chancani,,05,-31.4,-65.45
chancay,,01,-35.05,-61.25
chanilao,,11,-35.3333333,-64.0
chapadmalal,,01,-38.0333333,-57.7166667
chapaleofu,,01,-36.65,-59.15
chapanay,,13,-32.9833333,-68.4333333
chaparro,,18,-28.9166667,-68.9666667
chapelco,,15,-40.1166667,-71.2166667
chapuy,,21,-33.8,-61.75
chaquiago arriba,,02,-27.5333333,-66.35
chaquiago,,02,-27.5333333,-66.35
characate,,05,-31.1166667,-64.75
charadai,,03,-27.6333333,-59.9
charaday,,03,-27.6333333,-59.9
charata,,03,-27.2166667,-61.2
charatas,,03,-27.2166667,-61.2
charbonier,,05,-30.7666667,-64.5333333
charles fuhr,,20,-50.2833333,-71.8833333
charlone,,01,-34.6666667,-63.3666667
charqui,,12,-28.4666667,-67.1333333
charras,,05,-33.0166667,-64.0666667
charrillos,,17,-24.75,-65.75
chas,,01,-35.8833333,-58.5833333
chaschuil,,02,-27.7833333,-68.0833333
chascomus,,01,-35.5666667,-58.0166667
chasico,,01,-38.3333333,-62.65
chasico,,04,-42.8166667,-66.8333333
chasico,,16,-40.3,-68.9666667
chateaubriand,,21,-33.6333333,-61.8666667
chaupi pozo,,22,-27.5166667,-64.4333333
chaupi rodero,,10,-22.9333333,-65.3
chavarria,,06,-28.95,-58.5833333
chaviyu,,06,-31.1,-57.9166667
chazon,,05,-33.1,-63.2833333
chelco,,12,-31.2333333,-66.4
chelcos,,12,-31.2333333,-66.4
chelforo,,16,-39.0666667,-66.5333333
cheminea,,12,-30.65,-66.3333333
chenaut,,01,-34.25,-59.2166667
chepes,,12,-31.2666667,-66.6
chepes norte,,12,-31.2666667,-66.6
chepes viejo,,12,-31.2666667,-66.6
chical-co,,11,-36.5833333,-67.8
chichinales,,16,-39.1,-66.9333333
chiclana,,01,-35.7333333,-61.7333333
chicligasta,,24,-27.4666667,-65.1166667
chicoana,,17,-25.1,-65.55
chigua de arriba,,18,-29.8333333,-69.15
chilca,,02,-27.6333333,-66.2
chilca,,22,-28.7833333,-63.8166667
chilca juliana,,22,-28.7833333,-63.5833333
chilcas,,17,-25.1333333,-65.0
chilcas,,24,-26.3666667,-64.6833333
chilecito,,12,-29.1666667,-67.5
chilecito,,13,-33.8833333,-69.05
chilibroste,,05,-32.3333333,-62.5
chillar,,01,-37.3,-59.9833333
chimbas,,18,-31.4833333,-68.5333333
chimborazo,,19,-32.45,-66.7666667
chimenea,,12,-30.65,-66.3333333
chimpay,,16,-39.1666667,-66.15
chinchinales,,16,-39.1,-66.9333333
chinguillo,,18,-29.7333333,-69.15
chinguillos,,18,-29.7333333,-69.15
chipaite,,10,-22.6,-65.8166667
chipate,,10,-22.6,-65.8166667
chipisca,,19,-32.1833333,-67.0333333
chipiscu,,19,-32.1833333,-67.0333333
chira,,22,-29.05,-63.3666667
chiriguanos,,09,-24.1,-61.45
chischaquita,,19,-34.1666667,-66.3333333
chivilcoy,52307,01,-34.9083333,-60.0305556
chiyuyoc,,17,-22.7166667,-65.2
chochoy mallin,,15,-37.3666667,-70.8666667
choele choel,,16,-39.2666667,-65.6833333
choique,,01,-38.4666667,-62.7166667
cholila,,04,-42.3833333,-71.05
cholita,,04,-42.5166667,-71.45
chorillo,,17,-24.2166667,-66.45
chorillos,,17,-24.2166667,-66.45
choromoro,,24,-26.4,-65.3333333
chorotis,,03,-27.9166667,-61.4
chorrillo,,19,-33.3,-66.2666667
chorrillos,,17,-24.2166667,-66.45
chorrillos,,19,-33.3,-66.2666667
chorrillos,,24,-26.35,-64.9166667
chorroaria,,17,-25.15,-64.35
chorroarin,,17,-25.15,-64.35
chorro,,17,-22.2833333,-64.9333333
chos malal,,15,-37.3833333,-70.2666667
chosmes,,19,-33.4,-66.8166667
chovet,,21,-33.6,-61.6
choya,,02,-27.5333333,-66.4
choya,,22,-28.5,-64.8666667
choya viejo,,02,-28.4666667,-65.15
christophersen,,21,-34.1666667,-62.05
chuchi,,10,-22.1666667,-66.35
chuchiras,,05,-31.9833333,-65.1
chuchucaruana,,02,-27.9333333,-65.6666667
chucul,,05,-33.0166667,-64.1833333
chucuma,,18,-31.0666667,-67.3333333
chulca,,24,-26.1833333,-65.5166667
chumbicha,,02,-28.8666667,-66.2333333
chumillo,,22,-27.8,-64.2666667
chuna,,05,-30.4666667,-64.6666667
chuna huasi,,05,-29.9333333,-64.1166667
chuquis,,12,-28.9,-66.9666667
churcal,,17,-25.3666667,-66.2333333
churqui canada,,05,-30.15,-63.9333333
churqui,,05,-30.15,-63.9333333
churqui,,10,-22.1666667,-66.35
churqui,,22,-26.3166667,-63.75
churriaca,,15,-37.9,-70.1333333
chusca,,17,-23.8,-63.2166667
chusca,,24,-26.3666667,-65.3666667
chuscha,,24,-26.3666667,-65.3666667
cidampajao,,02,-26.95,-66.95
cienaga alta,,12,-29.2,-68.7333333
cienaga,,02,-27.1333333,-67.65
cienaga,,12,-28.3166667,-68.25
cienaga de allende,,05,-31.7333333,-65.1166667
cienaga de britos,,05,-31.2666667,-64.9333333
cienaga del coro,,05,-31.05,-65.3
cienaguilla,,10,-22.4666667,-65.4
cienaguillas,,10,-22.0833333,-65.8833333
cienaguita,,02,-28.1666667,-67.6666667
cienaguita,,12,-29.3,-68.8
cienaguita,,18,-32.0666667,-68.7
cienega,,02,-27.1333333,-67.65
cienega,,12,-30.7333333,-66.2333333
cieneguila,,12,-29.3,-68.8
cieneguilla,,10,-22.0833333,-65.8833333
cieneguillas,,10,-22.0833333,-65.8833333
cieneguita,,02,-28.1666667,-67.6666667
cieneguita,,12,-29.6,-68.4166667
ciervo petiso,,03,-26.5833333,-59.6333333
ciervo petizo,,03,-26.5833333,-59.6333333
cinco chanares,,16,-40.7166667,-65.2333333
cinco esquinas,,05,-32.85,-64.2666667
cinco saltos,,16,-38.8166667,-68.0666667
cintra,,05,-32.3,-62.65
cipoletti,,16,-38.9333333,-67.9833333
cipolleti,,16,-38.9333333,-67.9833333
cipolletti,,16,-38.9333333,-67.9833333
ciro echesortu,,17,-22.6,-63.8166667
city bell,,01,-34.8588889,-58.0541667
ciudacita,,24,-27.45,-65.3833333
ciudad de gomez,,21,-32.8169444,-61.4008333
ciudad de loreto,,22,-28.3,-64.2
ciudad de machado,,05,-31.4166667,-63.5833333
ciudadela,,01,-34.6333333,-58.5333333
ciudad evita,,01,-34.7166667,-58.5333333
ciudad evita,,21,-32.8169444,-61.4008333
ciudad general belgrano,,01,-34.7166667,-58.5333333
ciudad hospital parque aconquija,,24,-26.8,-65.35
ciudad rica,,21,-33.5166667,-60.6166667
ciudad seca,,01,-34.4333333,-62.95
ciudad universitaria,,24,-26.7833333,-65.35
c. keen,,01,-34.4833333,-59.2333333
clara,,08,-31.8333333,-58.8166667
claraz,,01,-37.9,-59.2833333
clarke,,21,-32.5,-61.0333333
claromeco,,01,-38.7,-60.2333333
clason,,21,-32.4666667,-61.2833333
classon,,21,-32.4666667,-61.2833333
claudio molina,,01,-38.1,-60.35
clausurada,,05,-33.5333333,-63.3333333
claypole,,01,-34.8,-58.3333333
clemente onelli,,16,-41.2333333,-70.0166667
clodomira,,22,-27.5833333,-64.1333333
clodomiro diaz,,03,-27.6166667,-60.8
clodomiro ledesma,,08,-31.5666667,-58.1666667
clorinda,,09,-25.2833333,-57.7166667
clucellas,,21,-31.4333333,-61.6833333
clusellas,,21,-31.4333333,-61.6833333
c.m. naon,,01,-35.2333333,-60.8333333
c. molina,,01,-38.1,-60.35
cobo,,01,-37.8,-57.6333333
cobo,,17,-24.7166667,-65.1
cobos,,17,-24.7166667,-65.1
cobres,,17,-23.6833333,-66.2333333
cochagual,,18,-31.9,-68.3833333
cochangasta,,12,-29.4,-66.8833333
cochequingam,,19,-35.3333333,-65.8333333
cochequingan,,19,-35.3333333,-65.8333333
cochinoca,,10,-22.7333333,-65.9
cochrane,,01,-38.5666667,-61.9833333
cochuna,,24,-27.3,-65.9166667
codihue,,15,-38.4666667,-70.4833333
coehue-co,,13,-36.25,-69.45
coghlan,,07,-34.5666667,-58.4666667
coig,,20,-50.95,-69.2
coihueco,,15,-38.0666667,-70.1666667
coillun-co,,15,-39.9833333,-71.1833333
coiruro,,10,-23.8833333,-65.4666667
coitaco,,16,-39.55,-67.2833333
cojango,,02,-28.0833333,-66.15
colalao del valle,,24,-26.3666667,-65.95
colana,,02,-28.3666667,-66.1666667
colan conhue,,04,-43.2666667,-69.85
colanguil,,18,-30.0333333,-69.2333333
colastine,,21,-31.6166667,-60.6
colastine norte,,21,-31.6166667,-60.6
colastine sur,,21,-31.6833333,-60.6333333
colazo,,05,-31.9333333,-63.4
colazo,,21,-33.4,-60.6166667
colazzo,,05,-31.9333333,-63.4
colegiales,,07,-34.5833333,-58.45
colelache,,07,-42.5833333,-69.0833333
colhue huapi,,07,-45.7166667,-68.9333333
colipilli,,15,-37.7666667,-70.4
colipulli,,15,-37.7666667,-70.4
coliqueo,,01,-34.65,-60.5333333
collagasta,,02,-28.3666667,-65.7333333
coll,,18,-31.55,-68.35
collon cura,,15,-40.1166667,-70.7333333
collun-co,,15,-39.9833333,-71.1833333
colman,,01,-36.4166667,-59.15
colmena,,21,-28.75,-60.1
colodrero,,06,-30.2,-58.25
colola,,18,-30.1833333,-69.0833333
cololo,,18,-30.1833333,-69.0833333
coloma,,01,-34.4333333,-59.0333333
colombres,,24,-26.9,-65.1
colon,,01,-33.8913889,-61.1097222
colon,,08,-32.2166667,-58.1333333
colonia 3 de mayo,,13,-32.6666667,-68.6166667
colonia 503,,09,-25.3833333,-60.3
colonia aborigen la primavera,,09,-25.1833333,-58.1333333
colonia agricola aborgigen chaco,,03,-26.9666667,-60.1666667
colonia aldao,,21,-30.9833333,-61.75
colonia alfonso,,09,-25.1333333,-58.25
colonia almada,,05,-32.0333333,-63.8666667
colonia alpina,,22,-30.05,-62.1166667
colonia alto alegre,,09,-25.55,-59.85
colonia alvear,,13,-35.0,-67.6666667
colonia alvear oeste,,13,-35.0,-67.6666667
colonia ana,,21,-30.15,-61.9
colonia anita,,05,-31.1333333,-62.2333333
colonia aurora,,14,-27.4666667,-54.4833333
colonia avigdor,,08,-31.1833333,-59.4166667
colonia bahia de astrada,,06,-30.2166667,-59.3833333
colonia baranda,,03,-27.5666667,-59.3
colonia baron,,11,-36.15,-63.8333333
colonia barragan,,01,-37.7666667,-57.7
colonia belez,,08,-31.8666667,-58.85
colonia belgrano,,21,-31.9166667,-61.4
colonia benitez,,03,-27.3333333,-58.9333333
colonia beron de astrada,,06,-30.2166667,-59.3833333
colonia bicha,,21,-30.85,-61.85
colonia bismarck,,05,-33.3,-62.7
colonia bossi,,21,-30.6666667,-61.7833333
colonia bouvier,,09,-25.45,-57.5833333
colonia bravo,,03,-27.35,-61.1833333
colonia bremen,,05,-33.4666667,-62.7166667
colonia b. rossi,,21,-30.6666667,-61.7833333
colonia buena vista,,09,-25.0166667,-58.4333333
colonia butalo,,11,-36.2,-67.1
colonia cabildo,,01,-38.4833333,-61.9
colonia calzada,,19,-34.8166667,-66.45
colonia campo del medio,,21,-31.1333333,-60.1166667
colonia carlos pellegrini,,06,-28.5333333,-57.1666667
colonia caroya,,05,-31.0333333,-64.0833333
colonia caseros,,08,-32.4666667,-58.4833333
colonia castelar,,21,-31.5833333,-62.0666667
colonia castelli,,03,-25.95,-60.6166667
colonia catriel,,11,-37.85,-67.8333333
colonia cavour,,21,-31.3833333,-61.0166667
colonia cello,,21,-31.4333333,-61.85
colonia centenario,,15,-38.8,-68.1333333
colonia cerro cora,,14,-27.5166667,-55.6166667
colonia cerveza helada,,03,-26.9666667,-60.5
colonia chapadmalal,,01,-38.2,-57.6833333
colonia chica,,11,-37.9833333,-67.8166667
colonia clara,,08,-31.9833333,-58.9666667
colonia clodo,,21,-33.0166667,-61.05
colonia clodomira,,21,-33.0166667,-61.05
colonia corpus,,14,-27.1833333,-55.4666667
colonia coyunda,,05,-31.2,-62.9833333
colonia dalmacia,,09,-25.85,-57.9
colonia de general alvear,,13,-34.9666667,-67.7
colonia del carmen,,08,-32.0166667,-58.4333333
colonia delta,,08,-33.7833333,-58.9166667
colonia diez de julio,,21,-30.55,-62.1166667
colonia dolavon,,07,-43.3,-65.7
colonia dolores,,21,-30.3833333,-60.3166667
colonia dora,,22,-28.6,-62.95
colonia el carmen,,05,-33.0333333,-64.4333333
colonia el carmen,,21,-32.7666667,-61.1666667
colonia el chaja,,05,-32.75,-62.35
colonia el cisne,,21,-31.0,-61.6
colonia el fortin,,05,-31.0833333,-63.1666667
colonia el gato,,09,-26.1833333,-58.9333333
colonia elia,,08,-32.6666667,-58.3166667
colonia elisa,,03,-26.9333333,-59.5333333
colonia ella,,21,-29.35,-59.9833333
colonia el paraisal,,03,-26.5,-60.0833333
colonia el sauce,,08,-32.6166667,-58.45
colonia el toba,,21,-29.65,-59.9666667
colonia el tostado,,05,-31.0,-63.05
colonia emilio mitre,,11,-36.4166667,-66.4833333
colonia ensanche sauce,,06,-30.85,-57.8666667
colonia esther,,21,-31.05,-60.6333333
colonia finlandesa,,14,-27.4666667,-55.35
colonia florida,,03,-25.85,-60.75
colonia f.p. moreno,,20,-50.45,-72.6666667
colonia francisco perito moreno,,20,-50.45,-72.6666667
colonia garabi,,06,-28.2,-55.8
colonia general baldissera,,05,-33.1166667,-62.3166667
colonia general campos,,08,-31.5333333,-58.4
colonia general deheza,,05,-31.65,-63.0333333
colonia gobernador ayala,,13,-37.55,-68.0833333
colonia gobernador basavilbaso,,08,-32.7666667,-58.9
colonia godeken,,21,-33.3833333,-61.85
colonia hambis,,08,-31.9833333,-58.55
colonia herradura,,09,-26.4833333,-58.3
colonia hinojo,,01,-36.8666667,-60.1666667
colonia hocker,,08,-32.0833333,-58.3333333
colonia hogar,,05,-30.85,-64.2666667
colonia hogar r. gutierrez,,01,-34.85,-58.85
colonia hogar ricardo gutierrez,,01,-34.85,-58.85
colonia holandesa,,05,-31.2333333,-64.05
colonia hugentobler,,21,-30.9166667,-61.8
colonia hughes,,08,-32.3,-58.3166667
colonia isabel victoria,,06,-29.1,-59.0833333
colonia josefa,,16,-39.7333333,-65.4166667
colonia josefina,,22,-27.9666667,-62.2666667
colonia jose marmol,,03,-26.9833333,-60.7333333
colonia juan jose paso,,03,-27.5333333,-60.8166667
colonia julia y echarren,,16,-39.0333333,-64.05
colonia j. y echarren,,16,-39.0333333,-64.05
colonia kilometro 503,,09,-25.3833333,-60.3
colonia la brava,,21,-30.4666667,-60.1666667
colonia la camila,,21,-30.0666667,-60.4833333
colonia la carlota,,11,-36.3,-63.9166667
colonia la clara,,21,-30.5333333,-61.0333333
colonia la florida,,03,-25.85,-60.75
colonia la pastoril,,11,-36.3666667,-66.25
colonia las cuatro esquinas,,05,-31.2166667,-63.2166667
colonia las garcitas,,03,-26.5833333,-59.8
colonia las heras,,20,-46.55,-68.95
colonia las rosas,,13,-33.6,-69.1
colonia la tambora,,03,-26.65,-59.9833333
colonia la tordilla,,05,-31.2166667,-63.0333333
colonia libertad,,06,-30.05,-57.8166667
colonia los viejos,,11,-37.8,-67.6833333
colonia mackinlay,,05,-30.3666667,-62.1166667
colonia madariaga,,06,-28.0666667,-57.6333333
colonia margarita,,21,-31.7,-61.65
colonia maria magdalena,,14,-26.25,-54.6
colonia mariano sarratea,,03,-26.5166667,-60.5666667
colonia marina,,05,-31.25,-62.35
colonia martin fierro,,01,-35.7166667,-62.7833333
colonia mascias,,21,-30.8,-60.0166667
colonia matilde,,21,-31.8166667,-61.0
colonia maua,,21,-30.7666667,-61.2666667
colonia mauricio,,01,-35.5333333,-61.4333333
colonia mbopicua,,14,-26.9,-55.05
colonia medici,,21,-32.6333333,-61.3666667
colonia merau,,08,-31.8333333,-60.3
colonia minetti,,05,-31.6666667,-63.3166667
colonia montefiore,,21,-29.6666667,-61.8666667
colonia monte la plata,,01,-39.0333333,-62.5833333
colonia nacional de menores,,01,-34.85,-58.85
colonia naranjito,,14,-27.0333333,-55.3
colonia nieves,,01,-36.8666667,-60.0833333
colonia n. molinas,,21,-29.15,-59.85
colonia nueva alemania,,08,-31.6,-58.8166667
colonia nueva trinidad,,24,-27.5,-65.5166667
colonia numero 1,,01,-37.4833333,-61.9166667
colonia numero 2,,01,-37.5166667,-61.9166667
colonia numero 3,,01,-37.5666667,-61.8666667
colonia palmera,,13,-32.7,-68.5166667
colonia pastoril,,09,-25.6833333,-58.2666667
colonia perin,,09,-25.55,-60.0333333
colonia popular,,03,-27.2833333,-59.15
colonia portugalete,,21,-30.2666667,-61.3666667
colonia porvenir,,06,-29.1833333,-59.1666667
colonia pozo colorado,,03,-27.15,-60.5166667
colonia progreso,,05,-33.25,-62.2833333
colonia progreso,,06,-28.6166667,-59.0333333
colonia prosperidad,,05,-31.6333333,-62.3666667
colonia pucheta,,06,-29.1833333,-59.1
colonia raquel,,21,-30.8333333,-61.4833333
colonia rio chico,,05,-31.2666667,-64.0166667
colonia romang,,21,-29.5,-59.7666667
colonia romero,,06,-27.6666667,-57.55
colonia rosa,,21,-30.3,-61.9833333
colonia sagastume,,08,-32.05,-58.75
colonia san antonio,,05,-32.3166667,-63.4833333
colonia san bartolome,,05,-31.5333333,-62.7166667
colonia san joaquin,,21,-30.7166667,-59.9833333
colonia san jorge,,24,-26.9333333,-65.2
colonia san jose,,11,-36.1,-63.9
colonia san jose,,24,-26.9166667,-65.15
colonia san juan,,08,-32.4833333,-59.7166667
colonia san martin,,01,-37.9833333,-62.3333333
colonia san martin,,04,-44.0333333,-70.4833333
colonia san martin,,06,-27.7333333,-57.5833333
colonia san miguel arcangel,,01,-37.45,-63.1166667
colonia san miguel,,01,-36.95,-60.1166667
colonia san miguel,,08,-32.05,-58.5333333
colonia san pedro,,01,-37.9333333,-62.35
colonia san pedro,,05,-30.7833333,-61.9166667
colonia san rafael,,05,-31.2666667,-62.8166667
colonia santa ana,,03,-27.1,-61.1666667
colonia santa barbara,,24,-26.9166667,-65.2666667
colonia santa catalina,,05,-32.0833333,-63.9833333
colonia santa elena,,03,-27.1,-61.1666667
colonia santa maria,,05,-31.5833333,-62.4166667
colonia santa maria,,11,-37.4,-64.2
colonia santa maria,,14,-27.9166667,-55.3833333
colonia santa rosa,,01,-37.6333333,-62.75
colonia santa rosa,,06,-28.2666667,-58.1166667
colonia santa rosa,,17,-23.3666667,-64.5
colonia santa teresa,,11,-37.5666667,-63.4166667
colonia santa teresa,,14,-26.4833333,-54.5666667
colonia santa virginia,,19,-34.0166667,-66.15
colonia santo pipo,,14,-27.1333333,-55.4166667
colonia san vicente,,08,-31.7833333,-58.7666667
colonia san vicente,,24,-26.9666667,-65.0833333
colonia san vincente,,08,-31.7833333,-58.7666667
colonia san vincente numero 6,,08,-31.7833333,-58.7666667
colonia sargento j.b. cabral,,06,-28.15,-58.5166667
colonia sargento juan bautista cabral,,06,-28.15,-58.5166667
colonia sargento juan b. cabral,,06,-28.15,-58.5166667
colonia sarmiento,,04,-45.6,-69.0833333
colonia sauce,,06,-30.85,-57.8666667
colonia sere,,01,-35.4333333,-62.7
colonia silva,,21,-30.45,-60.4333333
colonias nueva trinidad,,24,-27.5,-65.5166667
colonias unidas,,03,-26.7,-59.6333333
colonia sur,,13,-33.3333333,-68.0333333
colonia tabay,,06,-28.2666667,-58.1166667
colonia tacurales,,21,-30.8166667,-61.75
colonia tata cua,,06,-28.3833333,-58.4
colonia teniente general frias,,16,-40.2,-64.2
colonia tirolesa,,05,-31.2333333,-64.0833333
colonia tres de abril,,06,-28.4,-58.9166667
colonia tres de mayo,,13,-32.6666667,-68.6166667
colonia udine,,05,-31.05,-62.35
colonia unidas,,03,-26.7,-59.6333333
colonia urdaniz,,19,-35.2,-66.2166667
colonia valtelina,,05,-31.0333333,-62.25
colonia valterina,,05,-31.0333333,-62.25
colonia veinticinco,,05,-32.8666667,-61.9666667
colonia veinticinco de mayo,,11,-37.8,-67.6833333
colonia velaz,,01,-33.8166667,-60.0333333
colonia velez,,08,-31.8666667,-58.85
colonia videla,,05,-31.8833333,-63.5333333
colonia vignaud,,01,-30.85,-61.95
colonia villafane,,09,-26.2,-59.0833333
colonia villa maria,,01,-34.9,-60.3666667
colonia vista alegre,,15,-38.75,-68.1833333
colonia waltelina,,05,-31.0333333,-62.25
colonia wanda,,14,-25.9666667,-54.4666667
colonia yabebiri,,14,-27.45,-55.3
colonia yabebiry,,14,-27.45,-55.3
colonia zapallar,,03,-26.55,-59.35
colpes,,02,-28.1,-66.2166667
comallo,,16,-41.0333333,-70.2666667
comandante fontana,,09,-25.3333333,-59.6833333
comandante giribone,,01,-35.6166667,-57.6833333
comandante granville,,19,-33.45,-65.8833333
comandante leal,,12,-30.8833333,-65.7833333
comandante l. piedrabuena,,07,-34.6833333,-58.5
comandante l. piedrabuena,,20,-49.9833333,-68.9
comandante luis piedra buena,,20,-49.9833333,-68.9
comandante nicanor otamendi,,01,-38.1166667,-57.85
comandante portillo,,23,-54.9,-66.0
comandante salas,,13,-33.85,-68.0
comedero,,02,-28.9166667,-65.6
comodoro py,,01,-35.3166667,-60.5166667
comodoro rivadavia,142597,07,-45.8666667,-67.5
comte granville,,19,-33.45,-65.8833333
cona niyeo,,16,-41.8833333,-67.0
cona niyeu,,16,-41.8833333,-67.0
concaran,,19,-32.5666667,-65.25
concepcion,,02,-28.6833333,-65.4
concepcion,,05,-31.3166667,-62.8333333
concepcion,,06,-28.3833333,-57.8833333
concepcion,,22,-27.9333333,-63.6333333
concepcion,,24,-27.3333333,-65.5833333
concepcion de la sierra,,14,-27.9833333,-55.5166667
concepcion del bermejo,,03,-26.6,-60.95
concepcion del uruguay,72904,08,-32.4833333,-58.2283333
conchas,,17,-25.45,-64.9666667
conchitas,,01,-34.7833333,-58.1666667
concoran,,19,-32.5666667,-65.25
concordia,155686,08,-31.4,-58.0333333
condado,,12,-28.9666667,-68.1833333
condarco,,01,-35.2666667,-63.0666667
condor,,10,-22.0833333,-66.1166667
condor,,20,-52.1666667,-69.05
condores,,05,-32.3333333,-64.2666667
condorhuasi,,02,-27.4833333,-67.0833333
conesa,,01,-33.6,-60.35
conesa,,16,-40.1,-64.4333333
coneta,,02,-28.5833333,-65.9
congreso,,07,-34.6166667,-58.4
conhello,,11,-36.0166667,-64.6
conhelo,,11,-36.0166667,-64.6
coni,,06,-30.0666667,-58.2666667
conlara,,05,-32.0833333,-65.2333333
conlara,,19,-32.8833333,-65.5333333
conscripto bernardi,,08,-31.05,-59.0833333
constanza,,21,-30.6666667,-61.3333333
constitucion,,07,-34.6166667,-58.3833333
constituyentes,,21,-31.3666667,-60.6666667
contraalmirante cordero,,16,-38.7333333,-68.1666667
contraalmirante martin guerrico,,16,-39.0166667,-67.7333333
contralmirante cordero,,16,-38.7333333,-68.1666667
contralmirante martin guerrico,,16,-39.0166667,-67.7333333
copacabana,,02,-28.2,-67.4833333
copacabana,,05,-30.65,-64.5166667
copetonas,,02,-38.7166667,-60.45
copina,,05,-31.5666667,-64.7
copo quile,,17,-26.0166667,-64.6666667
copo quiles,,17,-26.0166667,-64.6666667
coquimbito,,13,-32.9666667,-68.75
coraceros,,01,-36.3333333,-61.7666667
cora,,21,-33.5333333,-61.4666667
coranzuli,,10,-23.0333333,-66.4
coraya,,10,-23.15,-65.45
corazon de maria,,05,-31.45,-63.9833333
corazuli,,10,-23.0333333,-66.4
corazuli irolana,,10,-23.0333333,-66.4
corazzi,,01,-36.2,-62.4
corbett,,01,-35.85,-60.9833333
corcovado,,04,-43.5333333,-71.6
cordoba,1441007,05,-31.4,-64.1833333
cordobita,,02,-28.3,-67.2166667
cordona,,21,-31.9666667,-60.9166667
corolina,,05,-33.5166667,-64.2166667
coronda,,21,-31.9666667,-60.9166667
coronel abraham schweizer,,06,-30.25,-59.35
coronel abraham zchweizer,,06,-30.25,-59.35
coronel alzogaray,,19,-33.45,-65.55
coronel arnold,,21,-33.1,-60.9666667
coronel baigorria,,05,-32.85,-64.3666667
coronel belgrano,,21,-31.9166667,-61.4
coronel belisle,,16,-39.1833333,-65.9833333
coronel boerr,,01,-35.95,-59.0666667
coronel bogado,,21,-33.3166667,-60.6
coronel brandsen,,01,-35.1716667,-58.23
coronel bunge,,01,-37.5666667,-60.1333333
coronel charlone,,01,-34.6666667,-63.3666667
coronel cornejo,,17,-22.7333333,-63.8333333
coronel dorrego,,01,-38.7,-61.2833333
coronel du graty,,03,-27.6666667,-60.9333333
coronel eugenio del busto,,16,-38.95,-64.25
coronel falcon,,01,-38.6166667,-61.6833333
coronel fernandez,,22,-29.5333333,-63.2333333
coronel fraga,,21,-31.1666667,-61.9
coronel gomez,,16,-39.0333333,-67.65
coronel granada,,01,-34.7833333,-62.2
coronel hilario lagos,,11,-35.0166667,-63.9333333
coronel h. lagos,,11,-35.0166667,-63.9333333
coronel isleno,,01,-34.4166667,-60.4
coronel isteno,,01,-34.4166667,-60.4
coronel j. f. gomez,,16,-39.0333333,-67.65
coronel j. j. gomez,,16,-39.0333333,-67.65
coronel juan j. gomez,,16,-39.0333333,-67.65
coronel juan jose gomez,,16,-39.0333333,-67.65
coronel juan sola,,17,-23.4666667,-62.8833333
coronel juan sola morillo,,17,-23.4666667,-62.8833333
coronel manuel leoncio rico,,22,-26.4,-61.8333333
coronel manuel l. rico,,22,-26.4,-61.8333333
coronel martinez de hoz,,01,-35.3166667,-61.6166667
coronel m. de hoz,,01,-35.3166667,-61.6166667
coronel m.l. rico,,22,-26.4,-61.8333333
coronel moldes,,05,-33.6333333,-64.6
coronel moldes,,17,-25.2666667,-65.4833333
coronel mollinedo,,17,-24.5166667,-64.1333333
coronel mom,,01,-34.8333333,-60.3
coronel mon,,01,-34.8333333,-60.3
coronel ollero,,17,-25.0666667,-64.2666667
coronel olleros,,17,-25.0666667,-64.2666667
coronel olmedo,,05,-31.4833333,-64.1666667
coronel pringles,,01,-37.9666667,-61.3666667
coronel pringles,,16,-40.4333333,-63.6833333
coronel r. bunge,,01,-37.5666667,-60.1333333
coronel rodolfo bunge,,01,-37.5666667,-60.1333333
coronel rodolfo s. dominguez,,21,-33.1833333,-60.7166667
coronel rodolpho san dominguez,,21,-33.1833333,-60.7166667
coronel rodriguez,,21,-31.7,-61.25
coronel roseti,,21,-34.2833333,-62.5666667
coronel rosetti,,21,-34.2833333,-62.5666667
coronel r. s. dominguez,,21,-33.1833333,-60.7166667
coronel segovia,,19,-34.7833333,-65.9166667
coronel segui,,01,-34.8666667,-60.3833333
coronel suarez,,01,-37.4666667,-61.9166667
coronel vidal,,01,-37.45,-57.7166667
coronel vidt,,17,-24.9333333,-64.2166667
coropampa,,17,-25.5,-65.5166667
corpen aike,,20,-49.5833333,-69.5
corpen,,20,-49.5833333,-69.5
corpus,,14,-27.1166667,-55.5166667
corral alforja,,12,-29.8666667,-65.8
corral blanco,,10,-22.2,-65.5833333
corral de barranca,,05,-30.2833333,-64.05
corral de bustos,,05,-33.2833333,-62.2
corral de horca,,13,-34.7,-67.0666667
corral de isaac,,12,-31.9333333,-66.3666667
corral del bajo,,05,-32.0666667,-62.8
corral de lorca,,13,-34.7,-67.0666667
corral de mulas,,05,-31.7833333,-63.0166667
corrales,,02,-28.5166667,-65.3666667
corrales,,12,-28.8333333,-67.6666667
corralito,,05,-32.05,-64.2
corralito,,17,-22.9,-63.5
corralitos,,13,-32.8833333,-68.7
correa,,21,-32.85,-61.25
correas,,01,-35.0333333,-57.85
correntoso,,15,-40.75,-71.6833333
correra,,17,-25.8666667,-65.1333333
corrientes,390481,06,-27.4666667,-58.8333333
cortadera,,02,-28.25,-65.2
cortaderas,,02,-28.25,-65.2
cortaderas,,12,-30.5666667,-66.25
cortaderas,,15,-37.6666667,-69.5833333
cortaderas,,19,-32.5,-65.0
corti,,01,-38.6166667,-62.05
cortines,,01,-34.5666667,-59.2166667
corzuela,,03,-26.95,-60.9666667
cosme,,05,-31.7166667,-64.1
cosme norte,,05,-31.7166667,-64.1
cosme sud,,05,-31.8833333,-64.1166667
cosquin,,05,-31.25,-64.4833333
costa bonita,,01,-38.55,-58.6333333
costa de araujo,,13,-32.75,-68.4166667
costa del araujo,,13,-32.75,-68.4166667
costa de los reyes,,02,-28.3,-67.6666667
costa del tunal,,17,-25.4166667,-65.5833333
costa grande,,08,-32.15,-60.5166667
costa sacate,,05,-31.65,-63.7666667
cotagaita,,05,-30.9166667,-62.0833333
cote-lai,,03,-27.5,-59.6
cotita,,11,-37.7,-64.0666667
covello,,01,-36.2,-59.7166667
covunco centro,,15,-38.7333333,-70.0166667
covunco,,15,-38.5333333,-70.25
coy aike,,20,-51.15,-69.5
c. pellegrini,,21,-32.05,-61.8
cramer,,19,-33.7,-65.3666667
c. redonda,,08,-33.0833333,-59.1166667
crespo,,08,-32.0333333,-60.3166667
creston de piedra,,05,-30.65,-64.0666667
crispi,,21,-31.7333333,-62.05
cristiano muerto,,01,-38.6333333,-59.6166667
crosmayo,,10,-22.5833333,-66.35
crotto,,01,-36.5833333,-60.1666667
c.r.s. dominguez,,21,-33.1833333,-60.7166667
crucecita,,06,-28.95,-58.9833333
crucesita,,06,-28.95,-58.9833333
cruz alta,,05,-33.0075,-61.8130556
cruz chica,,05,-30.9666667,-64.4833333
cruz de cana,,05,-31.0666667,-64.95
cruz de cana,,19,-32.65,-66.3333333
cruz del eje,,05,-30.7333333,-64.8
cruz de los milagros,,06,-28.8333333,-59.0166667
cruz del quemado,,05,-30.9833333,-63.95
cruz de piedra,,13,-33.0333333,-68.8
cruz grande,,05,-30.9333333,-64.5
cruz grande,,22,-26.7,-63.6666667
cruz mojada,,05,-30.5,-64.3166667
cruz quemada,,17,-25.0166667,-64.9666667
c. salas,,01,-35.3833333,-61.9833333
c. tejedor,,01,-35.3833333,-62.4166667
cuadro nacional,,13,-34.6166667,-68.2833333
cuatreros,,01,-38.7,-62.4
cuatro bocas,,08,-33.1,-60.35
cuatro bocas,,22,-28.8666667,-61.85
cuatro caminos,,05,-32.7166667,-62.6166667
cuatro de febrero,,21,-33.8,-61.5833333
cuatro de junio,,19,-33.05,-65.6166667
cuatro de noviembre,,01,-34.15,-60.8
cuatro esquinas,,12,-31.8,-65.8666667
cuatro esquinas,,19,-33.2666667,-66.1166667
cuatro vientos,,05,-33.0666667,-64.5666667
cuay chico,,06,-28.7166667,-56.4166667
cuay grande,,06,-28.6666667,-56.2833333
cubanea,,16,-40.6666667,-63.5
cucha cucha,,01,-34.6166667,-60.4166667
cuchi corral,,05,-30.9833333,-64.6
cuchi corral,,22,-29.5333333,-63.2333333
cuchilla,,08,-33.0833333,-59.1166667
cuchilla,,14,-27.0,-55.05
cuchilla redonda,,08,-33.0833333,-59.1166667
cuchillo co,,11,-38.3333333,-64.6166667
cucullu,,01,-34.45,-59.35
cuesta,,10,-22.0666667,-66.0166667
cueva blanca,,12,-29.3333333,-68.9166667
cueva de los indios,,05,-31.15,-64.55
cueva de los pajaritos,,05,-31.3,-64.5666667
cueva romero,,12,-29.05,-67.7
cuevas,,02,-27.0333333,-66.65
cuipan,,12,-28.45,-67.1166667
culampaja,,02,-26.95,-66.95
culampajao,,02,-26.95,-66.95
cullen,,23,-52.9,-68.4666667
cululu,,21,-31.2,-60.9333333
cuna pipu,,14,-27.05,-55.05
cunapiru,,14,-27.05,-55.05
cuquero,,22,-26.65,-63.2
curaco,,11,-38.15,-65.9166667
curaco,,16,-39.45,-67.7
cura malal,,01,-37.4666667,-62.1
curapaligue,,05,-34.0666667,-63.6166667
curaru,,01,-35.6333333,-62.2166667
curhuani,,10,-22.4833333,-65.95
curramalan,,01,-37.4666667,-62.1
curtiembre,,08,-31.4666667,-60.1666667
curumalan,,01,-37.4666667,-62.1
curupaity,,21,-30.4,-61.6666667
curupayti,,21,-30.4,-61.6666667
curuzu cuatia,,06,-29.7833333,-58.05
curuzu,,06,-27.9333333,-55.8333333
cutrai-co,,15,-38.9333333,-69.2333333
cutral-co,,15,-38.9333333,-69.2333333
cuyin manzano,,15,-40.7666667,-71.1833333
cuyoj,,22,-27.6666667,-64.1166667
daheza,,05,-31.65,-63.0333333
daireaux,,01,-36.6,-61.75
dalmacio velez,,05,-32.6,-63.5833333
dalmacio velez sarsfield,,05,-32.6,-63.5833333
damian maisonave,,11,-35.0333333,-64.3833333
damian maisonnave,,11,-35.0333333,-64.3833333
daniel donovan,,19,-33.3333333,-66.2333333
darragueira,,01,-37.7,-63.1666667
darregueira,,01,-37.7,-63.1666667
darwin,,16,-39.2,-65.7666667
d. casanova,,04,-45.9666667,-70.6
d. de alvear,,21,-34.3666667,-62.15
dean funes,,05,-30.4333333,-64.35
de bary,,01,-36.35,-63.2333333
de bruyn,,01,-34.3333333,-61.5333333
defferrari,,01,-38.3,-59.3833333
deheza,,05,-32.7333333,-63.7666667
de la canal,,01,-37.1166667,-59.1
de la garma,,01,-37.9666667,-60.4166667
de la serna,,05,-34.3666667,-64.7
del campillo,,05,-34.3666667,-64.4833333
del carril,,01,-35.5166667,-59.5
delfin gallo,,24,-26.85,-65.1
delfin huergo,,01,-37.3666667,-63.25
delgado,,01,-34.1666667,-61.25
delicia,,05,-30.6333333,-64.2333333
delicias,,08,-31.9333333,-60.4166667
delicias,,17,-23.9333333,-63.3333333
del valle,,01,-35.9,-60.7166667
del viso,,01,-34.45,-58.8
de mayo,,14,-25.9166667,-54.5833333
dennehy,,01,-35.35,-60.7666667
derechos de la ancianidad,,01,-34.8333333,-58.1
d.e. ritchie,,20,-51.9833333,-70.4
derqui,,01,-34.4972222,-58.8636111
desaguadero,,13,-33.4166667,-67.1833333
desaguaredo,,13,-33.4166667,-67.1833333
descado,,14,-25.7833333,-54.05
deseado,,14,-25.7833333,-54.05
deseado,,20,-47.75,-65.9
desiderio tello,,12,-31.2166667,-66.3166667
desmochado afuera,,21,-33.0,-61.2666667
desmochado,,06,-28.7833333,-58.9666667
despedida,,23,-53.9666667,-68.25
despenaderos,,05,-31.8166667,-64.3
despidida,,23,-53.9666667,-68.25
destacamento fagnano,,23,-54.5333333,-67.2833333
destileria chachapoyas,,17,-24.75,-65.3833333
desvio a. zumaran,,05,-32.4,-63.0666667
desvio kilometro 1342,,22,-26.1833333,-61.9666667
desvio kilometro 366,,21,-28.4333333,-60.0
desvio la escondida,,03,-27.1166667,-59.45
desvio la paloma,,22,-27.5666667,-61.8666667
desvio las mojarras,,05,-32.3,-63.2333333
desvio llajta mauca,,22,-28.2,-63.0833333
desvio parada ayui,,06,-31.2666667,-57.9833333
desvio parada chaviyu,,06,-31.1,-57.9166667
desvio patay,,22,-26.8333333,-62.95
desvio sueldos,,24,-27.1166667,-65.2166667
desvio toledo,,01,-35.6333333,-59.6166667
desvio tres mojones,,22,-27.7833333,-61.9166667
devisadero,,18,-32.0166667,-68.6833333
devoto,,05,-31.4,-62.3166667
d. gaynor,,01,-34.2833333,-59.2333333
d. harosteguy,,01,-36.15,-59.2666667
d. huergo,,01,-37.3666667,-63.25
diadema argentina,,04,-45.7666667,-67.6666667
diadema,,04,-45.7666667,-67.6666667
diamante,,01,-34.6666667,-58.4166667
diamante,,08,-32.0644444,-60.6425
diaz,,21,-32.3666667,-61.0833333
dieciseis de julio,,01,-37.1833333,-60.1666667
diecisiete de agosto,,01,-37.9166667,-62.9333333
diego de alvear,,21,-34.3666667,-62.15
diego de rojas,,05,-31.0,-63.3166667
diego e. ritchie,,20,-51.9833333,-70.4
diego gaynor,,01,-34.2833333,-59.2333333
diego richtie,,20,-51.9833333,-70.4
diego ritchie,,20,-51.9833333,-70.4
dionisia,,01,-38.1166667,-57.85
dique el cadillal,,24,-26.6166667,-65.2
dique florentino ameghino,,04,-43.6666667,-66.4166667
dique las maderas,,10,-24.45,-65.25
dique lujan,,01,-34.3538889,-58.7080556
dique nivelador,,05,-32.1666667,-64.3666667
divisadero,,02,-29.2166667,-65.45
divisadero,,18,-32.0166667,-68.6833333
divisoria,,18,-31.7166667,-68.3
dixonville,,19,-34.7666667,-65.5166667
d. maisonave,,11,-35.0333333,-64.3833333
doblas,,11,-37.15,-64.0166667
doce de agosto,,01,-33.7833333,-60.6
doce de octubre,,01,-35.6,-60.9
dock sud,,01,-34.6333333,-58.3666667
dock sur,,01,-34.6333333,-58.3666667
doctor carlos montag,,09,-25.55,-59.8
doctor domingo harosteguy,,01,-36.15,-59.2666667
doctor enrique zarate,,05,-31.35,-64.4666667
doctor ezequiel ramos mejia,,09,-24.1166667,-61.4166667
doctor facundo zubiria,,17,-25.0833333,-65.4833333
doctor facundo zuviria,,17,-25.0833333,-65.4833333
doctor f. zuviria,,17,-25.0833333,-65.4833333
doctor nicasio salas orono,,05,-30.8166667,-63.8666667
doctor n. salas orono,,05,-30.8166667,-63.8666667
doctor ricardo rojas,,04,-45.5666667,-71.0666667
doctor rogelio cortizo,,16,-40.7333333,-65.0333333
dolavon,,07,-43.3,-65.7
dolores,25190,01,-36.3333333,-57.6666667
dolores,,02,-28.4333333,-65.7333333
dolores,,05,-30.9,-64.5333333
dolores,,19,-32.5666667,-65.25
dolores,,21,-30.3833333,-60.3166667
dolores,,22,-27.85,-63.35
domingo millan,,24,-27.65,-65.6
dominguez,,08,-31.9833333,-58.9666667
dominguez,,21,-33.1833333,-60.7166667
dominguito,,05,-30.7833333,-65.0833333
domselaar,,01,-35.0666667,-58.3
donadeu,,22,-26.7166667,-62.7333333
donado,,19,-33.7833333,-66.8833333
dona luisa,,22,-27.7,-64.7333333
donato alvarez,,24,-27.55,-65.6166667
don bosco,,01,-34.7,-58.2833333
don cipriano,,01,-35.4833333,-57.7666667
don cristobal,,08,-32.0666667,-60.0
don diego,,02,-29.35,-65.6166667
don roberto,,08,-31.1,-58.2666667
don torcuato,,01,-34.5,-58.6333333
d'orbigny,,01,-37.6833333,-61.7166667
dorila,,11,-35.7833333,-63.7
dorrego,,01,-38.7,-61.2833333
dos arroyos,,14,-27.7,-55.25
dos de mayo,,14,-27.0333333,-54.65
dos hermanas,,08,-33.1666667,-58.9
dos naciones,,01,-37.7666667,-58.65
dos pozos,,07,-43.9,-65.4166667
doyhenard,,01,-35.1166667,-58.15
drabble,,01,-34.9,-62.7666667
dragones,,17,-23.25,-63.35
drysdale,,01,-35.3,-62.6333333
ducos,,01,-37.4666667,-62.4166667
dudignac,,01,-35.65,-60.7333333
dufaur,,01,-37.95,-62.3
duggan,,01,-34.2166667,-59.6333333
dumesnil,,05,-31.3333333,-64.3333333
duranona,,01,-37.25,-60.5166667
duraznito,,19,-32.3,-65.2833333
durazno,,05,-31.3333333,-64.65
durazno,,08,-31.9833333,-59.2833333
durazno,,12,-28.6,-67.85
durazno,,19,-33.1666667,-66.15
durazno norte,,08,-31.9833333,-59.2833333
durham,,21,-33.55,-61.4833333
dussaud,,01,-34.7833333,-61.7666667
d. velez,,05,-32.6,-63.5833333
d. velez sarsfield,,05,-32.6,-63.5833333
e.a. gascon,,01,-37.4666667,-63.2666667
e. ayarza,,01,-34.75,-60.05
e. bancalari,,01,-34.4666667,-58.6
e.b. perkins,,01,-34.4666667,-61.6666667
e. bustos,,13,-33.7666667,-69.0666667
e. carbo,,08,-33.1333333,-59.2333333
e. castex,,11,-35.9,-64.3
echague,,08,-32.4,-59.2666667
echegoyen,,01,-34.4333333,-59.0833333
echeverria,,01,-34.35,-60.8
e. costa,,01,-34.8166667,-62.35
e. de luca,,01,-35.65,-62.35
edmundo b. perkins,,01,-34.4666667,-61.6666667
eduardo castex,,11,-35.9,-64.3
eduardo costa,,01,-34.8166667,-62.35
e. echeverria,,01,-34.815,-58.4791667
e. fynn,,01,-34.8333333,-59.1333333
egana,,01,-36.9833333,-59.1
egusquiza,,21,-31.1,-61.65
el abra,,12,-28.6833333,-67.65
el abra,,17,-23.1,-64.35
el abra,,22,-29.35,-63.85
el aguila,,11,-36.4333333,-67.15
el aguila,,19,-35.0666667,-66.5
el aguilar,,10,-23.2,-65.7
el aguilla,,11,-36.4333333,-67.15
el aibal,,02,-29.1166667,-65.35
el aibal,,17,-24.8166667,-65.45
el aibal,,22,-27.8833333,-63.2666667
el aibe,,22,-27.6,-64.2666667
el alambrado,,09,-23.25,-62.1666667
el alcazar,,14,-26.7333333,-54.7833333
el algarrobal,,13,-32.8166667,-68.7666667
el algarrobo,,13,-33.4666667,-68.0
el alisal,,17,-24.85,-65.6833333
el alto,,02,-28.3,-65.3666667
el alto,,12,-30.3666667,-66.5833333
e. lamarca,,01,-40.0666667,-62.6166667
el amparo,,19,-33.1833333,-66.15
el anil,,22,-27.15,-64.6166667
el aranado,,05,-31.75,-62.9
el arbol,,22,-29.2333333,-63.7
el arbolito,,01,-33.9166667,-60.9333333
el arroyo,,05,-30.4,-64.0666667
el aserradero,,24,-26.5333333,-65.0166667
el aybal,,02,-29.1166667,-65.35
el aybal,,22,-29.5333333,-62.5166667
el bajo hondo,,05,-29.8333333,-63.6
el baldecito,,19,-32.4,-66.1
el balde,,22,-26.2333333,-64.1333333
el banado,,02,-28.6333333,-65.8666667
el banado,,05,-30.35,-63.8166667
el banado,,24,-26.4333333,-65.9666667
el barco,,24,-26.65,-64.9
el barreal,,12,-29.6333333,-66.1
el barrial,,22,-29.7333333,-63.35
el barrialito,,02,-29.1833333,-65.45
el baviano,,02,-28.7833333,-65.3
el bolson,,02,-27.9166667,-65.8833333
el bolson,,16,-41.9666667,-71.5166667
el boqueron,,01,-38.0166667,-57.8
el borbolloncito,,13,-32.8166667,-68.7833333
el borbollon,,13,-32.8,-68.75
el bordito,,22,-29.6333333,-63.3666667
el bordo,,17,-24.7333333,-65.1
el bosque,,18,-31.4,-68.4
el botin,,17,-23.75,-62.7166667
el bracho,,24,-26.9833333,-65.1833333
el brete,,05,-30.6666667,-64.9
el brete,,10,-24.2333333,-65.1833333
el brete,,17,-26.0666667,-65.3666667
el brillante,,08,-32.1833333,-58.2166667
el cabure,,22,-26.0166667,-62.3666667
el cadillal,,24,-26.6166667,-65.2
el cadillo,,05,-31.3166667,-65.5
el cain,,16,-41.6333333,-68.3166667
el cajon,,02,-26.4333333,-66.2666667
el cajon,,22,-29.3166667,-63.8833333
el cajon,,24,-26.5333333,-64.8666667
el calafate,,20,-50.3333333,-72.3
el calden,,19,-31.8833333,-65.8666667
el canaveral,,05,-31.9,-65.45
el cano,,05,-32.6333333,-64.6
el cantadero,,12,-29.2166667,-66.8666667
el cantor,,21,-33.5166667,-62.15
el carmen,,05,-31.9,-64.3833333
el carmen,,10,-24.3833333,-65.2666667
el carmen,,17,-25.4333333,-65.5666667
el carmen,,19,-32.3333333,-67.1166667
el carmen,,24,-26.5666667,-66.1
el carril,,10,-24.3666667,-65.35
el carril,,17,-25.0833333,-65.4666667
el carrizal de abajo,,13,-33.3,-68.75
el carrizal de arriba,,13,-33.2333333,-68.8
el cebillar,,17,-25.6166667,-65.4666667
el ceibal,,10,-24.3,-65.2666667
el ceibalito,,17,-24.9666667,-65.3666667
el central,,13,-32.8,-68.3666667
el cercado,,02,-29.35,-65.4833333
el cercado,,22,-27.7666667,-64.1166667
el cerrito,,02,-29.4,-65.4
el cerrito,,20,-50.65,-71.4
el cerrito,,22,-29.1333333,-63.9666667
el cerrito hotel,,20,-50.65,-71.4
el cerro,,16,-39.7333333,-68.5166667
el cerro,,22,-29.1833333,-63.7666667
el cevillar,,17,-25.6166667,-65.4666667
el chacho,,05,-30.8,-65.6666667
el challao,,13,-32.85,-68.9333333
el chamico,,05,-31.4166667,-65.1
el chanaral,,09,-22.5166667,-62.3
el chanar,,18,-30.9,-67.3166667
el chanar,,19,-32.7833333,-66.3
el chanar,,24,-26.7666667,-65.05
el chaquito,,09,-22.85,-62.0833333
el charco,,22,-27.2333333,-64.7
el chiflon,,12,-30.2166667,-67.55
el chilcar,,24,-27.0666667,-65.1
el chimborazo,,19,-32.45,-66.7666667
el chinque,,15,-37.1833333,-70.6666667
el choique,,20,-49.3666667,-69.7166667
el cholar,,15,-37.4166667,-70.65
el chollar,,15,-37.4166667,-70.65
el chonque,,20,-49.3666667,-69.7166667
el chorrillo,,19,-33.3,-66.2666667
el chorro,,09,-23.1833333,-62.3
el churcal,,17,-25.3666667,-66.2333333
el churqui,,22,-26.3166667,-63.75
el cienago,,12,-30.7333333,-66.2333333
el cimarron,,08,-30.9666667,-59.0
el cogoi,,09,-24.7666667,-59.2166667
el colmenal,,24,-26.7833333,-65.1833333
el colorado,,09,-26.3,-59.3666667
el colorado,,22,-27.9333333,-62.1666667
el condado,,12,-28.9666667,-68.1833333
el condor,,20,-52.1666667,-69.05
el corcovado,,04,-42.7,-65.8
el coro,,05,-29.6833333,-63.7833333
el coyte,,04,-45.2166667,-71.3
el coyunco,,01,-37.9,-57.7333333
el crispin,,05,-31.0333333,-63.6166667
el cuadrado,,22,-28.2166667,-61.9666667
el cuy,,16,-39.9333333,-68.3333333
el desmonte,,02,-26.9,-66.1
el desmonte,,09,-22.6833333,-62.2
el destierro,,17,-24.1166667,-62.4666667
el destino,,05,-31.65,-64.2666667
eldia,,01,-34.75,-62.8333333
el divisadero,,02,-29.2166667,-65.45
el divisadero,,22,-29.2666667,-63.6
el divisorio,,01,-38.3166667,-61.45
el dorado,,01,-34.65,-61.5666667
eldorado,62823,14,-26.3833333,-54.6666667
el duraznito,,24,-26.6666667,-65.1833333
el durazno,,05,-30.4666667,-63.5333333
el durazno,,11,-36.7,-65.2833333
el durazno,,12,-28.6,-67.85
el durazno,,17,-24.7833333,-65.5333333
el durazno,,19,-33.1666667,-66.15
el empachado,,22,-27.9833333,-63.7166667
elena,,04,-43.7,-71.2666667
elena,,05,-32.5666667,-64.3833333
el encon,,17,-24.85,-65.55
eleodoro lobos,,19,-33.3833333,-66.0166667
elertondo,,21,-33.7,-61.6166667
el espinillo,,03,-25.4,-60.45
el espinillo,,24,-26.75,-64.9666667
el estanque,,05,-30.5166667,-64.1833333
el estanquito,,12,-29.3666667,-66.4666667
el faro,,05,-31.6333333,-65.1
el fiscal,,18,-30.25,-68.6833333
el florentino,,05,-32.1166667,-62.4166667
el fortin,,05,-31.9666667,-62.3166667
el forzado,,13,-32.5833333,-67.3166667
el fuertecito,,05,-31.4166667,-62.9833333
el fuerte,,10,-24.2666667,-64.4166667
el galpon,,17,-25.3833333,-64.6333333
el gateado,,05,-31.3166667,-64.1333333
el gato,,09,-26.1833333,-58.9333333
el ghio,,20,-47.3,-71.4666667
el glo,,20,-47.3,-71.4666667
el gritado,,17,-23.9,-62.7333333
el guardamonte,,24,-27.35,-65.0833333
el hinojo,,16,-39.25,-65.8666667
el hormiguero,,19,-31.95,-65.85
el horno,,12,-28.75,-68.1666667
el hoyo,,22,-27.0333333,-63.2333333
el huaco,,12,-29.1666667,-67.1
el hualco,,05,-29.8333333,-62.5666667
el huecu,,15,-37.6166667,-70.6
el hunco,,04,-42.35,-66.2
elias romero,,01,-34.7666667,-58.8666667
elida,,01,-34.75,-62.8333333
elisa,,21,-30.6833333,-61.05
el jabali,,01,-35.45,-61.35
el jardin,,17,-26.0833333,-65.3833333
el jardin,,21,-33.7,-61.6833333
el jardin,,24,-27.2666667,-65.4
el jumeal,,02,-29.4166667,-65.5
el jume,,22,-29.4166667,-63.95
el jumial,,02,-29.4166667,-65.5
el junco,,04,-42.35,-66.2
el laurel,,21,-30.9666667,-60.0666667
el lenguaraz,,01,-38.05,-58.85
el maiten,,07,-42.05,-71.1666667
el manantial escondido,,19,-32.7,-65.9166667
el mangrullo,,01,-35.75,-60.05
el mangrullo,,15,-39.4,-68.95
el mangrullo,,19,-33.9833333,-65.1333333
el manzano,,05,-31.0833333,-64.3
el manzano,,13,-36.1166667,-69.75
el manzano,,17,-24.9333333,-65.8
el martillo,,19,-35.5666667,-65.9166667
el marucho,,15,-39.45,-70.1833333
el mayoco,,04,-42.65,-70.9833333
el medano,,02,-29.3166667,-65.7333333
el milagro,,02,-29.35,-65.35
el milagro,,12,-31.0166667,-65.9833333
el milagro,,19,-33.1,-66.3666667
el mirador,,05,-31.5833333,-65.1166667
el mirador,,13,-33.3333333,-68.3333333
el mirasol,,04,-43.3666667,-67.7
el mistolar,,05,-30.5833333,-62.8666667
el mistol,,10,-23.9666667,-64.2833333
el mojoncito,,22,-28.3333333,-64.8833333
el mojon,,05,-30.0166667,-62.5333333
el mojon,,22,-26.1,-64.3166667
el molino,,05,-30.3166667,-64.15
el molino,,17,-26.2333333,-65.95
el molino,,24,-27.3333333,-65.7
el mollar,,12,-30.4333333,-66.2833333
el mollar,,17,-25.0333333,-65.5666667
el mollar,,19,-32.0166667,-66.8
el mollar,,24,-26.95,-65.7166667
el mollecito,,02,-27.7833333,-66.2
el molle,,04,-43.8166667,-69.9166667
el molle,,18,-29.8,-69.2666667
el molle,,19,-33.1,-66.3
el montecillo,,05,-32.25,-64.3
el moreno,,02,-29.25,-65.4
el moreno,,10,-23.8666667,-65.8
el moro,,01,-38.1,-58.5666667
el morro,,19,-33.2166667,-65.4833333
el naranjo,,17,-25.7333333,-64.9833333
el naranjo,,24,-26.6666667,-65.05
el negrito,,22,-27.35,-63.2666667
el nihuil,,13,-35.0333333,-68.6666667
el odre,,11,-36.9666667,-66.2
el ojito,,22,-26.1833333,-64.3
el ojo,,24,-26.6666667,-65.15
el ombu,,08,-30.4666667,-59.25
elordi,,01,-35.05,-63.1333333
elortondo,,21,-33.7,-61.6166667
el oso,,22,-29.5833333,-62.5
el pajarito,,04,-43.8,-69.25
el pajeal,,17,-22.0333333,-63.6
el pajonal,,02,-28.3666667,-66.3
el palmar,,03,-27.1333333,-61.4833333
el palmar,,10,-24.0833333,-64.5833333
el palomar,,01,-34.5416667,-58.6152778
el palomar,,15,-36.7,-70.7666667
el palomar,,22,-26.9,-64.6
el pampero,,05,-34.2166667,-65.0
el pantanillo,,19,-32.3333333,-65.9166667
el pantano,,19,-33.2,-66.3666667
el parador,,05,-32.1166667,-64.4833333
el paraiso,,01,-33.5666667,-59.9833333
el paraiso,,09,-25.1833333,-57.9666667
el paraiso,,13,-33.05,-68.6833333
el paraiso,,14,-27.9333333,-55.65
el paraiso,,22,-29.65,-63.0833333
el paramo,,23,-53.05,-68.25
el parche,,01,-35.8666667,-60.25
el parque,,10,-24.2166667,-65.2
el parral,,13,-34.0166667,-69.1333333
el parron,,12,-29.0833333,-67.6333333
el paso,,20,-49.9833333,-68.9
el pastal,,13,-32.7666667,-68.7166667
el pastal,,19,-32.4333333,-66.7833333
el patria,,19,-34.7666667,-65.5166667
el pensamiento,,01,-38.2166667,-61.3166667
el perchel,,05,-30.1333333,-64.0333333
el perdido,,03,-26.55,-58.9833333
el pertigo,,17,-23.65,-62.85
el pertigo,,22,-27.3,-62.7333333
el pimpollo,,19,-31.8833333,-65.9333333
el pingo,,08,-31.5833333,-59.8833333
el pintado,,03,-24.6333333,-61.45
el pique,,12,-29.15,-67.65
el piquete,,10,-24.2166667,-64.65
el piquete,,17,-24.7666667,-64.4666667
el piquete,,21,-31.5666667,-60.7166667
el pluma,,20,-46.4666667,-70.05
el plumerillo,,13,-32.8333333,-68.7833333
el poniente,,05,-31.7,-65.3
el porteno,,09,-24.7166667,-59.5833333
el portezuelo,,02,-28.4666667,-65.6333333
el portezuelo,,05,-31.8333333,-65.2
el portezuelo,,12,-30.85,-66.7
el portezuelo,,19,-33.1166667,-66.8333333
el portezuelo,,20,-46.05,-71.6666667
el portillo,,05,-30.3666667,-64.35
el porvenir,,01,-36.1,-61.15
el porvenir,,10,-23.8666667,-66.85
el porvenir,,16,-40.1,-64.5166667
el porvenir,,17,-25.3833333,-64.6666667
el porvenir,,19,-35.8666667,-66.2833333
el porvenir,,22,-26.5,-63.6666667
el porvenir,,24,-27.7666667,-65.55
el potrerillo,,12,-28.4166667,-67.6833333
el potrero,,17,-26.05,-64.6166667
el prado,,21,-52.8333333,-60.7
el puca,,03,-26.9666667,-61.3
el pucara,,17,-24.9333333,-65.5833333
el pueblito,,05,-31.1166667,-64.3
el pueblito,,08,-32.1666667,-59.8166667
el pueblito,,22,-29.15,-63.5666667
el pueblo viejo,,24,-27.2166667,-65.5833333
el puente,,05,-31.4,-63.0666667
el puertecito,,05,-31.4166667,-62.9833333
el puestito,,05,-29.5666667,-64.0666667
el puestito,,22,-27.7666667,-64.3666667
