names,population,state_code,lat,lon
22 (dvadtsat' vtorogo) parts''yezd,,02,38.5286111,68.7797222
abdan,,02,38.4666667,68.9333333
abdu,,03,38.7166667,68.3666667
abdulay,,02,38.3166667,68.5666667
abdusamar,,03,39.4294444,67.5013889
abdusamat,,03,39.4294444,67.5013889
adinobay,,02,37.725,69.8491667
adrasman,,03,40.6486111,69.9855556
adrasmon,13372,03,40.6486111,69.9855556
afandi,,02,38.5366667,69.8447222
(( afgan-kishlak )),,02,37.4666667,69.3666667
aflotuk,,02,37.9786111,69.8277778
aftoluk,,02,37.9786111,69.8277778
agaravak,,02,37.9833333,68.5666667
agurty,,02,38.6602778,68.8711111
aini,,03,39.3975,68.5405556
aiwanj,,02,36.9788889,68.0325
akalchin,,02,38.5166667,68.4833333
akarbulok,,02,37.8619444,69.3766667
akbaytal,,01,38.4894444,73.8783333
ak-bulak,,02,37.9666667,68.4
akbulok,,02,38.3483333,68.6586111
ak-buryu,,02,38.4,68.6333333
akcha,,02,37.4005556,68.1672222
akderob,,01,37.25,71.4833333
ak-dzhar,,01,37.6833333,68.5833333
akdzhar,,01,37.7180556,73.1494444
ak-dzhar,,03,38.6,68.2666667
ak-dzhor,,03,38.6,68.2666667
ak-guaz-kaaz,,03,39.8666667,68.95
akhdzev,,01,37.95,71.6166667
akhteraki bolo,,02,38.3833333,70.0166667
akkamar,,02,38.0722222,68.6788889
ak-kurgan,,02,38.4666667,68.75
ak-kutal,,03,39.3866667,67.6708333
ak-mamad,,01,37.7,72.2333333
ak-mazar,,02,37.6691667,69.6525
akmazar,,02,37.9833333,68.8666667
akmazor,,02,37.6691667,69.6525
ak-mechet',,02,38.0561111,68.3541667
aknakhodzha,,03,38.5705556,68.1058333
aksa-rovat,,02,38.2666667,68.8
aksay,,03,39.3833333,71.6
(( akshivan )),,02,37.85,69.55
ak-su,,02,38.1166667,68.5666667
aksu,,02,38.15,69.3
ak-tailak,,01,37.6666667,72.5166667
ak-tak,,02,38.6166667,68.8666667
ak-tash,,01,37.6333333,74.8
ak-taylyak,,01,37.6666667,72.5166667
(( akteri )),,02,37.4666667,68.55
aktero,,02,37.4666667,68.55
ak-tyube,,03,40.0166667,69.4666667
akuyli,,02,38.4666667,68.6
akzhar,,01,37.7180556,73.1494444
alakchin,,02,38.675,68.7694444
alakdzhar,,03,39.45,67.5166667
al'cha-bulak,,02,38.2,69.5166667
al'chagi,,02,38.4186111,69.0833333
alchagy,,02,38.4186111,69.0833333
alchin,,02,37.7666667,68.8
alibegi,,02,38.6347222,68.5713889
aliberdy,,02,37.26,69.1475
alichur,,01,37.7447222,73.2569444
alidzhan,,02,38.1686111,69.4
aligalabon,,02,38.7627778,69.8344444
alijon,,02,38.1686111,69.4
alipberdy,,02,37.26,69.1475
alisurkhon,,01,38.9083333,71.0113889
al'kadzhar,,02,38.5380556,68.8366667
alkamazhar,,02,37.4036111,69.1461111
alkhitay,,02,38.6719444,68.8030556
alkhitoy,,02,38.6719444,68.8030556
alkhuch,,03,38.7322222,68.7077778
alla-baytal,,02,38.3794444,68.7311111
al'ma-bulak,,02,38.0666667,69.4833333
al'mabulak,,02,38.2,69.5166667
al'mabulok,,02,38.2,69.5166667
almaly,,03,39.9166667,68.9166667
almasi,,02,38.6833333,68.6166667
al'masy,,02,38.6833333,68.6166667
almyshabad,,02,38.3308333,68.8719444
almysh,,02,38.3308333,68.8719444
alobaytal,,02,38.3794444,68.7311111
aloudin,,02,37.4644444,69.3677778
alovuddin,,02,37.4644444,69.3677778
altin mazar,,01,39.1833333,72.2333333
alton mazar,,01,39.1833333,72.2333333
altyn-magar,,01,39.1833333,72.2333333
altynmazar,,01,39.1833333,72.2333333
altyn-topkan,4823,03,40.645,69.5966667
amaler,,01,36.7936111,71.5805556
amandara,,03,39.5177778,67.8130556
amdarbog,,01,38.2316667,71.5575
amondara,,03,39.5177778,67.8130556
amonshaykhi,,02,38.6086111,69.1102778
amonsheykhi,,02,38.6086111,69.1102778
amring,,02,37.7333333,70.25
anatrosh,,02,38.05,70.0166667
andarab,,01,37.25,71.4833333
andarbag,,01,38.2316667,71.5575
andarbak,,01,38.2316667,71.5575
andarbog,,01,38.2316667,71.5575
andarob,,01,37.25,71.4833333
andarsay,,03,40.0738889,69.4433333
andarsoy,,03,40.0738889,69.4433333
anderavdzh,,01,37.7666667,72.5833333
anderbag,,01,38.2316667,71.5575
anderbak,,01,38.2316667,71.5575
anderob,,01,37.25,71.4833333
andigon,,02,38.5708333,69.0575
andizhan,,02,37.2897222,69.0613889
andreyev,,02,38.5163889,68.6425
andygon,,02,38.5708333,69.0575
andzhirak,,01,38.4775,70.7786111
andzhir,,02,38.4461111,69.0041667
andzhirkon,,02,37.6619444,69.5225
andzhirobi-bolo,,02,37.8102778,70.1822222
angurli,,02,38.2,68.45
anjirak,,01,38.4775,70.7786111
anjir,,02,38.4461111,69.0041667
anjirkhon,,02,37.6619444,69.5225
anjirobi bolo,,02,37.8102778,70.1822222
anna-khudzha,,03,38.55,68.1
annakul-ravat,,02,38.4,68.75
annakul-rovat,,02,38.4,68.75
ansh-abad,,02,37.9666667,68.6666667
anzhirou-bolo,,02,37.8102778,70.1822222
(( anzhirou-poyen )),,02,37.8333333,70.1833333
anzob,,03,39.1658333,68.8238889
aptyuray,,03,40.1666667,70.6666667
aq tash,,01,37.6333333,74.8
arab,,02,37.2088889,68.0313889
arab,,03,40.1833333,70.5833333
arabkhana,,02,37.2088889,68.0313889
arab-khana,,02,37.3891667,68.1866667
arabkhonai kalon,,02,37.3891667,68.1866667
arabo,,02,37.4969444,69.3491667
aral,,02,37.8025,69.6441667
arbob,,02,38.5544444,68.7216667
arbobi,,02,38.6166667,68.5666667
arbobkhotun,,02,38.5544444,68.7216667
archa,,02,37.6308333,69.4522222
ardabag,,01,38.4438889,71.5930556
ardabog,,01,38.4438889,71.5930556
ardobag,,01,38.4438889,71.5930556
ardzhanak,,03,38.75,68.5833333
argankul,,01,38.8680556,70.8955556
argankun,,01,38.8680556,70.8955556
arkhu,,03,39.0166667,69.2666667
arla-tugul'dy,,02,37.7736111,69.5877778
arpa-bulak,,02,38.4666667,68.8833333
arpatuguldi,,02,37.7736111,69.5877778
arpatuguldy,,02,37.7377778,69.5569444
arpatugul'dy,,02,37.7736111,69.5877778
arshi,,03,38.65,68.3666667
artuch,,03,39.3397222,68.1141667
arzanion,,02,38.3666667,69.8666667
arzing,,01,38.8666667,71.35
arzying,,01,38.8666667,71.35
arzyng,,01,38.8666667,71.35
ashaba,,03,40.7333333,70.4333333
ashat,,03,40.8,70.6166667
asht,11705,03,40.6666667,70.3333333
askari,,02,38.5408333,68.5119444
askari surkh,,02,37.4194444,68.6405556
askari -surkh,,03,38.5658333,68.2708333
askerabad,,02,38.5666667,68.9833333
asvob,,03,38.5833333,68.2166667
ataugor,,01,38.55,70.8333333
(( atchanar )),,02,37.7666667,69.5
atchapar,,02,37.7938889,69.5802778
atochibulok,,02,37.8872222,69.3511111
auchi,,03,39.5902778,69.0830556
auchi-kalyacha,,03,40.1263889,69.6711111
avchi,,03,39.5902778,69.0830556
avchikalacha,,03,40.1263889,69.6711111
avdzh,,01,36.9333333,71.4833333
avtoulyuk,,02,37.9786111,69.8277778
avzali,,02,38.0430556,68.5716667
avzikent,,02,37.8033333,69.2772222
ay-botkan,,02,38.0833333,68.55
aykamar,,02,38.0722222,68.6788889
ayni,,02,38.5080556,68.6844444
ayni,2128,03,39.3975,68.5405556
ayni-khodzhaayni,,02,38.8183333,69.9441667
ayni-khojayni,,02,38.8183333,69.9441667
ayny,,03,39.3975,68.5405556
ayvach,,02,36.9788889,68.0325
ayvadzh,,02,36.9788889,68.0325
ayvaj,,02,36.9788889,68.0325
azhdzov,,01,37.95,71.6166667
azikeng,,02,38.4333333,68.4833333
babagabib,,02,38.9166667,69.8166667
baba-i-darkhan,,03,40.7,70.25
babosafol-poyen,,02,37.6152778,69.4038889
bacha-mazar,,02,37.9808333,69.6333333
bachamazor,,02,37.9808333,69.6333333
bachor,,01,37.75,72.5333333
badamtu,,02,37.8261111,69.9436111
badom-dara,,01,37.0833333,71.8166667
badurt,,01,38.1666667,72.1666667
badzhu,,01,37.7666667,71.6333333
badzhu-pavdiv,,01,37.8666667,71.6
badzhuv,,01,37.7666667,71.6333333
bagalak,,02,38.5066667,68.5552778
bagalok,,02,38.5066667,68.5552778
bagarak,,02,37.6205556,69.8705556
bagizagon,,02,38.4952778,69.8086111
bahorak,,02,37.6205556,69.8705556
bakaul,,02,38.6666667,68.8
bakay,,03,38.5016667,68.1616667
bakh,,02,37.5833333,69.95
bakhorak,,02,37.6205556,69.8705556
bakhor,,02,38.5488889,68.9861111
bakizagon,,02,38.4952778,69.8086111
bakoron,,02,38.6144444,69.0269444
balagdash,,02,37.9680556,69.0369444
baldirgon,,02,38.5102778,68.9011111
baldshuan,,02,38.3108333,69.6669444
bal'dzhuan,,02,38.3108333,69.6669444
bal'dzhuvon,,02,38.3108333,69.6669444
balga-boskan vtoroy,,02,37.7666667,68.75
bal'juan,,02,38.3108333,69.6669444
baljuvon,,02,38.3108333,69.6669444
balkhobi,,02,37.8636111,69.9066667
balkhoby,,02,37.8636111,69.9066667
baqoy,,03,38.5016667,68.1616667
baradzh,,01,37.2833333,71.7833333
barau,,01,38.3111111,71.3222222
baraun,,01,38.3111111,71.3222222
baravn,,01,38.4861111,71.6463889
baravni tor,,01,38.3111111,71.3222222
barchadev,,01,38.3041667,72.4772222
barchadiv,,01,38.3041667,72.4772222
barchidiv,,01,38.3041667,72.4772222
bardara,,01,38.1086111,72.2858333
barfunt,,01,38.0166667,71.8166667
barnavad,,01,38.4127778,71.9411111
barnavadzh,,01,38.4127778,71.9411111
barnovadz,,01,38.4127778,71.9411111
barou,,01,38.4972222,71.0363889
barsem,,01,37.55,71.7333333
barsen',,01,37.55,71.7333333
bartang,,01,38.0652778,71.8727778
barushan,,01,37.9333333,71.4333333
barushon,,01,37.9333333,71.4333333
bash-charbak,,02,37.5666667,68.1333333
bash-cherbak,,02,37.5666667,68.1333333
bash-gumbez,,01,37.7711111,73.5491667
bash-gunash,,02,37.5666667,68.55
bashkala,,02,37.4636111,68.1630556
bashkaynar,,02,38.2077778,68.8488889
bashkom baz,,01,37.7711111,73.5491667
bashkyngash,,02,38.4647222,68.8036111
bash-rukash,,02,37.5666667,68.55
bash-tal,,03,40.5833333,70.45
bash tegerman,,02,37.8475,69.7380556
basid,,01,38.105,72.1541667
basit,,01,38.105,72.1541667
basmanda,,03,39.6888889,69.1544444
basmandy,,03,39.6888889,69.1544444
basyd,,01,38.105,72.1541667
batan,,02,37.9616667,69.4825
batash,,03,38.5666667,68.3
batosh,,03,38.5666667,68.3
batrak,,02,37.9666667,68.5333333
batyrkhan,,02,37.9213889,69.7697222
baumanabad,,02,37.2383333,69.0969444
bay-kuchkar,,02,38.3666667,68.9
bdavn,,01,38.4166667,71.7666667
bdun,,01,38.2202778,71.4888889
bedak,,03,39.4072222,67.7122222
bedanibedak,,02,37.2808333,69.0463889
bedgun,,03,38.7333333,68.3833333
bedik,,03,39.4072222,67.7122222
begar,,03,38.8,68.8166667
bene,,01,37.6666667,71.55
berencha,,02,38.3833333,68.9666667
bersen,,01,37.55,71.7333333
besharik,,02,37.8286111,69.6338889
besharyk,,02,37.4566667,68.5769444
beshbulok,,02,37.6905556,69.0705556
beshbulok-bolo,,02,38.5936111,68.5897222
beshcheulok,,02,37.9902778,69.2191667
beshcheulyak,,02,37.9902778,69.2191667
beshkapa,,02,37.2302778,68.0205556
besh-kapa,,02,37.8166667,68.6833333
beshkapa,,02,38.2391667,68.9366667
beshkapai poyon,,02,38.1169444,68.3813889
besh-kape,,02,38.2391667,68.9366667
beshkappa,,02,37.2302778,68.0205556
beshkappoi-poyen,,02,38.1169444,68.3813889
beshkent,,02,37.2302778,68.0205556
(( besh-khabib )),,02,37.8833333,69.8333333
besh-kuduk,,02,37.4291667,69.2005556
beshquduq,,02,37.4291667,69.2005556
besh-tegerman,,02,37.8475,69.7380556
beshtegirmon,,02,37.8475,69.7380556
beshtemir,,02,37.3413889,68.1541667
beshtentak,,02,38.3011111,69.7130556
besh-tepa,,02,38.5333333,68.7833333
besh-timuch,,02,37.3413889,68.1541667
besh-timur,,02,37.3413889,68.1541667
beydakho,,02,38.7494444,69.845
beydikh,,02,38.7494444,69.845
beydikho,,02,38.7494444,69.845
beydy-kyo,,02,38.7494444,69.845
bibi-khurum,,02,38.2166667,68.5666667
bichkhari,,01,38.35,71.3833333
bichkharv,,01,38.35,71.3833333
biddzharovat,,01,38.1886111,71.9922222
biddzhran,,01,38.1886111,71.9922222
bidzhran,,01,38.1886111,71.9922222
bidzhrav,,01,38.1886111,71.9922222
bigar,,03,38.8,68.8166667
bijrav,,01,38.1886111,71.9922222
birbuloq,,02,37.4233333,69.045
bisav,,01,38.0375,71.8744444
bish-bulak,,02,38.3166667,68.3666667
bishkala,,02,37.4636111,68.1630556
bishkent,,02,37.2302778,68.0205556
blagodarnyy,,02,38.5166667,68.55
boboidorkhon,,03,40.7,70.25
bobokhonshaid,,02,38.2216667,69.6586111
bobosafol,,02,37.6119444,69.4219444
bobosafoli poyon,,02,37.6152778,69.4038889
bobo-surkhan,,02,38.6613889,68.6297222
bobosurkhon,,02,38.6613889,68.6297222
bobotago,,03,39.9072222,68.9775
bobotunkhona,,02,38.2608333,69.3555556
bobotupkhona,,02,38.2608333,69.3555556
bodau,,01,38.3530556,71.4222222
bodaud,,01,38.3530556,71.4222222
bodom-dara,,01,37.0833333,71.8166667
bodomtu,,02,37.8261111,69.9436111
bodomtut,,02,37.8261111,69.9436111
bogak,,02,38.1872222,68.5388889
bogalyak,,02,38.5066667,68.5552778
bogat,,03,39.9386111,68.9863889
(( bog )),,02,37.5833333,69.95
bogdayen,,02,38.2,69.85
bogev,,01,37.5305556,71.6602778
boggai,,02,38.0644444,69.9605556
boggay,,02,38.0644444,69.9605556
bogi habib,,02,37.9163889,69.8402778
bogikalon,,03,39.8861111,68.9863889
bogikhabib,,02,37.9163889,69.8402778
bogizogon,,02,38.4952778,69.8086111
boguz,,01,38.3555556,71.7805556
boldargin,,02,38.5102778,68.9011111
boldirgon,,02,38.5102778,68.9011111
boldoy,,02,38.3547222,69.7580556
bol'dzhuan,,02,38.3108333,69.6669444
bolgali,,03,39.8333333,68.8666667
bolo-nazar,,02,38.5136111,68.8577778
bolshevik,,02,37.1630556,68.2263889
bol'shevik,,02,37.3969444,68.6455556
bongura,,02,38.6133333,69.095
boraun,,01,38.3111111,71.3222222
boravn,,01,38.3111111,71.3222222
borshi,,01,38.6833333,71.3666667
borshit,,01,38.6833333,71.3666667
boshbulok,,02,38.1172222,69.3772222
boshbuloq,,02,38.1172222,69.3772222
boshgumbez,,01,37.7711111,73.5491667
boshkala,,02,37.4636111,68.1630556
boshkaynar,,02,38.2077778,68.8488889
boshkengash,23696,02,38.4647222,68.8036111
boshkengosh,,02,38.4647222,68.8036111
boshkushkiya,,02,37.9977778,69.6591667
boshqal'a,,02,37.4636111,68.1630556
boshtal',,03,40.5833333,70.45
botanicheskiy,,02,38.58,68.6933333
boud,,01,38.3833333,71.4666667
braug,,01,38.4972222,71.0363889
brigada vtoraya uchastka karla marksa,,02,37.4411111,68.4877778
brovg,,01,38.4972222,71.0363889
bubanan-dasht,,02,38.1833333,69.9666667
budun,,01,38.2202778,71.4888889
bugolyak,,02,38.45,68.15
buguz,,01,38.3555556,71.7805556
buitakabad,,02,38.3266667,70.0708333
bujran,,01,38.1886111,71.9922222
bulak-saydon,,02,38.6488889,68.6111111
bulbulchashma,,02,38.4355556,68.5536111
bulen,,02,37.9102778,69.3536111
bulok,,03,40.6,70.45
bulokchinor,,02,38.5205556,68.5952778
bulokdasht,,02,37.9919444,69.5336111
bulokisaidon,,02,38.6488889,68.6111111
bul'on,,02,37.9672222,69.3936111
bulunkul',,01,37.7005556,72.9455556
bulunqul,,01,37.7005556,72.9455556
bul'yen,,02,37.9102778,69.3536111
bul'yeni-bolo,,02,38.0575,69.4333333
bulyon,,02,37.9672222,69.3936111
bulyoni-bolo,,02,38.0575,69.4333333
bunai,,01,38.4297222,71.5563889
bunay,,01,38.4297222,71.5563889
bundzhikat,,03,39.9108333,69.0063889
bungakiyen,,02,38.6208333,69.4719444
bungakiyon,,02,38.6208333,69.4719444
buniga,,01,38.3,71.2666667
buntakobod,,02,38.3266667,70.0708333
buragan,,03,39.7075,68.7291667
buragen,,03,39.7075,68.7291667
burdongal,,02,37.9772222,69.4936111
bure-tishik,,02,38.3666667,68.3833333
burka,,02,37.2252778,69.1466667
burma,,02,38.46,68.9216667
burma,,03,38.85,68.6833333
buston,,02,38.0461111,68.7886111
buston,13043,03,40.5216667,69.3308333
bustonkala,4068,02,37.8666667,68.8333333
bustonqal'a,,02,37.8666667,68.8333333
butson,,02,37.5516667,69.4713889
buved,,01,37.5825,71.5108333
buynak-manir,,02,38.5166667,68.35
buyrabov,,02,38.4833333,68.6833333
buzakhana,,02,37.7138889,69.7225
buzakhona,,02,37.7138889,69.7225
buzbeli,,02,38.1166667,69.5833333
buzbit,,02,38.5,68.9905556
buzuk,,03,38.5666667,68.2333333
byrbulok,,02,37.4233333,69.045
byuragan,,03,39.7075,68.7291667
chad,,02,37.9255556,69.1566667
chadegiv,,01,38.1141667,72.0363889
chadud,,01,38.1255556,72.2
chaduk,,01,38.1255556,72.2
chadun,,01,38.1255556,72.2
chadut,,01,38.1255556,72.2
chagam-bolo,,02,37.8272222,69.8811111
chagam,,02,37.8272222,69.8811111
chagami bolo,,02,37.8272222,69.8811111
chagam-kukabulok,,02,38.2833333,68.5833333
chagammiyena,,02,37.8272222,69.8811111
chagatoy,,02,38.6222222,68.6122222
chagen,,02,38.4,68.8333333
chakadam-bulak,,03,40.4833333,69.85
chakali,,02,38.4941667,69.3336111
chalata,,03,40.6666667,69.5
chalayev,,02,38.5319444,68.8238889
chal,,02,37.9255556,69.1566667
chalchal,,02,38.3761111,69.2027778
chalchit,,02,38.56,69.1488889
chali-char-chashma,,02,37.3,68.0333333
chaltau,,02,37.9255556,69.1566667
chamanistan,,02,38.5433333,68.5933333
changa,,03,39.5230556,67.5030556
changal,,03,39.5230556,67.5030556
changob,,02,38.6444444,68.5758333
changon,,02,38.6333333,70.1666667
changou,,02,38.6444444,68.5758333
chapaevskiy,,02,38.4083333,68.1333333
chapali,,02,38.4941667,69.3336111
chapary,,02,37.4666667,68.1666667
chapayevskiy,,02,38.4083333,68.1333333
chap,,02,37.9255556,69.1566667
charbak,,03,39.4333333,67.7666667
char,,03,40.0666667,70.6166667
chargi-poen,,02,38.1283333,70.0741667
char-gul',,02,38.2475,68.9705556
charmogz,,02,38.6983333,69.6761111
charsem,,01,37.7177778,72.1608333
charshambe,,02,37.3105556,68.1302778
charshma,,02,37.3333333,68.1833333
charsim,,01,37.7177778,72.1608333
chartak,,03,38.5197222,68.1444444
chartog,,02,38.5275,68.7233333
chartom,,01,37.7177778,72.1608333
chartym,,01,37.7177778,72.1608333
chashma,,03,39.45,68.4333333
chashmaiborozi,,02,38.6441667,68.5408333
(( chashma-i-dara )),,02,37.6833333,70.0
chashmaikulo,,02,38.7119444,69.6286111
chashmi-sang,,03,38.7333333,68.55
chatyr-tash,,01,37.85,73.65
chavalay,,02,38.6283333,68.8077778
chavlibay,,02,38.5669444,68.7086111
chavlyay,,02,38.6283333,68.8077778
chavrok,,02,38.3066667,69.5419444
chavshangoz,,01,37.3591667,72.4480556
chaynak,,02,38.5311111,68.6927778
chaynakichinor,,02,38.5311111,68.6927778
chayra-koran,,02,38.5747222,68.6925
chechekti,,01,38.3358333,74.0136111
chechekty,,01,38.3358333,74.0136111
chechka,,02,37.15,69.2
chegam,,02,37.9958333,69.4341667
chek-mazar,,02,38.5119444,68.9563889
chekurak,,02,38.3894444,69.9991667
chepsoli,,02,38.4502778,69.1263889
cheptura,,03,38.5736111,68.3330556
chepturai-bolo,,02,38.6033333,68.5608333
cherdara,,02,37.7519444,69.7716667
cheresh-tepa,,02,38.4869444,68.2333333
chermokhzakon,,02,38.6913889,68.7436111
chertak,,03,38.5197222,68.1444444
chertepa,,02,38.5166667,68.75
cheshteppa,,01,37.7213889,74.3583333
chesh-tyube,,01,37.6833333,74.3
chichka,,02,37.765,68.8027778
chichkhar,,02,37.765,68.8027778
chigim,,02,37.9958333,69.4341667
chikali,,02,38.4941667,69.3336111
chikhok,,01,38.5194444,71.6980556
chikhokh,,01,38.5194444,71.6980556
chilcha,,02,38.1794444,69.5491667
childara,,02,38.7847222,70.3047222
chil'dora,,02,38.7847222,70.3047222
childukhtaron,,02,38.2916667,70.1336111
(( chilishtak )),,02,37.8166667,70.1166667
chillamazor,,02,38.5602778,69.0769444
chimarak,,03,38.5666667,68.15
chimbulak,,02,38.2333333,68.6833333
chimbulok,,02,38.2333333,68.6833333
chimkurgan,,03,39.4925,67.5080556
chim-tepe,,02,38.4675,68.725
chimteppa,,02,38.4675,68.725
chimul'dy,,02,38.2,69.6666667
chimul'dyk,,02,38.2,69.6666667
chinarak,,03,38.5666667,68.15
chinara-sukhta,,02,38.3666667,68.4833333
chinar,,02,37.2894444,68.1344444
chinar,,03,38.5166667,68.25
chinartu,,02,38.2333333,68.6
chindara,,02,38.6380556,68.5722222
chingirov,,02,38.36,68.34
chinor,,02,37.9683333,69.7541667
chinor,,03,39.4166667,67.6666667
chirakon,,02,38.3666667,69.0833333
chiray,,03,39.7166667,68.9
chirik,,02,37.2183333,68.1941667
chirish-tepe,,02,38.4869444,68.2333333
chirishteppa,,02,38.4869444,68.2333333
chirkent,,03,38.6305556,68.2255556
chirtak,,03,38.5197222,68.1444444
chishun,,01,38.65,70.8666667
chkalov,,03,40.1986111,69.81
chkalovsk,21555,03,40.1986111,69.81
chkalovskiy,,03,40.1986111,69.81
chokhtemir,,02,37.9641667,69.7913889
chol,,02,37.9538889,69.6666667
cholon,,02,38.2366667,69.7775
cholsartez,,02,37.9538889,69.6666667
choltau,,02,37.9255556,69.1566667
choltosh,,02,38.1638889,69.7866667
chonar,,02,37.2894444,68.1344444
chorbag,,02,38.66,68.7555556
chorbog,4237,02,37.4166667,68.2
chorbog,,03,39.4333333,67.7666667
chorbok,,03,39.4333333,67.7666667
chor,,03,40.0666667,70.6166667
chore,,03,39.3069444,68.5094444
chorgul',,02,37.6386111,69.4052778
chorgul,,02,38.2475,68.9705556
chormagzak,,02,38.4213889,69.1805556
chormagz,,02,38.6983333,69.6761111
chor-makh-zakon,,02,38.6913889,68.7436111
chormakhziaka,,02,38.4213889,69.1805556
chormargzakon,,02,38.6913889,68.7436111
chor-raga,,03,39.1333333,67.8166667
chorroha-deyron,,03,40.3969444,69.6686111
(( chorsay )),,02,37.9666667,69.85
chorshanbe,,02,37.3105556,68.1302778
chorteppa,,02,38.4675,68.725
chortut,,02,38.5275,68.7233333
chortut-poyen,,02,38.5255556,68.7088889
chortut-surkh,,02,38.5,68.7333333
chorukh-dayron,,03,40.3969444,69.6686111
chorvodoron,,02,37.7497222,69.4844444
chor'yakkordara,,02,38.5747222,68.6925
choryakkoron,,02,38.5747222,68.6925
chosk,,02,37.8333333,70.2333333
chubek,,02,37.6127778,69.7061111
chuchu,,02,38.3636111,68.9305556
chugarak,,01,38.75,70.6166667
chugorak,,01,38.75,70.6166667
chukhok,,01,38.5194444,71.6980556
chukmazor,,02,38.5119444,68.9563889
chukurak,,02,37.8680556,69.5691667
chukuraki-bolo,,02,38.5391667,68.5
chukur,,02,38.45,68.1333333
chukurdolon,,02,38.4388889,68.3338889
chumdon,,02,38.8975,70.1361111
chuponabad,,02,38.0777778,68.9288889
chuqurak,,02,38.5347222,69.3777778
chur-kishlak,,02,38.4,68.4166667
churk-kishlak,,02,38.4,68.4166667
chuyanchi,,02,37.1730556,68.1377778
chuyanchi,,03,38.65,68.3166667
chuyanchy,,02,37.1730556,68.1377778
chuzii-bolo,,02,38.5663889,68.4161111
chuzy,,02,38.5663889,68.4161111
daane,,03,40.6333333,70.2666667
dadozi,,02,38.6283333,68.6161111
dagana-chinar,,02,38.0586111,69.8638889
dagana,,02,37.5969444,69.7875
dagana-kiik,,02,38.1911111,68.6477778
dagiston,,02,37.9202778,70.0225
dahana,,02,38.0586111,69.8638889
dahanakiik,,02,38.1911111,68.6477778
dakhana,,02,37.5969444,69.7875
dakhana,,03,40.6333333,70.2666667
dakhanakiik,,02,38.1911111,68.6477778
dakhkan,,03,39.7063889,69.2533333
dakhkat,,03,39.7063889,69.2533333
"dakh""yak",,03,39.8055556,68.9855556
dakki,,02,37.3252778,68.1888889
dakky,,02,37.3252778,68.1888889
dalan,,02,38.4388889,68.3338889
daldakhuron,,02,38.3508333,69.1991667
dal'neye,,01,38.6166667,72.1333333
dal'yan bolo,,03,39.7422222,68.9944444
dal'yan,,03,39.8,69.0166667
dalyoni bolo,,03,39.7422222,68.9944444
dambu,,02,38.9833333,70.35
damburacha,,03,39.2833333,71.3833333
dana,,01,37.9833333,71.9333333
dangara,22824,02,38.0963889,69.3355556
(( dangara )),,02,37.8166667,69.3666667
dangar,,02,38.0963889,69.3355556
danghara,,02,38.0963889,69.3355556
danky,,02,37.3252778,68.1888889
dara,,02,38.6886111,69.0141667
daragion,,02,38.5447222,69.3172222
daragizy,,02,38.5447222,69.3172222
daraigusfandak,,02,38.6483333,69.5022222
darai gusfondok,,02,38.6483333,69.5022222
darai-guspandak,,02,38.6483333,69.5022222
daraikhavash,,02,37.9883333,69.9744444
darai khayron,,01,38.8222222,70.8733333
daraikolot,,02,37.6838889,69.59
daraiob,,02,37.8613889,70.0183333
daraishoyeni,,02,38.3380556,69.5866667
daraishoyoni,,02,38.3380556,69.5866667
dara-khurdak,,02,38.4333333,70.0166667
daran-kolot,,02,37.6838889,69.59
daray-chokor,,02,38.4166667,69.8666667
darayimom,,02,37.9202778,70.0225
dardar,,03,39.4430556,68.445
dardzhomts,,01,38.1238889,71.9458333
darg,,03,39.3527778,68.9847222
darjomch,,01,38.1238889,71.9458333
darkad,,02,37.4997222,69.42
darkat,,02,37.4986111,69.425
darnaychi,,02,37.9613889,69.7319444
darozi,,02,38.6283333,68.6161111
darshai,,01,36.7833333,71.9833333
darshay,,01,36.7833333,71.9833333
dar'yeabad,,02,38.5105556,68.8291667
darzhomch,,01,38.1238889,71.9458333
dash,,01,38.3166667,71.6666667
dashgabad,,02,38.2213889,69.0197222
dashmandy,,02,38.4480556,69.7375
dashta,,01,37.3333333,71.7333333
dashtag,,02,37.5247222,69.335
dashtak,,01,37.3333333,71.7333333
dashtamin,,03,40.1833333,69.7
dasht,,01,37.7666667,71.5333333
dashti-angara,,02,38.6833333,70.0666667
dashtibedi kalon,,02,38.6041667,69.1472222
dashti-dzhum,,02,37.9380556,70.1413889
dashtidzhum,,02,38.0194444,70.2122222
dashtigul'kho,,02,38.4833333,69.7666667
dashtigulo,,02,37.7016667,69.4963889
dashtigurk,,02,38.8033333,70.2211111
dashti-jum,,02,37.9380556,70.1413889
dashtijum,,02,38.0194444,70.2122222
dashti-jum,,02,38.0194444,70.2122222
dashti-kazy,,03,39.465,68.0472222
dashti-khirsan,,02,39.2,70.4666667
dashtikozy,,03,39.465,68.0472222
dashtimarzo,,02,38.6458333,69.5527778
dashti-mazar,,03,38.9619444,69.3372222
dashtimazor,,03,38.9619444,69.3372222
dashtimiron,,02,38.6619444,68.8283333
dashti-mirzo,,02,38.6458333,69.5527778
dashtiqozy,,03,39.465,68.0472222
dashti-raz,,02,38.3333333,69.4
dashtishur,,02,38.5091667,68.9813889
dashtiyeri,,02,38.55,69.9833333
dashtobod,,02,38.2213889,69.0197222
dashty-bet,,03,39.45,68.25
dastgirak,,02,38.3647222,69.0480556
dastkhuf,,01,37.85,71.6
davat,,02,37.9461111,69.4791667
davatkhalkayer,,02,38.1752778,69.5738889
davatkhalqaer,,02,38.1752778,69.5738889
davlatabad,,02,37.6402778,69.5936111
davlatmanka,,02,38.5602778,68.5375
davlatobod,,02,37.6113889,69.4913889
davlatshoyen,,02,38.2813889,69.5175
davlatshoyon,,02,38.2813889,69.5175
davlyatabad,,02,37.6113889,69.4913889
dayak,,03,39.8055556,68.9855556
dayrabot,,02,38.5369444,68.9044444
deamalik,,03,38.8525,68.9130556
de-balyand,,02,38.65,68.9666667
debalyan,,03,39.2,69.1666667
debasta,,01,37.6833333,71.85
debasty,,01,37.6833333,71.85
debosta,,01,37.6833333,71.85
debuvok,,03,38.5963889,68.2188889
dedorazak,,02,37.8183333,69.9019444
degai,,02,38.8947222,69.9233333
deg-danak,,02,38.9333333,69.8333333
degez,,02,38.2355556,69.9852778
degi-kham,,02,38.3833333,69.65
degi-mulla,,02,38.8833333,70.45
degmyur,,02,38.2208333,69.7905556
degrez,,02,38.2355556,69.9852778
degtyur,,02,38.2208333,69.7905556
dehai baland,,02,38.8847222,69.8511111
dehikung,,03,38.9116667,69.5980556
dehishur,,02,38.3719444,69.9688889
dehmalik,,03,38.8525,68.9130556
dehqonobod,,02,37.5922222,69.3686111
deishur,,02,38.3719444,69.9688889
dek-donak,,02,38.9333333,69.8333333
dekhaibaland,,02,38.8847222,69.8511111
dekhamalik,,03,38.8525,68.9130556
dekh,,01,38.0572222,71.3258333
dekhikung,,03,38.9116667,69.5980556
dekhi-poyen,,03,39.2333333,70.2
dekhkanabad,,02,37.5922222,69.3686111
dekhkonabad,,02,37.5922222,69.3686111
dektur,,02,38.2208333,69.7905556
delolo,,02,38.1213889,70.0297222
demiya,,02,38.4880556,69.4977778
demnora,,03,39.4333333,69.8666667
denau,,03,39.6833333,69.35
depir,,02,38.7847222,69.4327778
derde,,01,37.85,71.65
deu,,01,38.5058333,70.7958333
devak,,03,38.5963889,68.2188889
devdor,,02,37.8041667,69.9794444
devlekh,,01,37.9,71.75
devona,,02,38.2,69.5666667
devona,,03,39.35,71.5666667
devona-khoja,,02,38.1077778,69.8452778
devsiar,,03,39.1166667,71.5833333
(( deyli )),,02,37.9,69.6666667
diamalik,,03,38.8525,68.9130556
dibarazak,,02,37.8183333,69.9019444
diburea,,03,39.2930556,70.2830556
dich,,01,38.55,71.7
didegi-poen,,03,39.2333333,70.2
didegi-poyen,,03,39.2333333,70.2
didengi-poyen,,03,39.2333333,70.2
difat,,02,38.3666667,69.7333333
dikhasar,,03,39.45,70.2333333
dikhesar,,03,39.45,70.2333333
dikhisor,,03,39.45,70.2333333
dilya,,02,37.9,69.6666667
dinau,,03,39.6833333,69.35
diuchy,,03,39.3166667,70.7666667
divana-khodzha,,02,38.1077778,69.8452778
divdar-bole,,02,37.8041667,69.9794444
divdor-bolo,,02,37.8041667,69.9794444
divlyakh,,01,38.7833333,70.85
dizhik,,03,39.1322222,68.4269444
djilianda,,01,37.5761111,72.5927778
djuschambe,,02,38.56,68.7738889
dobrovolcheskiy,,02,37.2969444,68.6552778
dodrazak,,02,37.8183333,69.9019444
dogana,,02,38.1911111,68.6477778
dokdonak,,02,38.9333333,69.8333333
dokhashi,,01,38.0333333,71.8333333
dokki,,02,37.3252778,68.1888889
dolonsoy,,02,38.4672222,68.2683333
dolony,,03,40.6166667,70.0333333
dombrachi,,03,39.2833333,71.3833333
domburachi,,03,39.2833333,71.3833333
dong,,02,37.5563889,69.3508333
donguz-ul'dy,,02,38.4333333,68.8166667
doobva,,02,38.6186111,68.9255556
dorobi,,02,38.3280556,69.9308333
doroby,,02,38.3280556,69.9308333
dosheton,,02,37.9116667,70.0186111
doshmandv,,02,38.4480556,69.7375
doshmandy,,02,38.4480556,69.7375
doshtak,,01,38.4605556,70.775
dovdorbolo,,02,37.8041667,69.9794444
dragomirovo,,03,40.1686111,69.5083333
drobak,,01,38.4163889,70.6822222
drovak,,01,38.4163889,70.6822222
druzhba,,02,37.74,69.5827778
dshafak,,01,38.3333333,71.6833333
dubeda,,02,38.57,69.3786111
dubova,,02,38.6186111,68.9255556
dubursa,,03,39.2930556,70.2830556
duchinora,,02,38.5761111,68.5622222
duchinor,,02,38.5761111,68.5622222
dulona,,03,40.6166667,70.0333333
du-oba,,02,39.1833333,70.6333333
dupuli,,03,39.4647222,67.8455556
durbat,,02,38.5286111,68.6361111
durbent,,03,38.5333333,68.25
durmanbulok,,02,38.4305556,68.3911111
durman,,02,38.45,68.2166667
durman,,03,39.5094444,67.4505556
durmonbuloq,,02,38.4305556,68.3911111
dursher,,01,38.5791667,71.7872222
durvak,,01,38.4163889,70.6822222
dushakhokogak,,02,38.8833333,70.4333333
dushambe,,02,38.56,68.7738889
dushanbe,543105,02,38.56,68.7738889
dusman-tyube,,01,37.7333333,68.6
dusti,8700,02,37.3486111,68.6733333
dusty,,02,37.3486111,68.6733333
duvana,,03,39.35,71.5666667
duvona,,03,39.35,71.5666667
duzakh-dara,,01,37.7,72.4166667
dvadtsat' vtorogo parts''yezd,,02,38.5286111,68.7797222
dvamalik,,03,38.8525,68.9130556
dyurak,,02,38.0833333,68.5
dyurbat,,02,38.5286111,68.6361111
dyushambe,,02,38.56,68.7738889
dyushana,,03,38.7,68.4166667
dzhafak,,01,38.3333333,71.6833333
dzhag,,01,38.2375,70.5355556
dzhagumarag,,01,38.2375,70.5355556
dzhailgan,,03,39.3041667,71.5255556
dzhairaly,,02,37.5686111,69.4827778
dzhake-dzhan,,01,37.25,72.2166667
dzhal-ak-dzhar,,03,39.45,67.5166667
dzhalandar,,02,38.645,68.8277778
(( dzhalavli )),,02,37.7,69.85
dzhalbuzy,,02,37.7297222,69.3847222
dzhaldzhit,,02,38.56,69.1488889
dzhaltr-tepe,,02,38.3666667,68.6333333
dzhaltyrtepa,,02,38.3666667,68.6333333
dzhaltyrtepe,,02,38.3666667,68.6333333
dzhalyak-bulak,,02,38.4166667,68.9333333
dzhamak,,01,38.2780556,71.5758333
dzhamanguli,,02,38.2833333,69.5
dzhamiyat-dekhan,,02,37.1158333,68.1063889
dzhamogulion,,02,38.2833333,69.5
dzhanadzhan,,01,37.25,72.2166667
dzhana-kishlak,,02,38.5,68.4833333
dzhanbulak,,03,39.3833333,67.6666667
dzhangalabad,,02,38.5291667,68.9197222
dzhangalda,,02,38.6833333,68.7833333
dzhangal',,01,38.4166667,71.5
dzhangyaul,,03,40.0833333,69.5333333
dzhantokli,,02,38.1569444,69.5802778
dzharapkul',,02,37.9616667,69.4825
dzharboshi,,02,38.5388889,68.985
dzhar-bulak,,02,38.4813889,68.3936111
dzharbulok,,02,37.8736111,69.3638889
dzharcheb,,02,37.9836111,69.9075
dzharf,,01,38.4844444,70.9613889
dzharipkul',,02,37.9616667,69.4825
dzharkurgan,,02,37.2022222,68.2144444
dzharkutan,,03,39.7508333,68.7758333
dzhar-mechet',,02,38.4,68.4166667
dzhartepai bolo,,02,38.0158333,69.3591667
dzhar-tepe,,02,38.0158333,69.3591667
dzharteppa,,02,38.0158333,69.3591667
dzharty-gumbez,,01,37.5533333,74.1475
dzharty-rabat,,01,37.8,73.5666667
dzhaushangoz,,01,37.35,72.4333333
dzhauvid,,01,38.4658333,71.6255556
dzhavliboi,,02,38.5644444,68.6958333
dzhavoni,,02,38.7441667,69.6447222
dzhavrat,,02,38.4333333,68.15
dzhavr,,01,38.4844444,70.9613889
dzhavshangoz,,01,37.3591667,72.4480556
dzhavzodara,,02,38.2533333,70.1266667
dzhayilgan,,03,39.2666667,71.5
dzhayrabulok,,02,38.4166667,68.9333333
dzhayrali,,02,37.9638889,69.5869444
dzhayraly,,02,37.5686111,69.4827778
dzhayre-tepe,,03,38.55,68.25
dzheraylik,,02,37.9638889,69.5869444
dzhergatol,,03,39.2213889,71.1886111
dzherkala,,02,37.8161111,69.3502778
dzhetikir,,02,38.3163889,68.4383333
dzhetykyr,,02,38.3163889,68.4383333
dzhida-bulak,,02,37.8263889,69.8380556
dzhida,,02,37.57,69.3538889
dzhida-kishlak,,02,37.57,69.3538889
dzhidobulok,,02,37.8263889,69.8380556
dzhidzhik,,03,39.1322222,68.4269444
dzhilanda,,01,37.5761111,72.5927778
dzhilandy,,01,37.5761111,72.5927778
dzhilas,,03,39.3666667,67.7166667
dzhilga,,02,37.6619444,69.8591667
dzhilikol,,02,37.4936111,68.5311111
dzhilikul',,02,37.4936111,68.5311111
dzhil'kul',,02,37.4936111,68.5311111
dzhilyandy,,01,37.5761111,72.5927778
dzhingazhir,,01,38.8658333,73.2583333
dzhingun,,02,39.0833333,70.2
dzhirgatal',,03,39.2213889,71.1886111
dzhirginak,,02,38.6477778,68.6272222
dzhirgital',,03,39.2213889,71.1886111
dzhivid,,01,38.4658333,71.6255556
dzhizhik,,03,39.1322222,68.4269444
dzhomri,,02,38.5433333,68.9977778
dzhonbakhti poyen,,02,38.4,69.9833333
dzhonvarsuz,,02,38.5288889,69.3094444
dzhorf,,01,38.4844444,70.9613889
dzhorusay,,02,38.4666667,68.55
dzhouvid,,01,38.4658333,71.6255556
dzhovud,,01,38.4658333,71.6255556
dzhoy-bulak,,02,38.6102778,68.7180556
dzhugiabad,,02,38.5469444,68.5502778
dzhuginak,,02,38.675,68.7694444
(( dzhul'mabad )),,02,37.9833333,69.5166667
dzhumabazar,,03,40.3166667,69.35
dzhunt,,01,37.2166667,71.5333333
dzhur,,01,38.8,70.7166667
dzhuri-bolo,,01,38.8708333,70.9197222
dzhuybodom,,02,38.5516667,68.6972222
dzhyuylyangar,,03,39.9166667,68.8833333
dzhyuzak,,02,37.7322222,69.1594444
echki,,02,37.2683333,69.0563889
efironos,,02,38.4658333,68.1602778
egron,,02,38.2272222,69.3127778
elok,,03,38.5863889,68.4252778
eloki,,03,38.5863889,68.4252778
elovar,,02,38.6008333,69.1755556
emomaly,,02,37.8588889,69.6188889
emts,,01,38.0047222,71.6688889
(( engel's )),,02,37.4166667,68.6166667
esanboy,,02,38.0777778,68.3766667
eshma,,02,38.1661111,68.8541667
eshma pervaya,,02,38.1638889,68.8236111
evon,,03,39.4444444,68.1455556
ezgand,,02,38.7258333,70.4188889
faisabad,,02,37.3333333,68.9666667
faizabad,,02,38.5447222,69.3172222
faizabad kala,,02,37.3333333,68.9666667
faizabad qala,,02,37.3333333,68.9666667
fakhrabad,,02,38.3011111,68.7063889
fakhrobod,,02,38.3011111,68.7063889
falakon,,02,38.5075,68.7872222
falkhabad,,02,38.21,69.5069444
fal'maut,,03,39.3711111,68.8394444
fanfarok,,02,38.7202778,68.8116667
farab,,03,39.2408333,67.47
farishti,,02,38.5961111,69.0019444
farkau,,03,39.2333333,68.9833333
farkhor,21736,02,37.4922222,69.4016667
farkingi,,01,38.6936111,70.7283333
farkingy,,01,38.6936111,70.7283333
farob,,03,39.2408333,67.47
farrukh,,02,38.6722222,69.6547222
fat'ma,,03,39.3961111,68.6852778
fatmev,,03,39.3961111,68.6852778
fatmovut,,03,39.3711111,68.8394444
fayzabad,,02,37.6666667,69.4936111
fayzabadi-bolo,,02,38.5188889,69.3241667
(( fayzabadkala )),,02,37.3333333,68.9666667
fayzobod,,02,37.6666667,69.4936111
fayzobodi bolo,,02,38.5188889,69.3241667
fil'mandar,,03,39.4141667,67.7488889
filmandor,,03,39.4141667,67.7488889
fil'mondar,,03,39.4141667,67.7488889
finskiy,,02,37.4730556,69.3705556
firdavsy,,02,38.1080556,68.9372222
firdousi,,02,38.1080556,68.9372222
firishti,,02,38.5961111,69.0019444
firuzaabad,,02,38.7066667,68.8058333
firuzoba,,02,38.0522222,69.9694444
firuzoobod,,02,38.7066667,68.8058333
foru,,02,38.6836111,69.6605556
frunze,,02,37.3775,68.5669444
furkat,,02,38.1002778,68.9325
furqat,,02,38.1002778,68.9325
gachak,,02,38.5047222,68.5336111
gafurov,14482,03,40.2177778,69.725
galaabad,,02,38.1777778,68.6705556
galaba,,02,37.3177778,69.03
galabulok,,02,38.4363889,68.9613889
galabuloq,,02,38.4363889,68.9613889
(( gala-gutan )),,02,37.75,69.7666667
galamysh,,02,38.5405556,68.5277778
galaobod,,02,38.1777778,68.6705556
gal'butta,,02,38.4869444,68.7577778
gallabor,,02,37.3383333,68.99
galya-bulak,,02,38.4363889,68.9613889
galya-kuduk,,02,38.3166667,68.6666667
gamchi,,02,37.9,69.4833333
(( gami-dara )),,02,37.6333333,70.2
ganchi,,03,39.9588889,69.1369444
gandzhina,,02,37.9333333,68.5666667
garab,,02,37.6136111,69.7863889
garab,,03,38.5666667,68.1166667
garau,,02,38.3130556,68.9838889
(( garavchak )),,02,37.8227778,69.6325
garav,,02,38.3130556,68.9838889
garavuti,8474,01,37.5602778,68.4525
gar-bola,,01,39.0833333,70.8833333
gar-bola mitanion,,01,39.0833333,70.8833333
gar-bulak,,02,38.3886111,68.9458333
garbulok,,02,38.3886111,68.9458333
garbuloq,,02,38.3886111,68.9458333
gardana,,02,38.1666667,69.1666667
gardzhvin,,01,37.65,71.85
gargara,,02,38.1405556,69.4294444
garibak,,03,39.52,67.6016667
garmchashma,,01,37.6333333,72.55
garm,10771,02,39.0241667,70.3794444
(( garm )),,02,37.3166667,69.0166667
garm-ob,,02,37.6136111,69.7863889
garnavat,,01,38.4833333,71.6
garob,,03,38.8833333,68.9833333
gashion,,02,38.6,69.65
gaza,,03,39.2536111,68.0505556
gazhim,,03,38.8283333,68.8125
gazhni,,03,38.8283333,68.8125
gaznich,,03,39.2313889,68.0452778
gaznych,,03,39.2313889,68.0452778
gazora,,03,39.0455556,68.8808333
gazza,,03,39.2536111,68.0505556
gech-lara,,02,38.6166667,69.9166667
gelot,,02,37.9455556,69.72
gesh,,02,38.1877778,70.0711111
geshi,,02,38.4438889,69.1775
gezani bolo,,03,39.2886111,67.7213889
gezani-poyen,,03,39.2833333,67.7333333
ghafurov,,03,40.2177778,69.725
ghalaba,,02,38.0658333,68.8094444
ghargara,,02,38.1405556,69.4294444
gharm,,02,39.0241667,70.3794444
ghelot,,02,37.9455556,69.72
ghofilobod,,02,38.1419444,70.0097222
ghonchi,,03,39.9588889,69.1369444
ghulakandoz,,03,40.1616667,69.4677778
ghulomobod,,02,38.0044444,70.0286111
gidzhovak,,02,38.1702778,69.3747222
gidzhovast,,01,38.5475,71.7525
gijovak,,02,38.1702778,69.3747222
gilot,,02,37.9455556,69.72
girdob,,02,38.3025,69.1469444
gishun,,01,38.65,70.8666667
gissar,,02,38.0777778,68.9288889
gizan-bola,,03,39.2886111,67.7213889
gizan-bolo,,03,39.2886111,67.7213889
gizan-pasn,,03,39.2833333,67.7333333
gizan-poyen,,03,39.2833333,67.7333333
gizhdalabad,,02,38.5644444,68.6897222
gizhdarva,,03,39.3,67.85
(( glomovod )),,02,37.9833333,69.9666667
goch,,01,38.4666667,71.0666667
godzhak,,01,37.4,71.4833333
gofilabad,,02,38.1419444,70.0097222
gofil'abad,,03,38.8666667,68.65
golchak,,02,37.7166667,70.2833333
gordzhak,,01,37.4,71.4833333
gor-gora,,02,38.1405556,69.4294444
gorif,,03,39.2833333,70.0333333
gornaya,,03,38.7166667,68.3
gou-gavdi-nau,,01,38.8833333,70.95
gou-gavdi-pao,,01,38.8833333,70.95
gou,,01,38.8833333,70.95
gozri,,02,39.0833333,70.6
granchi,,03,39.9588889,69.1369444
granitsa,,02,37.4022222,69.3583333
gring,,02,38.2,70.2666667
gucha,,01,38.4833333,71.0166667
gudara,,01,38.4016667,72.6794444
gudar,,01,37.6666667,74.75
gudas,,03,40.8,70.5
gudos,,03,40.8,70.5
gudzhivas,,01,38.5475,71.7525
guitan,,03,39.3008333,68.0872222
gul'abad,,02,37.7225,69.515
gulakandoz,,03,40.1616667,69.4677778
gulbog,,02,38.6261111,68.9575
gulbutta,,02,38.4869444,68.7577778
gulikandoz,,03,40.1616667,69.4677778
gulisoy 2,,02,38.1186111,69.7541667
gulisoy 2 (vtoroy),,02,38.1186111,69.7541667
gulisoy vtoroy,,02,38.1186111,69.7541667
gulistan,,02,37.1913889,69.1594444
guliston,,02,38.0219444,69.0755556
gulisurkh,,02,38.4436111,69.2272222
gulizindon,,02,38.2369444,69.4166667
gulizoar,,02,38.3811111,68.8627778
gulizor,,02,38.3811111,68.8627778
gul'khari,,02,38.6630556,69.5191667
gulkhas,,03,38.6233333,68.1291667
gulkhaz,,03,38.6233333,68.1291667
gulkhori,,02,38.6630556,69.5191667
gulkhos,,03,38.6233333,68.1291667
gul'mazor,,02,38.5219444,68.9163889
gulobod,,02,37.7225,69.515
gulpista,,02,38.6508333,68.8052778
gulshan,,02,37.5736111,69.4313889
gulyakandoz,,03,40.1616667,69.4677778
gulyamabad,,02,38.0044444,70.0286111
gulyuk,,02,38.3666667,69.6833333
gumas,,01,38.5769444,71.8125
gumayak,,01,38.3927778,71.5130556
gumbezkol,,01,38.1355556,73.7802778
gumbulok,,02,38.5247222,69.2052778
gumbuloq,,02,38.5247222,69.2052778
gumsu,,02,38.1491667,69.2352778
gun-dara-bolo,,01,38.7666667,70.8166667
(( gun-dara )),,02,37.6333333,70.1833333
guntak,,03,39.3008333,68.0872222
gurakha,,02,38.6505556,68.7619444
gurdara,,02,37.9541667,69.5713889
gurdora,,02,38.2833333,69.6666667
guriyen,,02,38.6791667,68.5991667
guriyet,,02,38.5808333,68.5302778
guriyot,,02,38.5808333,68.5302778
gurkham,,01,38.7241667,70.5325
gurlyuk-say,,02,38.3166667,68.9666667
guruen,,02,38.6791667,68.5991667
guruldy,,02,37.9422222,69.6075
guruyon,,02,38.6791667,68.5991667
gur'yat,,02,38.5808333,68.5302778
gusar,,03,39.4647222,67.8455556
gushar,,03,38.895,68.8394444
gushari,,03,38.895,68.8394444
gushkhon,,01,38.3675,71.4727778
gushkhun,,01,38.3675,71.4727778
guskef,,03,39.0,69.3666667
guskharf,,02,38.7430556,68.7925
guyekef,,03,39.0,69.3666667
guytan,,03,39.3008333,68.0872222
guyunchi,,02,38.0383333,69.2216667
guzar,,03,39.4647222,67.8455556
guzaribad,,03,39.3869444,68.7058333
guzari-poyen,,02,37.9422222,70.0155556
gysh,,02,38.1877778,70.0711111
gyshmasar,,01,37.6333333,68.6166667
gyshmazar,,01,37.6333333,68.6166667
gyul'kha-bulak,,02,37.9833333,68.4166667
(( gyzaryta )),,02,37.95,70.0166667
hayoti nav,,02,38.1338889,68.8936111
hiloli ahmar,,02,37.9294444,69.8025
hisor,23981,02,38.4819444,68.5969444
hodjent,,03,40.28,69.6316667
hot sulphur springs,,01,37.6333333,72.55
husanobod,,03,39.3672222,68.0416667
"hush""yori",,03,38.895,68.8394444
iark,,01,37.9166667,71.3
ichka,,02,37.2683333,69.0563889
igron,,02,38.2272222,69.3127778
i'ich,,02,38.4722222,68.8208333
il'govar,,02,38.3,70.3166667
il'ty,,02,37.8,68.8
ilyaki,,03,38.5863889,68.4252778
imam-ali,,02,37.8588889,69.6188889
imamtarifi,,02,37.9302778,69.7163889
imeni ayni,,03,40.1833333,68.8833333
imeni chapayeva,,02,37.9166667,68.8666667
imeni engel'sa,,02,37.4625,68.6141667
imeni frunze,,02,37.5333333,68.65
imeni kalinina,,01,37.6833333,74.3
imeni karla marksa,,01,37.6166667,68.5833333
imeni karla marksa,,02,37.7736111,69.5877778
(( imeni kirova )),,02,37.5,69.35
imeni kirova,,02,37.8166667,68.85
imeni molotova,,02,37.3419444,69.0080556
imeni nasira khisrav,,02,37.4666667,68.2333333
imeni nasir khisrav,,02,37.4666667,68.2333333
imeni rudaki,,03,39.4833333,67.6166667
imeni sardarova karakhana,,02,38.4422222,68.7769444
imeni stalina,,02,37.7166667,68.7833333
imeni tel'mana,,02,37.3766667,68.6708333
imeni voroshilova,,02,37.1166667,68.2333333
imeni vose,,02,37.8025,69.6441667
imeni vos'mogo marta,,02,37.4813889,68.5283333
imomali,,02,37.8588889,69.6188889
imts,,01,38.0047222,71.6688889
(( indukul' )),,02,37.8833333,69.8666667
ingichka,,02,38.3494444,68.7138889
inkukh,,01,38.7175,70.6475
iol,,02,37.7636111,70.1902778
ionakhsh,,02,38.6,69.6666667
iori,,03,39.5083333,67.8697222
iory,,03,39.5083333,67.8697222
irkht,,01,38.1333333,72.6166667
isambay,,02,38.0777778,68.3766667
isan-bai,,02,38.0777778,68.3766667
isan-bay,,02,38.0777778,68.3766667
isfara,37742,03,40.1166667,70.6333333
isfisor,,03,40.2433333,69.7447222
(( ishan )),,02,37.6,69.3666667
ishkabad,,02,37.95,68.2833333
ishkashim,,01,36.7272222,71.6116667
ishkashim post,,01,36.7272222,71.6116667
ishkili,,03,39.7166667,68.8
ishkli,,03,39.7166667,68.8
ishkly,,03,39.7166667,68.8
ishma,,02,37.9727778,69.0947222
ishma pervaya,,02,38.1638889,68.8236111
ishma tret'ya,,02,38.2,68.7333333
ishtarchi,,03,39.8833333,69.15
(( ishtel' )),,02,37.65,70.1333333
ishtimoyut,,02,38.5291667,68.9119444
ishtion,,01,38.845,70.7877778
ishtiyen,,01,38.845,70.7877778
isiz,,03,39.4166667,69.45
isiz-poyen,,03,39.4166667,69.45
iske-dayak,,03,39.8166667,68.9666667
iski-baldirgon,,02,38.5252778,68.8977778
iskich,,03,38.6877778,68.5575
iski-darkh,,03,39.3166667,69.0166667
iski-guzar,,02,38.5,69.05
iski-lyagman,,01,37.6833333,68.6166667
iskin,,03,38.6877778,68.5575
iskodar,,03,39.4527778,68.4872222
islomobod,,02,37.6786111,69.5755556
ispan,,03,39.4102778,68.6986111
ispechak,,02,38.5794444,68.7216667
ispisar,,03,40.2433333,69.7447222
ispsar,,03,40.2433333,69.7447222
israilabad,,02,38.4836111,69.0475
isroilobod,,02,38.4836111,69.0475
issau,,01,38.0375,71.8744444
istaravshan,,03,39.9108333,69.0063889
istik,,01,37.7333333,74.3833333
istok,,01,37.7333333,74.3833333
istyk,,01,37.7333333,74.3833333
itak,,02,38.5372222,68.9594444
itok,,02,38.5372222,68.9594444
itorchi,,03,39.8833333,69.15
ittifok,,02,38.4872222,68.5677778
ittifoq,,02,38.4872222,68.5677778
izhog,,01,38.1833333,71.6333333
jabar rasulov,,03,40.1686111,69.5083333
jabbor rasulov,,03,40.1686111,69.5083333
jalbuzi,,02,37.7297222,69.3847222
jamag,,01,38.2780556,71.5758333
jamak,,01,38.2780556,71.5758333
jam'iyatdehqon,,02,37.1158333,68.1063889
jangalda,,02,38.6833333,68.7833333
jantokli,,02,38.1569444,69.5802778
janzodara,,02,38.2533333,70.1266667
jarajand,,01,37.25,72.2166667
jarbuloq,,02,38.4813889,68.3936111
jarchob,,02,37.9836111,69.9075
jarqurghon,,02,37.2022222,68.2144444
jarteppa,,02,38.0158333,69.3591667
javoni,,02,38.7441667,69.6447222
javr,,01,38.4844444,70.9613889
javshangoz,,01,37.3591667,72.4480556
jayilgan,,03,39.3041667,71.5255556
jayrabuloq,,02,38.6102778,68.7180556
jayraly,,02,37.5686111,69.4827778
jelondi,,01,37.5761111,72.5927778
jetikir,,02,38.3163889,68.4383333
jida,,02,37.57,69.3538889
jilga,,02,37.6619444,69.8591667
jilikul,5434,02,37.4936111,68.5311111
jingazhir,,01,38.8658333,73.2583333
jirgatal',,03,39.2213889,71.1886111
jirgatol,,03,39.2213889,71.1886111
jirqal'a,,02,37.8161111,69.3502778
jonvarsuz,,02,38.5288889,69.3094444
jorbog,,02,38.0225,69.8419444
jorf,,01,38.4844444,70.9613889
juibodom,,02,38.5516667,68.6972222
juqurdolon,,02,38.4388889,68.3338889
juri bolo,,01,38.8708333,70.9197222
jushambe,,02,38.56,68.7738889
juzak,,02,37.7322222,69.1594444
kabadian,,02,37.4166667,68.2
kabkrez,,02,38.5172222,69.2713889
kabla,,02,37.5,68.15
kabodiyen,,02,37.4122222,68.1880556
kabutchiyon,,02,38.9111111,70.0358333
kabutiyen,,02,38.9111111,70.0358333
kabuty,,03,38.9833333,68.8
kadara,,02,38.9833333,70.2666667
kadi-ob,,02,38.6833333,69.35
kaduchi,,02,37.8919444,69.6283333
kaduchi-miona,,02,37.8919444,69.6283333
kaduchy,,02,37.8919444,69.6283333
kady-dzhabar,,03,38.5666667,68.3166667
kady-dzhoybor,,03,38.5666667,68.3166667
kadyr-berdy,,02,38.3,68.8833333
kafiringan,,02,38.5983333,69.1111111
kafirnigan,,02,38.5983333,69.1111111
kafirnihan,,02,38.5983333,69.1111111
kaftarguzar,,02,38.8397222,70.1563889
kaftar,,02,37.9052778,70.0033333
kaftar-khana,,02,37.9130556,69.7225
kaftarkhona,,02,37.9130556,69.7225
(( kaftor )),,02,37.9166667,69.9833333
kaganovichabad,,02,37.5894444,68.6608333
kaganowtschab,,02,37.5894444,68.6608333
kaikak kum,,03,40.2647222,69.7894444
kaindisoy,,03,40.4927778,69.7025
kairma,,03,39.7827778,68.8527778
kairman,,03,39.7827778,68.8527778
kakhrama,,02,37.4666667,68.55
kakhramon,,02,37.2761111,68.1333333
kalacha,,02,38.6,68.9869444
kalacha,,03,39.2833333,69.9333333
kalaidasht,,02,38.6258333,69.5
kala-i-khamb,,01,38.4663889,70.7938889
kal'aikhumb,,01,38.4663889,70.7938889
kalaikhum,,01,38.4663889,70.7938889
kalaikhusain,,01,38.7266667,70.6416667
kalaikhusayn,,01,38.7266667,70.6416667
kalai-lyabi-ob,,01,39.1183333,70.8566667
kalai-mirzabay,,03,39.7397222,69.1572222
kal'ai mirzoboy,,03,39.7397222,69.1572222
kalainav,,02,38.7019444,69.6427778
kalai-puchkak,,02,37.5327778,69.4672222
kalaipuchkan,,02,37.5327778,69.4672222
kalaishodi,,02,38.5627778,69.2122222
kalai-vamar,,01,37.9441667,71.5575
kala-i-vanch,,01,38.3730556,71.4552778
kala-i-warma,,01,37.9441667,71.5575
kala khoit,,01,39.1833333,70.8833333
kala khumb,,01,38.4663889,70.7938889
kalanak,,02,39.0833333,70.5
kalaryk,,02,37.7,70.25
kalay-khodzha,,02,38.5666667,70.2666667
kalay-khusayen,,01,38.7266667,70.6416667
kalaynav,,02,38.7019444,69.6427778
kal'fisabad,,02,38.1572222,69.0055556
kalinabad,,03,39.7397222,69.1572222
kalininabad,,02,37.8666667,68.9166667
kalininabad,,03,39.7397222,69.1572222
kalinin,,02,37.4258333,68.6011111
kalinino,,02,38.5947222,68.75
kalininskiy,,02,37.4852778,68.6383333
kal khaz,,02,37.8025,69.6441667
kalkot,,02,38.2575,69.2552778
kallyapar,,02,38.35,68.4333333
kalon,,03,39.0466667,68.8330556
kaltashur,,02,37.8897222,69.0613889
kaltuch,,02,38.7072222,69.2605556
kal'tuk,,02,38.7072222,69.2605556
kalyacha,,03,40.1263889,69.6711111
kamadon,,03,39.0427778,68.8127778
kamar,,03,39.4833333,67.5
kamarou,,02,39.1666667,70.3166667
kamar-tash,,03,39.3833333,67.5
kambar,,03,38.6027778,68.2775
kambar-past,,03,38.6027778,68.2775
kamchak,,01,38.6541667,70.6786111
kamchin,,02,38.6263889,68.8530556
kamongaroni-bolo,,02,38.5491667,68.9702778
kampirkala,,02,38.5283333,68.6627778
"kampirqal""a",,02,38.5283333,68.6627778
kamyshkurgan,,03,40.55,70.4333333
kamyshkurgon,,03,40.55,70.4333333
kamyshogly,,02,37.4069444,69.1041667
kanakurgan,,01,38.1738889,74.0536111
kanchoch,,03,39.0472222,68.3438889
kandau,,03,39.1380556,71.6508333
kandav,,03,39.1380556,71.6508333
kandi,,02,38.6544444,68.9452778
(( kandou )),,02,37.9833333,70.15
kangur-dzhar,,02,38.2166667,68.9833333
kangurt,,02,38.2461111,69.52
kangurtut,,02,38.2333333,69.4333333
kanibadam,,03,40.2833333,70.4166667
kansai,,03,40.4927778,69.7025
kansay,5042,03,40.4927778,69.7025
kante,,03,39.2391667,68.4986111
kanti,,03,39.2391667,68.4986111
kant,,03,39.2391667,68.4986111
kanyaz-i-bole,,03,39.0,69.7
kanyaz,,03,39.0,69.7
kanyshbek,,03,39.15,71.0666667
kaporel',,02,37.9833333,70.2166667
kara-agach,,02,37.7283333,69.6747222
karaagach,,02,38.4705556,68.4236111
karaart,,01,39.0575,73.5933333
kara-avgan,,02,38.55,68.6166667
karabadam,,02,37.8530556,69.1211111
kara-bal'chik,,02,38.0988889,68.3872222
kara-bal'yank,,02,38.0988889,68.3872222
karabolchik,,02,38.0988889,68.3872222
kara-bulak,,02,38.2333333,68.5666667
karabulok,,02,38.5375,69.1627778
kara-dzhilga,,01,38.1486111,73.7488889
karagach,,02,38.3,68.8
karagag,,03,38.6188889,68.3352778
kara-gendzha,,03,39.2422222,71.5261111
kara-gendzhe,,03,39.2422222,71.5261111
karagoch,,02,37.7505556,69.9558333
karakamish,,02,38.2325,69.5191667
karakamysh,,02,38.2325,69.5191667
karakchi,,02,37.6544444,69.3933333
karakchikum,,03,40.25,70.1333333
karakendzha,2899,03,39.2422222,71.5261111
karakenja,,03,39.2422222,71.5261111
karakon,,03,40.55,70.3
karakul',,01,39.0141667,73.5583333
kara-kurgan,,01,38.3569444,72.495
karakutan,,02,38.7166667,70.1666667
karakuz,,02,38.2747222,68.3775
kara-kuz,,02,38.2747222,68.3775
karamandi,,02,38.2944444,68.6972222
karamandy,,02,38.2944444,68.6972222
kara-mazar,,03,40.7,69.9666667
karamazor,,03,40.7,69.9666667
karamkul,,02,38.5155556,68.5127778
karani,,03,38.6333333,68.1
karany,,03,38.5905556,68.0827778
karapchi,,03,39.8,68.7833333
kara-sakal,,03,39.8227778,68.9716667
karasakol,,03,39.8227778,68.9716667
karasu,,01,38.0088889,73.9347222
karasu,,02,38.5097222,68.9363889
kara-syut,,02,38.0833333,68.5
karatag,,03,38.6188889,68.3352778
karategin,,02,38.5741667,68.8305556
karatikon,,03,38.7333333,68.3833333
karatog,,03,38.6188889,68.3352778
karatosh,,02,38.3869444,69.2430556
kara-yagach,,02,38.4705556,68.4236111
karcha,,02,37.8,68.7833333
(( kargandzha )),,02,37.7,69.8833333
kargaron,,02,37.7686111,69.9525
(( kariz-poyen )),,02,37.8333333,69.7833333
karl marks,,02,37.3463889,68.1244444
karmysh,,03,39.7166667,68.9166667
karoni,,03,38.5905556,68.0827778
karony,,03,38.5905556,68.0827778
karsang,,02,38.5819444,69.3755556
kartaypak,,02,38.0591667,69.6969444
kasa-bulak,,02,38.1552778,68.525
kasa-bulan,,02,38.1552778,68.525
kasatarosh,,02,38.6805556,68.6666667
kashimbog,,03,39.15,70.2
kashkarokha,,02,38.1727778,69.0141667
kasimabad,,02,38.3622222,68.6402778
kaskon,,02,38.8569444,69.7730556
kassa-bulak,,02,38.1552778,68.525
kasvir,,01,37.1333333,72.7166667
kataganshakh,,02,37.95,68.8333333
katanbulok,,02,38.6302778,68.9519444
katta-buyni,,02,38.4833333,68.3
kattaganshakh,,02,37.95,68.8333333
katta,,03,38.65,68.4833333
katta-kishlak,,03,39.5,67.5833333
katta-sarikamysh,,03,40.7666667,70.5666667
kaun-tyube,,02,37.8666667,68.7333333
kaun-tyube pervoye,,02,37.85,68.6666667
kavrakli,,02,37.9902778,69.3227778
kavrakly,,02,37.9902778,69.3227778
kavshduzon,,02,38.6533333,68.5366667
kayerma,,03,39.7827778,68.8527778
kaykidasht,,02,37.8191667,69.5275
kaynar,,02,37.8733333,69.6747222
(( kaynar )),,02,37.8833333,69.8
kaynar,,02,38.2077778,68.8488889
kayragach,,02,37.7283333,69.6747222
kayragoch,,02,38.4705556,68.4236111
kayrakkum,,03,40.2647222,69.7894444
kayrakum,,03,40.2647222,69.7894444
kayrogochi-bolo,,02,38.5455556,68.8963889
kayrogoch,,02,38.5569444,68.8730556
kayrubak,,02,38.4127778,69.78
kaytmas,,02,37.4930556,68.57
kazakh,,02,37.2444444,69.1622222
kazakmazor,,02,37.8077778,69.1144444
kazakon,,02,38.5855556,68.7313889
kazanguzar,,02,37.9819444,69.0491667
kazidi,,01,37.0166667,71.45
kaznan,,02,39.0166667,70.2666667
kaznok,,02,39.0166667,70.2666667
kazokon,,02,38.5855556,68.7313889
kazy-di,,01,37.0166667,71.45
kelitosh,,02,38.595,68.6772222
kemkul,,03,39.7238889,68.8819444
keriok,,02,38.2925,69.2822222
kevron,,01,38.4769444,70.8852778
kevrun,,01,38.4769444,70.8852778
khaboyet,,01,37.45,71.5833333
khadgut,,01,37.7,72.3666667
khadzhi-bay,,02,38.2419444,68.5416667
khairavat,,03,39.45,68.3833333
khait,,01,39.1833333,70.8833333
khakimi,,02,38.815,69.8002778
khakimi,,03,38.7986111,68.3527778
khaldyr-kipchak,,03,39.8397222,68.8330556
khal'fa-aryk,,02,37.7666667,68.6333333
khalfa,,02,37.7666667,68.6333333
khalila-bulak,,02,38.1333333,68.6333333
khalkadzhar,,02,38.5380556,68.8366667
khalkaer,,02,38.1847222,69.8944444
khalkayar,,02,37.1,69.2333333
khamale,,01,36.7936111,71.5805556
khamdora,,02,38.7333333,70.3333333
khanabad,,02,38.1172222,69.8766667
(( khanaka )),,02,38.5,68.5333333
khanaka,,03,38.7172222,68.6008333
khanako,,03,38.9166667,69.5833333
khanka,,02,38.5333333,68.5666667
kharakoni,,02,38.55,69.9666667
kharangoni-bola,,02,38.6755556,68.8641667
kharangony,,02,38.6755556,68.8641667
kharanoni,,02,38.55,69.9666667
khargush,,01,37.3808333,73.1233333
kharkaron,,02,37.8591667,70.0597222
kharkharak,,02,38.2638889,68.6333333
kharongon,,02,38.6755556,68.8641667
kharpo,,01,38.5013889,71.6766667
kharrangoni bolo,,02,38.6755556,68.8641667
khasandara,,02,38.8288889,69.8372222
khasani,,02,38.3813889,69.0966667
khashdara,,02,38.4816667,69.4525
khas-khorog,,01,37.2572222,71.4855556
khaskhorug,,01,37.2572222,71.4855556
khasony,,02,38.3813889,69.0966667
khaspo,,01,38.5013889,71.6766667
khatcha,,02,37.6333333,69.45
(( khatchi )),,02,37.6333333,69.45
khavaskor,,02,37.2733333,68.1655556
khavzako,,02,37.5419444,69.3588889
khayatinau,,02,37.4730556,69.3705556
khayetinav,,02,38.1338889,68.8936111
khaymakhmady,,02,38.5175,69.1730556
khaymokhmady,,02,38.5175,69.1730556
khayoti nav,,02,38.4986111,68.5869444
khayrabad,,02,38.4422222,69.3205556
khayrabad,,03,39.4166667,69.5166667
khayrkoron,,02,37.8591667,70.0597222
khayrobod,,02,38.4422222,69.3205556
khayrobod,,03,39.4166667,69.5166667
khayronak,,02,38.6441667,68.8505556
khayronbed,,03,39.1497222,68.4636111
khaytali,,02,38.6136111,68.9963889
khazara,,02,37.9833333,68.5333333
khazora,,03,39.0455556,68.8808333
khazrati-imom,,02,38.2833333,70.2833333
kheadzh,,01,37.2,71.6
khermonzhou,,02,37.8913889,70.1677778
khevdzh,,01,37.2,71.6
khidzhis,,01,38.0047222,71.8452778
khijis,,01,38.0047222,71.8452778
khikhek,,01,38.2475,71.3819444
khikhik,,01,38.2475,71.3819444
khilmagz,,02,38.6955556,69.3697222
khiloli-akhmar,,02,37.9294444,69.8025
khirgatarash,,02,38.5052778,68.8547222
khirgatarosh,,02,38.5052778,68.8547222
khirmanak,,02,38.5902778,68.5586111
khirmandzho,,02,37.8913889,70.1677778
khirmanjoy,,02,37.8913889,70.1677778
khirs,,01,38.8288889,70.8286111
khishka-sangou,,02,37.7925,69.9769444
khishkat,,03,39.4333333,68.5
khisor,,02,38.4819444,68.5969444
khitay,,03,40.075,69.4541667
khitoy,,03,40.075,69.4541667
khlopkovyy,,02,37.3188889,68.7186111
khneuk,,01,38.2333333,71.4666667
khnuk,,02,37.7833333,70.2166667
khochaboi,,02,38.2419444,68.5416667
khocharki,,02,38.1461111,69.8311111
khochil'diyeri-bolo,,03,38.6197222,68.4652778
khochildiyer,,02,38.5661111,68.4855556
khochil'diyori bolo,,03,38.6197222,68.4652778
khochil'yar,,03,38.6197222,68.4652778
khodishar,,03,39.4166667,69.2333333
khodyent,,03,40.28,69.6316667
(( khodzha-ali-sha )),,02,37.9833333,69.9666667
khodzhabaykul-bolo,,02,38.5294444,68.9894444
khodzhabaykul,,02,38.5241667,68.9855556
khodzhabog,,02,37.7652778,69.9391667
khodzha-bulak,,02,38.0116667,68.3119444
khodzha-bul'-bulak,,02,38.0116667,68.3119444
khodzhabul'bulon,,02,38.0116667,68.3119444
khodzhagalton,,02,37.8355556,70.0680556
khodzhaguzar,,02,37.8483333,69.2738889
khodzha-isaf,,03,39.7166667,68.9666667
(( khodzha-isan )),,02,37.6666667,69.8166667
khodzhakala,,02,38.0111111,68.8297222
khodzha-katagan,,02,38.5888889,68.9733333
khodzhakhalil',,02,38.2480556,69.8944444
khodzha-kochkari,,02,37.2605556,69.0775
khodzha-maston,,03,38.7333333,68.6166667
khodzhambio-bolo,,02,38.6358333,68.7688889
khodzha-musa,,02,38.5,68.5833333
khodzhamuso,,02,38.5,68.5833333
khodzha-obigarm,,03,38.9002778,68.8008333
khodzharki,,02,38.25,69.2833333
khodzhasartez,,02,37.9705556,69.6736111
khodzhasiddik,,02,38.5072222,68.6322222
khodzhent,,03,40.2177778,69.725
khodzhi-baykul,,02,38.5241667,68.9855556
khodzhiboi,,02,38.2419444,68.5416667
khodzhigalton,,02,37.8355556,70.0680556
khodzhigirdob,,02,38.2955556,68.4261111
khodzhikatagan,,02,38.5888889,68.9733333
khodzhimard,,02,38.5666667,69.3166667
khodzhi-obigarm,,03,38.9002778,68.8008333
khojabog,,02,37.7652778,69.9391667
khojabulbulon,,02,38.0116667,68.3119444
khojagalton,,02,37.8355556,70.0680556
khojaguzar,,02,37.8483333,69.2738889
khojakhalil,,02,38.2480556,69.8944444
khoja obigarm,,03,38.9002778,68.8008333
khojaquchqor,,02,37.2605556,69.0775
khojasartez,,02,37.9705556,69.6736111
khojend,,03,40.28,69.6316667
khojigirdob,,02,38.2955556,68.4261111
khojildiyor,,02,38.5661111,68.4855556
khokak,,02,37.4166667,68.1666667
khokali,,02,38.6255556,68.9166667
khokhu,,03,38.8333333,69.2666667
kholdarkipchak,,03,39.8397222,68.8330556
kholdorkipchak,,03,39.8397222,68.8330556
kholdorkipjok,,03,39.8397222,68.8330556
khonabad,,02,38.1172222,69.8766667
khonakokh,,02,38.2886111,69.8661111
khonako,,02,38.2886111,69.8661111
khonako,,03,38.7172222,68.6008333
khonanokh,,03,38.7172222,68.6008333
khonatarosh,,02,38.0738889,70.0180556
khonobad,,02,38.1172222,69.8766667
khordarai,,02,38.6288889,69.1241667
khorog,,01,37.4916667,71.5558333
khorugh,,01,37.4916667,71.5558333
khoshadi,,02,37.1047222,68.0947222
khoshady,,02,37.1047222,68.0947222
khoshdara,,02,38.4816667,69.4525
khoshehol',,03,39.1833333,71.25
khosh-ob,,02,38.6666667,69.9166667
khoshol',,03,39.1833333,71.25
khostav,,01,38.1863889,70.5044444
khost,,01,38.5416667,70.8366667
khostou,,01,38.1863889,70.5044444
khostov,,01,38.1863889,70.5044444
khovaling,,02,38.3411111,69.9794444
khrazmoni,,02,38.2388889,70.0841667
khrazmony,,02,38.2388889,70.0841667
khshirtab,,03,39.2266667,68.9158333
khtay,,03,40.075,69.4541667
khudayshan,,02,37.9647222,69.7688889
khudgif,,03,39.4166667,70.0
khudzhand,,03,40.28,69.6316667
khudzhay-nakhsheron,,02,38.45,68.2
khudzhay-narsheron,,02,38.45,68.2
khuf,,01,37.85,71.65
khujand,144874,03,40.28,69.6316667
khulozi,,02,38.9038889,69.8675
khulozy,,02,38.9038889,69.8675
khumdon,,02,38.8975,70.1361111
khumorigung,,03,39.1794444,68.0044444
khundukul',,02,37.8772222,69.8861111
khuraz,,02,38.2666667,68.7166667
khur,,01,38.7383333,70.5827778
khurk,,01,38.5163889,71.0397222
khurmi,,03,39.5166667,67.5833333
khusanabad,,03,39.3672222,68.0416667
khusenshug,,02,38.1302778,69.4575
khuseynshug,,02,38.1302778,69.4575
khushikat,,03,39.4333333,68.5
khushon,,02,38.7713889,69.2719444
khushtair-mukhlan,,03,40.0480556,69.1502778
khushtair-mukhlon,,03,40.0480556,69.1502778
khushtoirijar,,03,40.0480556,69.1502778
khushtoirimukhlan,,03,40.0480556,69.1502778
khushtoirimukhlon,,03,40.0480556,69.1502778
khusnobad,,03,39.35,68.0333333
khutgif,,03,39.4166667,70.0
khuvan,,02,38.4666667,69.3502778
khuyum,,02,38.9833333,70.3166667
khuzhalksho,,02,37.9961111,69.9863889
khuzya,,03,39.9666667,68.9833333
khyrmonak,,02,38.5902778,68.5586111
kian-chashma,,02,37.6997222,69.7169444
kianchashma-poyen,,02,37.6997222,69.7169444
kibil,,02,38.3738889,69.2847222
kiblai,,02,38.6208333,68.8333333
kiblay,,02,38.6208333,68.8333333
kibloy,,02,38.0269444,69.5980556
kiblyay,,02,38.6208333,68.8333333
kiik-mazar,,02,38.125,68.6897222
kiikmazor,,02,38.125,68.6897222
kim,2411,03,40.2,70.4666667
kipchak,,03,38.6,68.2166667
kipchok,,02,38.5866667,69.0308333
kipchok,,03,38.6,68.2166667
kipkak,,02,38.0302778,69.9316667
kirgiz,,02,37.215,69.1530556
kirgizkislak,,03,38.6719444,68.2275
kirgochak,,02,38.1883333,69.0277778
kirma bolo,,02,38.1166667,69.6833333
kirma,,02,38.4027778,68.825
kirovabad,,02,37.2383333,69.0969444
kirov,,02,37.4288889,68.5666667
kirovskiy,7696,02,37.8166667,68.85
kirowabad,,02,37.2383333,69.0969444
kirpichnyy,,02,38.4213889,68.7547222
kirskhana,,03,39.3666667,67.7
kisatorosh,,02,38.6833333,68.6833333
kishlak-kzyl,,02,38.4188889,68.5747222
(( kishtibolo )),,02,37.9333333,70.1333333
kishti,,02,37.9283333,70.1691667
kishti-poyen,,02,37.9283333,70.1691667
kisht-poyon,,02,37.9283333,70.1691667
kishtudak,,03,39.4772222,68.1283333
kistakuz,,03,40.1986111,69.81
kizilbulok,,02,37.7727778,69.1616667
kizil,,02,38.45,68.9166667
kizilkuch,,02,37.2788889,68.1963889
kizilqishloq,,02,38.4188889,68.5747222
kizil rabat,,01,37.4694444,74.8086111
kizilsoy,,02,38.0816667,69.4491667
kizyl-bulak,,02,38.4666667,68.4
kizyl-kala,,02,37.1952778,68.5786111
kizyl-mazar-bolo,,02,38.0458333,69.5880556
kizyl-mazar,,02,38.0458333,69.5880556
kizyl oktyabr',,01,37.6333333,68.6166667
kochkarbulok,,02,37.7075,69.1588889
kochkiya,,02,37.3044444,69.1241667
kodara,,02,37.6588889,69.5569444
(( kodara )),,02,37.7166667,69.8833333
kofarnihon,42909,02,38.5530556,69.0197222
kofarnikhon,,02,38.5530556,69.0197222
kofarniqon,,02,38.5983333,69.1111111
kojend,,03,40.28,69.6316667
koka-bulak,,02,38.2833333,68.5833333
kokbulak,,02,38.7555556,69.6775
kokliksoy,,02,37.805,69.0402778
koklisoy,,02,37.805,69.0402778
koktasch,,02,38.4422222,68.7769444
koktash,,02,38.4422222,68.7769444
koktash,,03,39.5,67.6333333
kok-tepe,,03,39.05,68.9
(( kol-bulak )),,02,37.9666667,69.15
kole-bulak,,02,38.3127778,68.3405556
kolem-boki,,01,39.1,70.7666667
kolkhozabad,,01,37.6,71.7666667
kolkhozabad,,02,37.5894444,68.6608333
kolkhozchion,,03,39.4833333,67.6166667
kolkhozobod,,02,37.5894444,68.6608333
kolusuf'yan,,02,38.2930556,69.4063889
komangoran,,02,38.5491667,68.9702778
kombinat slepykh,,02,38.5036111,68.5763889
kommuna,,02,37.4986111,69.425
kommunizm,,02,37.4636111,68.1630556
komsomolabad,,02,37.7811111,69.6063889
komsomolbad,,02,38.8669444,69.9622222
komsomol,,01,37.7,68.6166667
komsomol,,02,37.3969444,68.6455556
komsomolobod,,02,37.7811111,69.6063889
konaqurghon,,01,38.1738889,74.0536111
konchi,,02,38.4677778,68.5808333
konchy,,02,38.4677778,68.5808333
kondara,,03,38.8119444,68.8283333
konibodom,50364,03,40.2833333,70.4166667
kono-kurgan,,01,38.1738889,74.0536111
konstitutsiya,,02,38.5383333,68.7188889
korgaron,,02,37.7686111,69.9525
korolevskaya dacha,,02,37.2319444,68.3886111
kosabulok,,02,38.1552778,68.525
kosabuloq,,02,38.1552778,68.525
kosatarash,,03,39.3833333,67.7666667
kosataroshi bolo,,02,38.6805556,68.6666667
kosatarosh,,02,38.4333333,69.5
kosatarosh,,03,39.3833333,67.7666667
koshachinar,,02,37.3458333,68.1869444
koshachinor,,02,37.3458333,68.1869444
koshana,,03,39.4463889,68.0683333
kosh-bulak,,02,38.0333333,68.5166667
koshkent,,03,40.0833333,68.9333333
koshkiya,,02,37.9861111,69.6422222
kosh-kurgan,,03,39.83,68.8141667
kosh-tair,,03,40.0480556,69.1502778
kosh-tepe,,03,39.4661111,67.6286111
koshteppa,,03,39.4661111,67.6286111
kosh-tyube,,03,39.4661111,67.6286111
kosimobod,,02,38.3622222,68.6402778
kostakoz,,03,40.1986111,69.81
kostarach,,03,39.3833333,67.7666667
kosychubak,,02,38.5333333,70.0333333
kotorak,,02,38.575,70.3227778
kovtokoz,,03,40.1986111,69.81
kozychubak,,02,38.5333333,70.0333333
kozychuzak,,02,38.5333333,70.0333333
krasnoostrovskiy,,02,37.3480556,68.685
krchi-kul',,02,38.4166667,68.6
(( krichol )),,02,37.7666667,70.0666667
krut,,03,39.4269444,68.555
kshindara poyen,,02,38.3166667,70.0666667
kshtutdak,,03,39.4772222,68.1283333
kshtut,,03,39.35,68.0333333
kuchkak,,03,40.25,70.3333333
kuchkan-bulak,,02,38.4147222,68.2797222
kuchkan,,02,38.1422222,69.5058333
kuchkan,,03,40.25,70.3333333
kuchkurgon,,03,39.83,68.8141667
kudara,,01,38.4016667,72.6794444
kuduk,,02,38.1833333,68.6166667
kuduk,,03,38.6166667,68.0833333
kudukly,,02,37.3080556,69.1108333
kugi-lyal',,01,37.1833333,71.45
kuibul'yen,,02,37.9102778,69.3536111
kuibyshevabad,,02,37.95,68.8166667
kuitemez,,02,37.3111111,69.0619444
kukabuloq,,02,38.7555556,69.6775
kukhilyal,,01,37.1833333,71.45
kukhnaboy,,02,38.4413889,68.5988889
kukhon,,02,38.6333333,68.5191667
kulabad,,02,38.2727778,68.9927778
kul'abad,,02,38.6858333,69.5830556
kulab,,02,37.9091667,69.7819444
(( kul'-ayud-bek )),,02,37.9666667,69.9833333
kulbek,,02,37.8816667,69.5702778
kul'-bulak,,02,38.4,68.7666667
kul'bulok,,02,38.3127778,68.3405556
kulbuloq,,02,38.3127778,68.3405556
kul'chashma,,02,38.1508333,70.0216667
kuldara,,02,38.1461111,69.8311111
kul'deman,,02,37.2811111,69.0666667
kul'diman,,02,37.2811111,69.0666667
kul'doman,,02,37.9763889,69.8891667
kulegtel',,02,38.4166667,69.8
kulibedak,,02,38.6572222,68.7244444
kulikutan,,03,39.75,68.6833333
kulin,,01,38.0166667,72.6666667
kulisufiyen,,02,38.2930556,69.4063889
kul'kat,,03,40.15,70.7
kul'ke,,03,40.15,70.7
kul'kent,,03,40.15,70.7
kul',,02,37.9677778,69.9869444
kul,,02,38.6219444,69.2208333
kul',,03,40.1166667,69.1166667
kul'makmidi,,02,38.6547222,68.8336111
kulmunda,,02,38.5141667,68.5852778
kulob,78794,02,37.9091667,69.7819444
kulobod,,02,38.2727778,68.9927778
(( kul'-odzhar-bek )),,02,37.9666667,69.9833333
kuloli,,03,39.3672222,68.0416667
kul'pista,,02,38.6508333,68.8052778
kululu,,02,38.1333333,70.05
kulumbai-bolo,,01,38.6375,70.6344444
kulyab,,02,37.9091667,69.7819444
kul'yali,,03,39.35,68.0333333
kumarg,,03,39.3666667,68.5833333
kum,,03,39.4166667,68.3833333
kumsangir,,02,37.4127778,68.6844444
kumsay,,02,37.3419444,69.0080556
kumsoy,,02,37.3419444,69.0080556
kunchi,,02,38.45,68.5666667
kundashar,,02,38.2872222,70.0713889
kundashor,,02,38.2872222,70.0713889
kungara,,02,38.25,70.2666667
kungora,,02,38.25,70.2666667
(( kun-tyube )),,02,37.7666667,69.6
kunyashaar,,02,37.8980556,69.7644444
kunzhak,,03,39.75,68.95
kuprukbashi,,03,40.9,70.6
kuprukboshi,,02,38.5811111,69.0755556
kuprukboshi,,03,40.9,70.6
kuprukboshy,,02,38.5811111,69.0755556
kuranch,,02,38.8,70.1833333
kurban-kusa,,02,38.4422222,68.1575
kurbanshaid,,02,37.7777778,69.5577778
kurbanshait,,02,37.7777778,69.5577778
kurbansheit,,02,37.7777778,69.5577778
kurbantaybulok-poyen,,02,38.0316667,69.6563889
kurbonkusa,,02,38.4422222,68.1575
kurdyk-say,,02,38.3,68.8333333
kurdzhalol,,02,37.185,68.185
kurgan-tyube,,02,37.8363889,68.7802778
kurgawad,,01,38.4244444,71.1163889
kurghon,,01,38.4602778,74.4083333
kurgovad,,01,38.4244444,71.1163889
kurgovat,,01,38.4244444,71.1163889
kurkat,,03,40.1369444,69.2552778
kur-kuduk,,02,38.3,68.75
kurort oksukon,,03,40.5333333,70.4
kurot,,02,37.2488889,68.1683333
kurpai,,02,38.6413889,68.8619444
kurpay,,02,38.6413889,68.8619444
kuruk,,03,38.865,68.6616667
kuruksay,3288,03,40.5786111,69.3777778
kurusay,,03,40.5786111,69.3777778
kurz-genje,,03,39.2422222,71.5261111
kurzhumtosh,,02,37.7502778,69.7627778
kus-abad,,02,38.3166667,68.8666667
kushachinor,,02,37.3458333,68.1869444
kushaginor,,02,37.3458333,68.1869444
kushkak,,02,38.1422222,69.5058333
kushkak,,03,38.7219444,68.6427778
kushkiya,,02,37.9861111,69.6422222
kushkutan,,03,39.3166667,67.75
kushtepa pervaya,,02,38.5338889,68.815
kush-tepa-uzb,,02,38.5338889,68.815
kushteppa,,02,37.7819444,69.6063889
kushteppa,,03,39.4661111,67.6286111
kuybishevskiy,,02,37.8666667,68.7333333
kuybishevsk,,02,37.95,68.8166667
kuybul'on,,02,37.9102778,69.3536111
kuybul'yen,,02,37.9102778,69.3536111
kuybyshevabad,,02,37.95,68.8166667
kuybyshevskiy,,02,37.8666667,68.7333333
kuybyshevsk,,02,37.8666667,68.7333333
kuyikushkiya,,02,37.9861111,69.6422222
kuymot,,02,38.4044444,69.1066667
kuyu-burka,,02,37.1972222,69.1433333
kuyu-temez,,02,37.3111111,69.0619444
kuyutemiz,,02,37.3111111,69.0619444
kuzibacha,,02,38.4986111,68.1347222
kyrk-archa,,03,39.4166667,67.5
kyrkkuduk,,03,40.7,70.6833333
kyrkuduk,,02,37.4008333,69.2027778
kyrma,,02,38.4027778,68.825
(( kyshkasangou )),,02,37.7833333,69.9666667
kyshtipoyen,,02,37.9283333,70.1691667
kyzul-mazar-bolo,,02,38.0458333,69.5880556
kyzyl-alma,,03,38.6833333,68.3833333
kyzyl-askar,,02,37.1916667,68.15
kyzyl-bayrak,,01,37.6333333,68.6166667
kyzyl-bulak,,03,38.6833333,68.3666667
kyzylbulok,,02,37.7727778,69.1616667
kyzylguzar,,02,38.0672222,69.4069444
kyzyli,,03,40.0638889,69.2175
kyzylkala,,02,37.9,68.65
kyzylkishlak,,02,38.4188889,68.5747222
kyzyl-kuch,,02,37.2788889,68.1963889
kyzyl-mazar-bolo,,02,38.0458333,69.5880556
kyzyl-mazar,,02,38.0458333,69.5880556
kyzylnishon,,02,37.4358333,68.6386111
kyzyl nishon,,02,38.5452778,68.8861111
kyzyl-rabat,,01,37.4694444,74.8086111
kyzylrabot,,01,37.4694444,74.8086111
kyzylsoy,,02,38.0816667,69.4491667
kyzylsu,,02,37.5391667,69.3388889
kyzyl-tabobu,,02,38.3833333,68.55
kyzyl-tadzhikistan,,02,37.3863889,68.6588889
kyzyly,,03,40.0638889,69.2175
kzyl-kala,,02,37.9,68.65
kzyl-mazar-bolo,,02,38.0458333,69.5880556
kzyl-mazar,,02,38.0458333,69.5880556
kzyl-oktyabr',,01,37.6333333,68.6166667
kzyl-rabat,,01,37.4694444,74.8086111
labital,,02,38.5236111,68.6925
lagman,,02,37.8958333,69.7475
lakai-begi,,02,38.5094444,69.0816667
lakai-bezi,,02,38.5094444,69.0816667
lakaybegi,,02,38.5094444,69.0816667
lakhat-bul,,02,38.35,68.3666667
lakhiti,,02,38.2947222,69.8947222
lakhuti,,02,38.2947222,69.8947222
lakkon,,03,40.1666667,70.8666667
laklakuya,,02,37.2902778,68.1863889
langa kisht,,01,37.0516667,72.6727778
langa,,01,38.7130556,70.5022222
langar-kalon,,02,37.9816667,70.0072222
langar kisht,,01,37.0516667,72.6727778
langar,,01,37.0516667,72.6727778
langar,,02,37.9816667,70.0072222
langar,,03,40.0594444,69.3241667
langar-poyen,,02,38.5505556,68.5675
laqaybegi,,02,38.5094444,69.0816667
larkhobi,,02,37.8152778,69.6755556
latokhorak,,02,38.6186111,68.5666667
lattaband,,02,38.4061111,68.5380556
lattaban,,02,38.4061111,68.5380556
lattakhorak,,02,38.6186111,68.5666667
layka,,02,38.45,68.65
layron,,01,38.8925,70.9275
layron,,02,38.8430556,69.8219444
lenger,,01,37.0516667,72.6727778
lengerskiy,,01,37.0516667,72.6727778
leninabad,,02,37.4722222,68.5258333
leninabad,,03,40.28,69.6316667
leninayel,,02,37.1491667,68.1236111
leningrad,,02,38.1077778,70.0308333
leningradskiy,11955,02,38.1077778,70.0308333
lenin,,02,38.4422222,68.7769444
leninobod,,03,40.28,69.6316667
leninskiy,,02,38.4422222,68.7769444
leninyuli,,02,37.1491667,68.1236111
lenin yuly,,02,38.0108333,68.8347222
leprozoriy,,02,38.3711111,68.515
letnik bash-gumbez,,01,37.7711111,73.5491667
letnik kulin,,01,38.0166667,72.6666667
letnik vakhynch,,01,38.0333333,72.6
lidzhak,,02,38.6280556,69.14
lijak,,02,38.6280556,69.14
lilykutal,,02,37.8697222,69.7555556
lodzhirk,,01,38.1,71.9833333
lohur,,02,38.3788889,68.7041667
lojirk,,01,38.8611111,71.1077778
lokhur,,02,38.0327778,69.1997222
lolagi,,02,38.5958333,68.5497222
lolazor,,02,38.5713889,68.9894444
lomanov,,02,37.4866667,69.3772222
loshkharf,,02,38.6741667,69.3277778
louka,,02,37.8202778,69.7877778
loyeva,,02,38.4,70.05
loyob,,02,38.6055556,68.8775
lublikor,,02,37.0413889,68.0825
luchob,,02,38.7052778,68.6838889
lukhch,,01,38.6780556,70.6811111
lulikutal,,02,37.8697222,69.7555556
lushiyen,,02,38.3555556,69.9483333
lyabi-dzhon,,03,38.7333333,68.35
lyabi-dzhoy,,03,38.7333333,68.35
lyagman,,02,37.8958333,69.7475
lyakan,,03,40.1666667,70.8666667
lyakat,,03,40.0166667,69.0166667
lyakhkan,,03,40.1666667,70.8666667
lyakhsh,,01,38.3166667,71.25
lyalikutal,,02,37.8697222,69.7555556
lyangar-dara,,02,38.1333333,70.2166667
lyangar-gisht,,01,37.0516667,72.6727778
lyangar-kisht,,01,37.0516667,72.6727778
lyangar-kolon,,02,37.9816667,70.0072222
lyangar,,01,37.0516667,72.6727778
lyangar,,02,38.1333333,70.2166667
lyangar,,03,40.0594444,69.3241667
lyanglif,,03,39.45,70.0333333
lyarkhobi,,02,37.8152778,69.6755556
lyatakhorak,,02,38.6186111,68.5666667
lyatoban,,02,38.3833333,68.5333333
lyaur,,02,38.3788889,68.7041667
lyaylyag-uya,,02,37.2902778,68.1863889
lyaylyakuya,,02,37.2902778,68.1863889
lyayrun,,01,38.8925,70.9275
lyublikar,,02,37.0413889,68.0825
lyuch'-ob,,02,38.7052778,68.6838889
machiton,,02,38.5761111,68.9705556
madaniat,,02,37.45,68.5333333
madaniyat,,02,37.45,68.6527778
madm,,03,39.4344444,68.3497222
madovra,,03,39.3236111,68.1152778
madrushkat,,03,39.4461111,69.6661111
madrushkenteg,,03,39.4461111,69.6661111
magaitu,,03,38.8330556,68.6891667
magian,,03,39.2511111,67.6688889
magiyan,,03,39.2511111,67.6688889
magmurud,,02,38.6575,68.9480556
magov,,02,38.6875,69.1063889
mahmadsho,,02,38.5038889,68.7013889
maikota,,03,39.5161111,67.7666667
makhmadshoi,,02,38.5038889,68.7013889
makhmadsho,,02,38.5038889,68.7013889
makhmadzhan,,03,39.3166667,70.6166667
makhram,,03,40.25,70.1833333
makhrazi,,02,38.4422222,69.2797222
mak-mashau,,02,38.5038889,68.7013889
maksev,,02,38.2666667,69.1666667
makshevat,,03,39.125,68.4847222
makshezat,,03,39.125,68.4847222
maksim gor'kiy,,02,37.4222222,68.5677778
maksim gorkiy,,02,37.4838889,68.6236111
maksim gor'kiy,,03,38.5808333,68.2319444
mansev,,02,38.2666667,69.1666667
marazteppa,,02,37.8216667,69.5997222
mardzh,,01,37.7005556,72.4466667
margab,,01,38.1688889,73.965
margib,,03,39.1763889,68.8936111
margob,,02,37.6638889,69.5975
marguzar,,02,37.4511111,69.3563889
marguzar,,03,39.1,67.8666667
marguzor,,03,39.1,67.8666667
marifati,,02,38.625,68.69
marish-karon,,02,37.6913889,69.8513889
markansu,,01,39.2969444,73.3455556
markhana,,01,37.75,72.4166667
marmurud,,02,38.6575,68.9480556
(( maroz )),,02,37.8333333,69.5833333
marsor,,01,38.0333333,72.15
martaki,,02,38.1572222,69.9938889
marzich,,03,39.1727778,68.7377778
mashal,,02,37.7402778,69.0530556
matcha,14897,03,40.3680556,69.3252778
matraun,,01,38.185,71.4422222
matravn,,01,38.185,71.4422222
maulak,,02,38.3730556,69.3980556
mavlondzhari-bolo,,02,38.5727778,68.5536111
mavlondzhar,,02,38.5630556,68.5502778
mayda-patta,,02,37.5266667,69.3205556
maydon komsomol,,02,37.2233333,68.0361111
(( maydon )),,02,37.8,69.9333333
maydon,,02,38.6930556,69.7408333
maykata,,03,39.5161111,67.7666667
maykatta,,03,39.5161111,67.7666667
maykhura,,03,39.0247222,68.5877778
maykota,,03,39.5161111,67.7666667
mazari-sharif,,03,39.4,67.85
mazari-sherif,,03,39.4,67.85
mazar,,01,38.2833333,71.5666667
mazar,,03,39.3166667,70.6166667
mazaryuru,,02,38.4763889,70.0791667
mazori,,02,38.4763889,70.0791667
mazorirarz,,03,39.3533333,68.7136111
mazori-sharif,,03,39.4,67.85
mazori-sherif,,03,39.4,67.85
mazorsultan,,02,38.4763889,70.0791667
mazorsulton,,02,38.4763889,70.0791667
mazory,,02,38.4763889,70.0791667
mdykhara,,01,38.5833333,71.7666667
mecheton,,02,38.5761111,68.9705556
medenshar,,01,37.3333333,71.75
medensharv,,01,37.3333333,71.75
medynved,,01,37.2,71.8666667
mehnat,,02,38.0872222,68.6886111
mehnat,,03,40.2,68.95
mehnatobad,,02,37.7266667,69.5458333
mehnatobod,,02,38.1705556,68.9566667
mekhnatabad,,02,37.7266667,69.5458333
mekhnatabad,,03,40.2,68.95
mekhnatabod,,03,40.2,68.95
mekhnat,,02,38.0872222,68.6886111
mekhnatobod,,03,40.2,68.95
mekhnat-rokhat,,02,37.3591667,68.7247222
mekhtari,,02,38.6197222,68.8991667
mekhtari novyy,,02,38.6055556,68.9086111
metintugay,,02,37.6133333,69.5605556
metintughay,,02,37.6133333,69.5605556
meynet-kash,,02,38.4666667,68.25
mianshar,,01,37.7219444,72.2641667
mikoyanabad,,02,37.4166667,68.2
mikoyan,,02,38.4980556,68.8397222
mimichi,,02,39.1166667,70.6666667
minbulak,,03,39.2166667,71.5166667
mindaka,,03,39.4833333,67.95
mindona,,03,39.4833333,67.95
mingachar,,02,38.2997222,68.5216667
ming-botman,,02,38.2666667,68.4166667
mingichar,,02,38.2997222,68.5216667
ming-tut,,02,38.4666667,68.2166667
(( min'-tut )),,02,37.9666667,69.7666667
mionadu,,01,38.83,70.8780556
mirakhur-kishlak,,02,37.5922222,69.3686111
mirzakulabad,,02,38.2686111,68.815
mirzochul',,02,38.5605556,68.6736111
mirzoqulobod,,02,38.2686111,68.815
mishkoron,,02,37.6913889,69.8513889
misninobad,,02,38.6666667,69.5333333
misyr-abad,,02,37.2833333,68.1166667
mitin-tugay,,02,37.8,69.6069444
miyenadara,,02,38.8186111,69.9252778
miyenadu,,01,38.83,70.8780556
miyenshar,,01,37.7219444,72.2641667
miyonadu,,01,38.83,70.8780556
miyondara,,02,38.8186111,69.9252778
miyonshahr,,01,37.7219444,72.2641667
moghiyon,,03,39.2511111,67.6688889
mogol,,02,37.9630556,69.7563889
mogul,,02,37.2875,69.1391667
mogul,,03,39.5,67.6833333
mogulyan,,03,39.5,67.6833333
moinkadzh,,02,38.5691667,68.9355556
moinkadzh-poyen,,02,38.5611111,68.9525
moinkaj,,02,38.5691667,68.9355556
moloshady,,02,38.5333333,68.35
molotovabad,,02,37.3486111,68.6733333
momandien,,02,38.1513889,70.0672222
momandiyen,,02,38.1513889,70.0672222
momirak,,02,37.8947222,69.9219444
monming-abad,,03,38.65,68.35
mordzh,,01,37.7005556,72.4466667
morj,,01,37.7005556,72.4466667
morkhana,,01,37.75,72.4166667
morkhona,,01,37.75,72.4166667
morteppa,,02,38.5541667,68.5911111
moskovskiy,19563,02,37.6127778,69.7061111
moskva,,02,37.6566667,69.6291667
motravi,,01,38.185,71.4422222
motravn,,01,38.185,71.4422222
mounkach bolo,,02,38.5611111,68.9525
mudshum,,03,39.8791667,69.1869444
mudzhikharf mayda,,02,38.8602778,69.8758333
mudzhikharf,,02,38.8602778,69.8758333
mudzhikharv,,02,38.8602778,69.8758333
mudzhum,,03,39.8791667,69.1869444
muguloni-poyen,,02,38.6552778,68.7033333
mugulon,,02,38.5333333,68.8652778
mugul-payen,,02,38.6552778,68.7033333
muhojirobod,,02,37.5208333,69.4547222
mujikharf,,02,38.8602778,69.8758333
mujum,,03,39.8791667,69.1869444
mukhodzhirabad,,02,37.5208333,69.4547222
muk,,03,39.1666667,71.5666667
mukur,,03,39.7155556,68.8286111
mulla-dobat,,02,38.5291667,68.9380556
(( mulla-kazagi )),,02,37.8666667,69.8166667
mullamir,,03,40.7333333,70.1666667
mullasultan,,02,37.9586111,69.8061111
mullodavot,,02,38.5291667,68.9380556
mullo-sultani,,02,37.9586111,69.8061111
mullosulton,,02,37.9586111,69.8061111
mul'vodzh,,01,36.9166667,71.55
muminabad,,02,38.1077778,70.0308333
mumirak,,02,37.8947222,69.9219444
mumynabad,,02,38.1077778,70.0308333
munda,,02,37.9702778,69.3941667
mundok-belo,,02,37.9644444,69.3941667
mundok-poyen,,02,37.9702778,69.3941667
mundon,,02,37.9702778,69.3941667
murateppa,,02,37.3511111,67.9702778
murdgodga,,01,38.6191667,71.8591667
murgab,,01,38.1688889,73.965
murghabi,,01,38.1688889,73.965
murghab,,01,38.1688889,73.965
murghob,,01,38.1688889,73.965
murgudga,,01,38.6191667,71.8591667
murgudgo,,01,38.6191667,71.8591667
murshikor,,02,38.6280556,68.7469444
murutak,,02,38.3719444,68.5041667
murzabek,,01,37.85,73.65
murza-gul,,02,38.2686111,68.815
murza-khan,,03,38.8686111,69.5833333
musa-bazari,,03,38.6333333,68.35
muskinabad,,02,38.6666667,69.5333333
musobozor,,03,39.2416667,67.4166667
muykach-bolo,,02,38.5611111,68.9525
muzhyun,,03,39.8791667,69.1869444
muzkol,,01,38.7080556,73.5158333
myn-bulak,,03,39.2166667,71.5166667
nadirabad,,02,38.8825,70.1255556
nadzhi,,03,38.6333333,68.4666667
nadzh,,02,38.5561111,68.5019444
nafaroch,,03,39.8166667,69.0
nafarodzh,,03,39.8166667,69.0
nagodak,,01,37.4666667,71.5166667
nakhal'bek,,03,38.65,68.3166667
namadgut,,01,36.7166667,71.7666667
namangut,,01,36.7166667,71.7666667
namatgut,,01,36.7166667,71.7666667
namozdzhoy,,02,37.5738889,69.3783333
namozgokh,,03,39.0552778,68.8541667
namuna,,02,37.4277778,68.5152778
nandzheymas,,02,37.9833333,69.7333333
narabad,,03,38.6605556,68.3286111
narge-say,,03,39.4666667,68.3666667
narvad,,03,39.1147222,68.4077778
naryn,,02,38.2952778,68.935
nasosnyy,,02,38.5261111,68.71
nasrud,,03,39.25,70.0833333
nasrut,,03,39.0483333,68.8616667
naubad,,02,38.2577778,68.3438889
nau-farach,,03,39.8166667,69.0
naugandy,,03,40.0333333,69.05
naugarzan,877,03,40.9333333,70.55
naumitkan,,03,39.2,69.0833333
nau,,01,38.2666667,72.2333333
nau,13833,03,40.1538889,69.3730556
navaabad,,02,37.8408333,70.0372222
navabad,5352,02,39.0077778,70.1555556
navabad,,03,39.7211111,68.9563889
navabadskiy,,02,38.5877778,68.7386111
navavat,,03,39.7211111,68.9563889
navbod,,02,38.2577778,68.3438889
navdekh,,02,38.4361111,69.3319444
navdi,,02,38.0094444,68.8086111
navdonek,,02,38.9833333,70.2166667
navdy,,02,38.0094444,68.8086111
navkoram,,02,38.2869444,69.0411111
navobodi bolo,,02,37.6358333,69.3808333
navobod,,02,37.5019444,68.8891667
navodak,,01,37.4666667,71.5166667
navraut,,03,39.6166667,69.3
navruzbulok,,02,38.6883333,68.6469444
navruzbuloq,,02,38.6883333,68.6469444
naygif-dargaza,,01,38.7333333,71.2
naygufdorgoza,,01,38.7333333,71.2
nayza-bulak,,02,37.8833333,68.5166667
nazaraylok,,03,39.3786111,70.6291667
nazar-aylyau,,03,39.3786111,70.6291667
nazaraylyav,,03,39.3786111,70.6291667
nazarboy,,02,37.8241667,69.9147222
nefteabad,4603,03,40.2,70.5666667
nefteobod,,03,40.2,70.5666667
nefteprom kim,,03,40.2,70.4666667
negnot,,03,39.3616667,68.0113889
nemas,,01,37.3191667,72.2202778
nemats,,01,37.7147222,72.0402778
neyli,,03,38.6758333,68.5277778
nidzhani,,03,39.965,68.9252778
nidzhoni,,03,39.965,68.9252778
nil'kon,,02,38.6008333,68.9213889
nilu,,03,38.6758333,68.5277778
nimicha,,02,39.1166667,70.6666667
nimichi,,02,39.1166667,70.6666667
nimichi-poyen,,02,39.1166667,70.6666667
nimos,,01,37.3191667,72.2202778
nimshus,,01,38.2666667,72.2166667
nisay,,01,38.7166667,71.25
nishgar,,01,37.0166667,72.4666667
nishmus,,01,38.2666667,72.2166667
nishorak,,02,38.1333333,70.2166667
nisur,,01,38.2911111,72.3977778
niyazbek,,03,40.25,70.25
nizan',,03,39.965,68.9252778
nizany,,03,39.965,68.9252778
nizhdani,,03,39.965,68.9252778
nizhni pyandzh,,02,37.1952778,68.5786111
nizhniy dal'yan,,03,39.8,69.0166667
nizhniy khokak,,02,37.3833333,68.1333333
nizhniy pandzh,,02,37.1952778,68.5786111
nizhniy pyandza,,02,37.1952778,68.5786111
nizhniy pyandzh,,02,37.1952778,68.5786111
nodirobod,,02,38.8825,70.1255556
nofin,,03,39.1833333,67.8333333
noling,,02,38.4425,69.4797222
nomitkon,,03,39.2,69.0833333
norak,,02,38.3883333,69.325
norobod,,03,38.6605556,68.3286111
norvat,,03,39.1147222,68.4077778
noryn,,02,38.2952778,68.935
nory,,03,39.5,67.8833333
nosir khisrav,,02,37.4122222,68.1880556
noumidkon,,03,39.2,69.0833333
novabadi-bolo,,02,37.6358333,69.3808333
novabad,,02,37.0852778,68.1191667
novabad,,03,39.2,69.3
novabad-poyen,,02,37.6283333,69.3594444
novakipoyen,,03,38.8833333,69.2666667
novak,,03,38.8833333,69.2666667
novasoy,,02,38.4258333,68.1161111
novaya zemlya,,02,37.2969444,68.6552778
novkoram,,02,38.2869444,69.0411111
nov,,03,40.1538889,69.3730556
novoabad,,02,38.5877778,68.7386111
novobad,,01,37.6833333,68.6833333
novobad,,02,38.4833333,70.0833333
novobad,,03,39.2,69.3
novobod,,02,37.4044444,68.6894444
novobulok,,02,37.8102778,69.8841667
novovat,,03,39.7211111,68.9563889
novyy sarkor,,03,38.5066667,68.1975
nuda,,01,36.7272222,71.6116667
nud,,01,36.7272222,71.6116667
nukbist,,01,38.2333333,72.2333333
nul'vand,,01,38.2602778,70.5555556
nul'van,,01,38.2602778,70.5555556
nuranch,,02,38.7988889,70.2075
nurek,,02,38.3883333,69.325
nurisharkh,,02,37.4644444,69.3677778
nurundzh,,02,38.7988889,70.2075
nurung,,02,38.7988889,70.2075
nusratobod,,02,39.0077778,70.1555556
nusstatobad,,02,39.0077778,70.1555556
nyut,,01,36.7166667,71.6
obburdon,,03,40.4277778,69.3047222
obdzhuvoz,,03,39.8638889,68.9941667
obgo,,01,38.4833333,71.6166667
obiborik,,02,38.7958333,69.8502778
obi-dzhuk,,02,38.7666667,68.9
obi-dzhuk,,03,38.7758333,68.8308333
obigarm,10035,02,38.72,69.7094444
obi-garm,,03,38.9002778,68.8008333
obikiik,,02,38.1586111,68.6722222
obilurd,,02,38.9075,70.1380556
obimuki,,02,38.2,69.0255556
obinukra,,02,38.6705556,69.2872222
obinuqra,,02,38.6705556,69.2872222
obitera,,02,37.7552778,69.9494444
obkarchagay,,03,39.8333333,68.9625
oburdan,,03,39.4052778,69.0833333
oburdon,,03,39.4052778,69.0833333
ochamayli,,02,38.53,68.6791667
odesht,,01,38.4013889,71.5033333
odinaboy,,02,37.725,69.8491667
odysht,,01,38.4013889,71.5033333
odzhuk,,02,38.7666667,68.9
ogilaki-poyen,,03,39.4333333,67.95
ogilgaron,,01,38.6816667,70.6630556
ogilgoron,,01,38.6816667,70.6630556
ogolyak-payen,,03,39.4333333,67.95
oim,,02,38.5441667,68.3319444
okbulok,,02,38.2872222,69.6963889
okchakman,,02,38.5872222,68.9180556
okchinor,,02,37.7938889,69.5802778
okdzhar,,02,37.8447222,69.5616667
okhteryak,,02,38.3833333,70.0166667
okkuduk,,03,40.6833333,70.5833333
okkurgon,,02,38.5083333,68.7416667
okkutal',,03,39.3866667,67.6708333
okmazar,,02,37.6691667,69.6525
okmazor,,02,37.6691667,69.6525
oksukon,,03,40.5333333,70.4
oksu,,02,38.15,69.3
oktabr',,02,38.525,68.3333333
oktabrsk,,02,38.525,68.3333333
oktok,,02,38.5916667,68.8633333
oktosh,,02,38.2633333,69.9819444
oktyabr,,02,38.0763889,68.8366667
oktyabr'',,02,38.525,68.3333333
oktyabr',,03,39.95,70.5
oktyabr'sh,,02,37.765,68.8027778
oktyabrskiy,,02,37.3277778,68.7080556
oktyabr'skiy,,02,38.525,68.3333333
oktyabrsk,,02,37.765,68.8027778
olimtoy,,02,37.7777778,69.3855556
oliy-sovet,,02,38.4477778,68.8
oltintopkan,,03,40.645,69.5966667
omada,,02,38.55,68.35
oqbulok,,02,38.3483333,68.6586111
oqbuloq,,02,38.2697222,68.5430556
oq-jar,,01,37.7180556,73.1494444
oqjar,,02,37.8447222,69.5616667
oqmachit,,02,38.4752778,68.1775
oqmajid,,02,38.0561111,68.3541667
oqqurgon,,02,38.5083333,68.7416667
oqqutal,,03,39.3866667,67.6708333
oqsu,,02,38.15,69.3
ordhonikidzeabad,,02,38.5530556,69.0197222
ordzhonikidzeabad,,02,38.5530556,69.0197222
orjonikidzeabad,,02,38.5530556,69.0197222
orjonikidzeobod,,02,38.5530556,69.0197222
oroshar,,01,38.315,72.3211111
oroshor,,01,38.315,72.3211111
orzu,5988,02,37.6,68.8166667
oshoba,,03,40.7333333,70.4333333
osiob-dara,,02,39.1666667,70.7
osmanbika,,02,37.9983333,69.7602778
osman-buka,,02,37.9983333,69.7602778
ovchy,,03,39.5902778,69.0830556
ovul,,02,38.5722222,68.7244444
oy-barik,,03,38.75,68.4333333
oy-barin,,03,38.75,68.4333333
oybosh,,02,38.545,68.5375
oykamar,,02,38.0722222,68.6788889
ozodii shark,,02,38.0022222,68.8566667
ozodii zanon,,02,38.5108333,68.7094444
ozodi,,02,38.3441667,69.0688889
padkinov,,01,38.3947222,70.6691667
padrud,,01,38.005,71.7691667
padrud,,03,39.1666667,67.8333333
padrut,,03,39.1666667,67.8333333
padruz,,01,38.005,71.7691667
pagna,,03,39.3266667,68.0225
pagulya,,01,38.65,70.4166667
paimazar,,03,39.3216667,68.4611111
pakhrud,,03,39.3833333,68.7833333
pakhtaabad,,02,37.7091667,69.4961111
pakhta-bay,,02,38.4669444,68.1338889
pakhtaboy,,02,38.4166667,68.1416667
pakhtakoron,8220,03,40.1666667,68.75
pakhtakor,,02,37.3780556,68.6552778
pakhtakor,,03,40.075,69.4541667
pakhtaobod,,02,37.7091667,69.4961111
pakhurd,,03,39.3833333,68.7833333
palas,3288,03,40.3136111,69.7444444
paldarok,,03,39.4166667,69.9333333
paldorag,,03,40.4844444,69.3016667
pal'dorak,,03,39.4166667,69.9333333
paldorak,,03,40.4844444,69.3016667
pam-dara,,02,38.3,70.15
pamir post,,01,38.1688889,73.965
pamirski post,,01,38.1688889,73.965
pandzheriyen,,02,38.3641667,70.0880556
pandzhkho,,03,39.0555556,68.7719444
pandzhrud,,03,39.3533333,68.0552778
pangas,,03,40.75,70.25
pangaz,,03,40.75,70.25
pani,,03,39.15,67.85
panjakent,35089,03,39.5030556,67.615
panjariyon,,02,38.3641667,70.0880556
panji bolo,,02,37.3252778,68.6819444
panji poyon,,02,37.1952778,68.5786111
panjkent,,03,39.5030556,67.615
panj,,02,37.2383333,69.0969444
panjrud,,03,39.3533333,68.0552778
parchasay,,02,38.2333333,69.2
parchasoy,,02,38.2608333,69.0397222
parinishian,,01,37.75,72.1333333
parizhskaya-kommuna,,02,37.2591667,68.1188889
parkamchi,,02,38.1802778,69.3505556
parkamchy,,02,38.1802778,69.3505556
parkbar,,02,37.4922222,69.4016667
parkent,,03,39.9166667,68.7833333
parkhar,,02,37.4922222,69.4016667
parshed,,01,37.4,71.6166667
partizani surkh,,02,37.55,68.5833333
partizani-surkh,,02,38.4747222,68.7813889
parvar,,02,37.7333333,70.2166667
parzhir,,01,37.5,71.75
pasariq,,02,37.4552778,68.4938889
pasaryk,,02,37.4552778,68.4938889
pashchi,,03,39.8333333,68.85
pashimgarm,,01,38.8666667,71.4666667
pashimgar,,01,38.8666667,71.4666667
pashor,,02,38.7797222,70.2847222
pashum,,03,38.8783333,68.9233333
pasivaram,,02,38.4863889,69.7694444
paskitomchi,,02,38.5011111,68.9105556
pasnimgan,,01,38.8666667,71.4666667
pasor,,01,38.4077778,72.635
pasrud,,03,39.2255556,68.4422222
pass-aryk,,02,37.4552778,68.4938889
passor,,01,38.4077778,72.635
pastakon,,02,38.2922222,69.1288889
pastezak,,02,38.2333333,69.9333333
pastezas,,02,38.2333333,69.9333333
pastigov,,03,39.4144444,69.2258333
patar,,03,40.3333333,70.45
patkunob,,01,38.3947222,70.6691667
patna,,03,39.3266667,68.0225
patru,,03,38.6833333,68.4
pattalik,,02,38.3,68.85
pay-mazar,,01,38.6527778,71.9672222
pay-mazar,,03,39.3216667,68.4611111
paytok,,02,37.8025,69.6441667
pchandar,,03,38.8794444,68.9627778
pedrud,,01,38.005,71.7691667
peho,,02,38.4097222,69.3519444
pekho,,02,38.4097222,69.3519444
pendshikent,,03,39.5030556,67.615
pendzhakent,,03,39.5030556,67.615
pendzhikent,,03,39.5030556,67.615
penjikent,,03,39.5030556,67.615
pereselenstroy,,02,37.4625,68.6141667
pervomayskiy,,02,37.3344444,68.715
pervomaysk,,02,37.3411111,68.7522222
pervoye maya,,02,37.3344444,68.715
peshkadam,,02,37.3322222,69.0463889
peshqadam,,02,37.3322222,69.0463889
pete,,03,39.25,68.55
peteul,,02,37.3661111,68.6330556
peti,,03,39.25,68.55
petir,,03,39.1833333,69.15
pichandar,,03,38.8794444,68.9627778
pichandor,,03,38.8794444,68.9627778
pichef,,03,39.0430556,69.3847222
pil'doni-miyena,,03,39.1666667,71.0666667
pil'doni-poyen,,03,39.1666667,71.0666667
pingan,,02,37.7833333,69.55
(( pingon )),,02,37.7833333,69.55
pinion,,03,39.2272222,68.4947222
piniyen,,03,39.2272222,68.4947222
pin'yen,,03,39.2272222,68.4947222
pinyon,,03,39.2272222,68.4947222
pionerabad,,02,38.6877778,69.5530556
pionerobod,,02,38.6877778,69.5530556
pioner,,02,38.2961111,68.9280556
pionerskiy,,02,37.3438889,68.6644444
(( pionersk )),,02,37.2833333,68.7
pishanza,,03,39.2411111,68.6325
pish,,01,37.3833333,71.4833333
pishtovo,,02,38.6,69.9166667
piskon,,03,39.1666667,69.1833333
pisoda,,01,38.8166667,71.0833333
pistamazor,,02,37.7158333,69.8530556
pitaukul'-balkh,,03,39.3333333,71.3
pitau-kum-balkh,,03,39.3333333,71.3
pivion,,03,39.2272222,68.4947222
pobeda,,02,37.4202778,69.3530556
podak,,01,38.4666667,71.0166667
podayem,,02,37.9522222,69.1011111
poi-mazar,,01,38.6527778,71.9672222
poimazor,,01,38.6527778,71.9672222
poimazor,,03,39.3216667,68.4611111
pokhut,,03,39.3883333,68.8097222
poldorak,,03,40.4844444,69.3016667
polne,,01,38.4166667,72.65
pombachi,,02,38.8669444,69.9622222
popiz,,01,38.4016667,72.6794444
pormin,,03,39.1558333,68.5769444
porshev,,01,37.4,71.6166667
porshnev,,01,37.5825,71.5108333
poruk-tash,,03,38.7166667,68.4
poru,,02,38.6836111,69.6605556
porven,,03,39.3122222,68.045
porvin,,03,39.3122222,68.045
poselok nomer chetvertyy,,02,37.6666667,68.8333333
poshen,,03,38.8783333,68.9233333
poshkharv,,01,38.3975,71.1616667
poshma-kuna,,03,38.7797222,68.1927778
poshmikuna,,03,38.7797222,68.1927778
poshum,,03,38.8783333,68.9233333
postigau,,03,39.4144444,69.2258333
postigav,,03,39.4144444,69.2258333
post pamirskiy,,01,38.1688889,73.965
potau,,01,38.4652778,71.6016667
potav,,01,38.4652778,71.6016667
potov,,01,38.4652778,71.6016667
poy-mazar,,01,38.6527778,71.9672222
poymazor,,01,38.6527778,71.9672222
poymazor,,03,39.3216667,68.4611111
pravda,,02,38.5286111,68.8116667
predyvak,,03,40.2,70.5666667
priiski,,01,38.6030556,74.1552778
proletarsk,16441,03,40.1686111,69.5083333
pshambe,,03,38.8963889,68.9391667
pshikharv,,01,38.4013889,71.2272222
pshti-miona,,03,38.7,68.3666667
psoda,,01,38.8166667,71.0833333
ptup,,01,36.95,72.2333333
puchkok,,02,37.5327778,69.4672222
pugus,,03,38.8513889,68.8505556
puli-dangal',,01,38.5666667,71.7666667
punuk,,03,40.8666667,70.3666667
punyk,,03,40.8666667,70.3666667
purmen,,03,39.1558333,68.5769444
purud,,03,38.8833333,68.95
pushing,,02,38.1905556,69.4430556
pushin,,02,38.1905556,69.4430556
pushion miona,,02,38.0391667,69.7913889
pushion poyen,,02,38.0166667,69.7666667
pushiyen-miyena,,02,38.0391667,69.7913889
pushiyen poyen,,02,38.0166667,69.7666667
pushiyen,,02,38.0391667,69.7913889
pushiyon,,02,38.0391667,69.7913889
pushkin,,02,37.6786111,69.5755556
pushtimiona,,03,38.7,68.3666667
pushtimiyena,,03,38.7,68.3666667
pushtimiyona,,03,38.7,68.3666667
pushyon,,02,38.3555556,69.9483333
(( pustin-dara )),,02,37.15,67.8166667
putup,,01,36.95,72.2333333
pyandzh-khok,,03,39.0555556,68.7719444
pyandzh,,02,37.2383333,69.0969444
pyandzhsola,,02,37.885,69.7397222
qabodiyon,,02,37.4122222,68.1880556
qal'acha,,03,40.1263889,69.6711111
qala-i-khum,,01,38.4663889,70.7938889
qal'ai nav,,02,38.7019444,69.6427778
qal'aishody,,02,38.5627778,69.2122222
qamishogly,,02,37.4069444,69.1041667
qarabodon,,02,37.8530556,69.1211111
qarabolchik,,02,38.0988889,68.3872222
qarabuloq,,02,38.5375,69.1627778
qaramandy,,02,38.2944444,68.6972222
qarasu,,01,38.0088889,73.9347222
qarasu,,02,38.5097222,68.9363889
qaratog,,03,38.6188889,68.3352778
qaratosh,,02,38.3869444,69.2430556
qarokuz,,02,38.2747222,68.3775
qarotog,,03,38.6188889,68.3352778
qaynar,,02,37.8733333,69.6747222
qayragoch,,02,38.4705556,68.4236111
qayragoj,,02,37.7283333,69.6747222
qayraqqum,,03,40.2647222,69.7894444
qazanguzar,,02,37.9819444,69.0491667
qiblai,,02,38.6208333,68.8333333
qiblay,,02,38.0269444,69.5980556
qipchoq,,02,38.0302778,69.9316667
qipchoq,,03,38.6,68.2166667
qirkhizqishloq,,03,38.6719444,68.2275
qistaquz,,03,40.1986111,69.81
qit'a parts'ezd,,02,37.4069444,68.1363889
qit'a qizilobod,,02,37.3816667,68.1305556
qit'a yakumi may,,02,37.4991667,68.1422222
qitil rabat,,01,37.4694444,74.8086111
qizilbulok,,02,37.7727778,69.1616667
qizilguzar,,02,38.0672222,69.4069444
qizil qala,,02,37.1952778,68.5786111
qizil ribat,,01,37.4694444,74.8086111
qizily,,03,40.0638889,69.2175
qoshkarokha,,02,38.1727778,69.0141667
quchqorbulok,,02,37.7075,69.1588889
qudukli,,02,37.3080556,69.1108333
qukhnaboy,,02,38.4413889,68.5988889
qul'ai khusayn,,01,38.7266667,70.6416667
qulfisabad,,02,38.1572222,69.0055556
qulisufiyon,,02,38.2930556,69.4063889
qulobod,,02,38.6858333,69.5830556
qumsangir,,02,37.4666667,68.6444444
qurbantoybuloq poyon,,02,38.0316667,69.6563889
qurbonshahid,,02,37.7777778,69.5577778
qurghan tyube,,02,37.8363889,68.7802778
qurghonteppa,,02,37.8363889,68.7802778
qurkat,,03,40.1369444,69.2552778
quruqsoy,,03,40.5786111,69.3777778
qushteppa,,02,38.5338889,68.815
qyzylrabot,,01,37.4694444,74.8086111
rabat ak-tash,,01,37.6333333,74.8
rabat chatyr-tash,,01,37.85,73.65
rabat dzhilandy,,01,37.5761111,72.5927778
rabat dzhilyandy,,01,37.5761111,72.5927778
rabat,,01,37.3563889,72.3075
rabat,,03,38.6216667,68.1833333
rabat sasok-kul',,01,37.6786111,73.1958333
rabat sassyk-kul',,01,37.6786111,73.1958333
rabotakbaytal,,01,38.4961111,73.8638889
rabot,,01,38.5605556,70.7863889
rabot,,03,38.6216667,68.1833333
rachiv,,01,37.2186111,72.7894444
(( rafak )),,02,37.7333333,69.8833333
ragun,,02,38.7811111,69.8719444
ragunskiy,,02,38.6191667,68.7769444
rakhmanberdy,,02,37.9369444,69.7422222
ramaif,,01,38.0666667,72.7666667
ramanit,,01,36.75,71.9166667
ramid,,02,38.7277778,69.31
ramit,,02,38.7277778,69.31
rang kuk,,01,38.4811111,74.3788889
rangkul,,01,38.4811111,74.3788889
rangok,,02,38.3733333,68.8427778
rangon,,02,38.3733333,68.8427778
rang,,01,36.7166667,71.6166667
rarz,,03,39.3802778,68.7441667
rash,,03,39.5333333,67.7
rasraut,,03,39.6166667,69.3
raumid,,01,37.9833333,71.9833333
raun,,01,38.3,72.55
rau,,01,38.4333333,71.5666667
ravadik,,03,39.3,67.8666667
ravat,,03,39.1769444,68.5738889
ravgada,,01,38.5311111,71.7216667
ravmed,,01,37.9833333,71.9833333
ravmid,,01,37.9833333,71.9833333
ravshani,,02,38.9080556,69.8786111
razak,,01,37.7219444,72.2641667
razuch,,01,38.1513889,71.9463889
razudzh,,01,38.1513889,71.9463889
razvaliny kaurakli,,02,37.9902778,69.3227778
redzhau,,02,37.7166667,70.25
regar,,02,38.5041667,68.235
regar,,03,38.5108333,68.2302778
regor,,02,38.5041667,68.235
reki,,03,38.75,68.45
rekki,,03,38.75,68.45
remon,,03,39.2280556,68.6630556
revad,,03,39.3852778,68.1958333
ribat,,01,37.6333333,74.8
rid-devlekh,,01,37.9,71.75
rid,,01,37.9833333,71.7333333
rishgirakh,,02,38.4980556,69.2711111
rivak,,01,37.6333333,71.7833333
rivat,,03,39.3852778,68.1958333
robat,,03,40.5666667,70.3666667
roch,,03,39.5333333,67.7
roga,,01,38.85,71.3166667
roghun,,02,38.7811111,69.8719444
rogich,,03,39.1486111,67.7405556
rogish,,03,39.1486111,67.7405556
rog,,01,38.2166667,71.2666667
rog,,03,39.4333333,70.0166667
rogun,7732,02,38.7811111,69.8719444
rohi lenin,,02,37.4936111,68.6561111
roj,,03,39.5333333,67.7
rokharv,,01,38.025,71.3336111
rokhati,,02,38.6019444,68.9275
rokhaty,,02,38.6019444,68.9275
rokhi-lenin,,02,37.4936111,68.6561111
rokhi sotsializm,,02,37.95,68.8333333
romanit,,01,36.75,71.9166667
romid,,02,38.7277778,69.31
romit,,02,38.7277778,69.31
romon,,03,39.2280556,68.6630556
roshorv,,01,38.315,72.3211111
rosht-kala,,01,37.2666667,71.8166667
rousharv,,01,38.025,71.3336111
rovadik,,03,39.3,67.8666667
rovand,,01,38.5933333,71.8466667
roviv,,01,38.0627778,71.8891667
rozien,,02,38.27,69.2622222
rubat,,01,37.3563889,72.3075
rubot,,01,37.3563889,72.3075
rudaki,,02,38.1333333,68.9583333
rufigar,,03,39.1425,69.4197222
rugund,,03,39.9722222,68.9686111
ruidash,,02,38.5922222,70.3338889
ruidasht,,02,38.5922222,70.3338889
ruiob-sandora,,02,38.3830556,70.13
rukhch,,01,38.3569444,72.495
rushan,,01,37.9441667,71.5575
rustakov,,02,38.4,68.8833333
ruykash bolo,,02,38.0333333,70.2333333
ruziobnak,,03,39.4775,68.0447222
ruzvay,,01,38.4525,70.8336111
sabakh,,03,39.4641667,69.8119444
sabak,,03,39.4641667,69.8119444
sabzikharv,,01,38.8025,70.7019444
sabzikor,,02,38.5319444,68.8541667
sadbaregokh,,02,38.1588889,70.0055556
sadbargo,,02,37.6752778,69.6080556
sa'dii sherozy,,02,38.0916667,68.8575
sadvadg,,01,38.4986111,71.6491667
sadvad,,01,38.4986111,71.6491667
sady-shirazy,,02,38.0916667,68.8575
sadyvar,,01,38.4986111,71.6491667
safarmat,,02,37.5655556,69.3694444
safeddara,,02,38.4636111,69.4286111
safeddaro,,02,38.4636111,69.4286111
safeddori-bolo,,02,37.8611111,70.1133333
safedoron,,01,38.6752778,70.7291667
safed-sang,,02,37.65,70.25
safedshakhrak,,02,38.2794444,69.9125
safet-sang-bolo,,01,38.7166667,70.7666667
safidao-bolo,,02,37.8611111,70.1133333
safid-dara,,02,38.6666667,69.2333333
sagirdasht,,01,38.6366667,70.6633333
sakhibnazar,,03,39.5166667,67.4666667
sakhron,,03,38.5858333,68.3388889
saksanasur,,02,37.6386111,69.4447222
saksanokhor,,02,37.5427778,69.3841667
sak-sion,,03,39.8775,68.96
saksiyon,,03,39.8775,68.96
sal'ga,,02,37.2130556,69.1711111
saltik,,02,37.5666667,68.1333333
samanchi,,02,37.6502778,69.4183333
samgar,,03,40.3333333,69.8666667
samonchy,,02,37.6502778,69.4183333
sandiv,,01,37.1666667,71.95
sangak-chashma,,02,37.7827778,69.9161111
sangdarai ubara,,02,38.0202778,69.9688889
sangdara,,02,37.9977778,69.9730556
sangdora,,02,37.9977778,69.9730556
sangdoray-ubara,,02,38.0202778,69.9688889
sangevnidaroz,,01,38.4211111,70.7055556
sangevn,,01,38.2766667,70.5813889
sangev,,01,38.2766667,70.5813889
sangichou,,03,38.6,68.4
sangistan,,03,39.3986111,68.5908333
sangiston,,03,39.3986111,68.5908333
"sangiugul""",,02,38.1438889,69.9069444
sang-milya,,03,38.6216667,68.4030556
sangoba,,02,37.2338889,67.9841667
sangonegel',,02,37.9666667,70.2166667
sangova,,02,37.2338889,67.9841667
sangovy,,01,38.2766667,70.5813889
sangpar,,02,38.485,69.0983333
sangtuda,,02,38.0388889,69.0788889
sangvor,,01,38.7775,71.2197222
santo,,03,40.2,70.4666667
san-tuda,,02,38.5363889,68.8825
sanzhitaki,,02,38.2833333,68.4833333
sarai-kamar,,02,37.2383333,69.0969444
sarai,,02,37.2383333,69.0969444
sara-kamysh,,02,38.4422222,68.4
sarangul',,02,38.1438889,69.9069444
saray-kamar,,02,37.2383333,69.0969444
saray komar,,02,37.2383333,69.0969444
sarez,,01,38.1255556,72.2
sargay,,03,39.4011111,71.6902778
sargazoni bolo,,02,38.0683333,69.2688889
sargazon,,02,38.06,69.2869444
sarhad,,02,37.4022222,69.3583333
sarichashma,,02,37.755,69.8419444
sarichinori-bolo,,02,38.5933333,68.9880556
sarichinor,,02,38.5633333,69.3213889
saridasht,,01,38.6733333,70.5055556
