names,population,state_code,lat,lon
ababuj,,52,40.55,-0.8
abad,,58,43.5833333,-8.0
abadengo de torio,,55,42.7166667,-5.5166667
abades,,55,40.9166667,-4.2666667
abades,,58,41.9,-7.7833333
abadia,,57,40.25,-5.9666667
abadiano,,59,43.15,-2.6
abadiano celayeta,,59,43.15,-2.6
abadilla,,39,43.3166667,-3.85
abadin,,58,43.3666667,-7.4833333
abaigar,,32,42.65,-2.1833333
abaira,,58,43.45,-7.15
abajas,,55,42.6166667,-3.5833333
abajo,,34,43.3833333,-5.6166667
abalcisqueta,,59,43.05,-2.1
aballe,,34,43.3333333,-5.1333333
abalo,,58,42.65,-8.7166667
abalos,,27,42.5666667,-2.7
abamia,,34,43.3333333,-5.05
abanades,,54,40.9,-2.4833333
abancena,,34,43.15,-6.6166667
abanco,,55,41.3833333,-2.95
abandames,,34,43.3333333,-4.6
abandiano celayeta,,59,43.15,-2.6
abango,,34,43.25,-6.3333333
abaniella,,34,43.2166667,-6.6166667
abanilla,,31,38.2,-1.05
abanillas,,39,43.35,-4.4666667
abano,,39,43.3666667,-4.3833333
abanqueiro,,58,42.65,-8.8833333
abanto,,52,41.1333333,-1.7
abantro,,34,43.2,-5.3833333
abaran,13850,31,38.2,-1.4
abarca,,55,42.0666667,-4.8333333
abarzuza,,32,42.7166667,-2.0166667
abastas,,55,42.2333333,-4.7833333
abastillas,,55,42.25,-4.8
abaurrea alta,,32,42.9,-1.2
abaurrea baja,,32,42.9166667,-1.2166667
abavides,,58,42.05,-7.65
abay,,52,42.5833333,-0.6
abayu,,34,43.5,-5.45
abdera,,51,36.7333333,-3.0166667
abdet,,60,38.7,-0.25
abeancos,,58,42.9333333,-7.9833333
abechuco,,59,42.8833333,-2.6833333
abecia,,59,42.95,-2.9166667
abedes,,58,41.9333333,-7.4
abedul,,34,43.2166667,-6.3166667
abedules,,34,43.5333333,-5.4833333
abegondo,,58,43.2166667,-8.2833333
abeijon,,58,42.75,-8.9
abejar,,55,41.8,-2.7833333
abejera,,55,41.8,-6.1333333
abejuela,,51,37.5166667,-1.9
abejuela,,52,39.9166667,-0.8833333
abejuela,,54,38.3666667,-2.0333333
abeleda,,58,42.1666667,-7.7
abeledo,,58,43.3166667,-7.4666667
abeledos,,58,42.3166667,-7.4833333
abeleiras,,58,42.9666667,-9.0333333
abelenda,,58,42.35,-8.1833333
abelendo,,58,42.0166667,-7.8666667
abelgas,,55,42.8,-5.9833333
abella,,56,42.3166667,2.3166667
abella,,58,43.0833333,-8.3166667
abella de la conca,,56,42.1666667,1.1
abellas,,58,43.0333333,-8.9333333
abelleira,,58,42.8,-9.0333333
abelon,,55,41.45,-6.05
abena,,52,42.5,-0.4333333
abendiego,,52,40.8166667,-0.2666667
abenfigo,,52,40.8166667,-0.2666667
abengibre,,54,39.2166667,-1.5333333
abenilla,,52,42.4333333,-0.3166667
abenojar,,54,38.8833333,-4.35
abenuj,,54,38.6,-1.7333333
abeo,,34,43.4666667,-5.1
aberasturi,,59,42.8333333,-2.5833333
aberin,,32,42.6166667,-2.0
abertura,,57,39.25,-5.8166667
abesedo,,55,42.5333333,-6.45
abezames,,55,41.6333333,-5.4166667
abi,,52,42.4666667,0.4333333
abiada,,39,43.0166667,-4.2833333
abia de la obispalia,,54,40.0166667,-2.4
abia de las torres,,55,42.4166667,-4.4166667
abiego,,52,42.1166667,-0.0666667
abiegos,,34,43.2,-5.1833333
abinzano,,32,42.6666667,-1.45
abio,,60,38.55,-0.4333333
abion,,55,41.5666667,-2.2333333
abioncillo,,55,41.7,-2.8666667
abionzo,,39,43.25,-3.8
abizanda,,52,42.25,0.2
abla,,51,37.1333333,-2.7833333
ablana,,34,43.2666667,-5.8166667
ablana de abajo,,34,43.2666667,-5.8166667
ablana de arriba,,34,43.2666667,-5.8
ablaneda,,34,43.2666667,-6.55
ablanedo,,34,43.4166667,-6.3333333
ablanque,,54,40.9,-2.2166667
ables,,34,43.4333333,-5.85
ablitas,,32,41.9666667,-1.6333333
abono,,34,43.5666667,-5.7166667
abornicano,,59,42.9333333,-2.8833333
aboy,,58,43.05,-9.2333333
abragan,,58,42.8833333,-7.4166667
abraido,,34,43.3833333,-7.0666667
abrairas,,58,43.0833333,-7.2833333
abraveses de tera,,55,41.9833333,-5.8833333
abrente,,58,42.9833333,-7.0
abrera,,56,41.5166667,1.9
abres,,34,43.4333333,-7.0833333
abrigos,,53,28.0166667,-16.5833333
abriojal,,51,36.95,-2.4666667
abrucena,,51,37.1333333,-2.8
abrucinos,,58,42.4,-7.9333333
abrueinos,,58,42.4,-7.9333333
abuime,,58,42.6,-7.6166667
abusejo,,55,40.7166667,-6.1333333
abuzaderas,,54,38.75,-1.7833333
acala del rio,,51,37.5166667,-5.9833333
acardece,,53,28.1333333,-17.3
acebal,,34,43.2166667,-5.5333333
acebeda,,58,42.3333333,-7.05
acebedo,,34,43.3833333,-6.0833333
acebedo,,55,43.0333333,-5.1166667
acebedo,,58,42.9166667,-6.9666667
acebedo,,59,42.9,-3.15
acebeiro,,58,42.6166667,-8.3
acebeiros,,58,42.8,-7.25
acebes,,55,42.45,-5.8333333
acebes del paramo,,55,42.45,-5.8333333
acebo,,57,40.2,-6.7166667
acebo,,58,43.25,-7.1833333
aceboso,,58,42.3,-7.25
acebro,,58,43.3666667,-7.2166667
acebuchal,,51,36.8166667,-3.95
acebuchal,,57,38.65,-6.4833333
acebuche,,54,38.8166667,-2.0333333
acebuches,,51,37.8833333,-6.8
aceca,,54,39.95,-3.85
acedera,,57,39.0666667,-5.5666667
acedillo,,55,42.5666667,-3.8666667
acedo de los caballeros,,34,43.0833333,-5.8166667
acedre,,58,42.45,-7.6333333
acehuche,,57,39.8,-6.6333333
aceituna,,57,40.15,-6.3333333
acellana,,34,43.4,-6.2666667
acenchal,,57,38.65,-6.4833333
acequias,,51,36.9666667,-3.5333333
acera de la vega,,55,42.6166667,-4.8166667
acereda,,39,43.2333333,-3.9333333
acered,,52,41.0166667,-1.6
aces,,34,43.4333333,-6.0666667
aceuchal,,57,38.65,-6.4833333
aceveda,,58,42.3333333,-7.05
acevedo,,34,43.5166667,-6.9
achas,,58,42.2,-8.3
acibeiros,,55,42.0333333,-6.8666667
aciberos,,55,42.0333333,-6.8666667
acibo,,58,42.7,-7.05
aciera,,34,43.2166667,-6.0
acilu,,59,42.8333333,-2.4666667
acin,,52,42.6333333,-0.4666667
acoba,,58,42.5666667,-7.6666667
acojeja,,53,28.1833333,-16.75
acorda,,59,43.35,-2.6
a coruna,236010,58,43.3666667,-8.3833333
acosta,,59,42.9666667,-2.7
acova,,58,42.5666667,-7.6666667
acrijos,,55,42.05,-2.1666667
acula,,51,37.0833333,-3.8
acumuer,,52,42.6333333,-0.4166667
acuncheira,,58,42.6833333,-8.9
acusa,,53,28.0,-15.6833333
ada,,58,42.6666667,-7.8333333
adahuesca,,52,42.15,-0.0166667
adal,,39,43.4,-3.4666667
adalia,,55,41.65,-5.1166667
adamuz,,51,38.0333333,-4.5166667
adana,,59,42.8166667,-2.4666667
adanero,,55,40.9333333,-4.6
aday,,58,42.8333333,-7.55
adeje,22245,53,28.1166667,-16.7166667
adelan,,58,43.5166667,-7.4
adelantado,,53,28.4833333,-16.3833333
adelfar,,51,38.1833333,-3.6666667
ademuz,,60,40.0666667,-1.2833333
adigna,,58,42.4,-8.8333333
adino,,39,43.35,-3.3333333
adios,,32,42.6833333,-1.7333333
adoain,,32,42.8,-1.1666667
adobes,,54,40.6833333,-1.6833333
ador,,60,38.9166667,-0.2166667
adra,23988,51,36.7333333,-3.0166667
adrada de haza,,55,41.6,-3.8166667
adrada de piron,,55,41.05,-4.05
adradas,,55,41.35,-2.4666667
adrado,,34,43.4333333,-6.4666667
adrados,,55,41.3666667,-4.1
adragonte,,58,43.2833333,-8.1333333
adrales,,34,43.1666667,-6.5666667
adrall,,56,42.3166667,1.4
adrano,,58,42.8833333,-9.0666667
adranos,,58,42.8833333,-9.0666667
adri,,56,42.05,2.75
adsubia,,60,38.85,-0.15
aduanas,,60,38.8,0.1833333
aduna,,59,43.2666667,-2.05
adzaneta,,60,40.2166667,-0.1666667
adzaneta de albaida,,60,38.8333333,-0.5
ael,,55,42.8833333,-3.3666667
aes,,39,43.2833333,-3.95
aeta,,59,43.0666667,-2.3
afur,,53,28.55,-16.25
agaete,,53,28.1166667,-15.7
agallas,,55,40.45,-6.4333333
agar,,58,43.0333333,-9.15
agarre,,59,43.2333333,-2.75
agell,,56,41.5333333,2.4
ager,,56,42.0,0.7666667
ages,,55,42.3666667,-3.4833333
agon,,52,41.85,-1.45
agoncillo,,27,42.45,-2.2833333
agones,,34,43.5,-6.1166667
agorreta,,32,42.95,-1.4833333
agost,,60,38.4333333,-0.6333333
agra,,58,42.85,-8.0833333
agrade,,58,42.5833333,-7.85
agramon,,54,38.4166667,-1.6333333
agramunt,,56,41.7833333,1.1
agranzon,,58,43.0666667,-9.1333333
agreda,,55,41.85,-1.9333333
agrela,,58,42.8166667,-8.8833333
agrelo,,58,42.8166667,-8.8833333
agres,,60,38.7833333,-0.5166667
agrodosio,,58,43.05,-9.15
agron,,51,37.0333333,-3.8333333
agron,,58,42.8833333,-8.7
agua amarga,,51,36.9333333,-1.9333333
agua armaga,,51,36.9333333,-1.9333333
agua bueyes,,53,28.3666667,-14.0166667
aguada,,58,42.5166667,-7.8666667
agua de bueyes,,53,28.3666667,-14.0166667
agua de fontanales,,53,28.05,-15.6
agua del pilar,,57,38.3833333,-6.0
aguaderico de rubio,,51,37.5833333,-2.4333333
aguadulce,,51,36.8166667,-2.5666667
aguadux,,51,37.7333333,-3.3166667
aguafria,,51,37.8833333,-6.7333333
agua-garcia,,53,28.45,-16.4166667
aguajosa,,58,43.4,-7.2333333
agualada,,58,43.1666667,-8.8
aguamansa,,53,28.35,-16.4833333
aguamaroza,,34,43.35,-6.7333333
aguarda,,58,43.2833333,-7.3
aguaron,,52,41.35,-1.2666667
aguasal,,55,41.2666667,-4.65
aguasantas,,58,42.2333333,-7.7833333
aguascaldas,,52,42.4166667,0.45
aguas candidas,,55,42.7166667,-3.5
aguas de busot,,60,38.5,-0.35
aguasmestas,,58,42.45,-7.35
aguas santas,,58,42.2333333,-7.7833333
aguatona,,53,27.9333333,-15.4166667
aguaton,,52,40.6666667,-1.2333333
aguaviva,,52,40.8166667,-0.1833333
aguaviva,,55,41.3,-2.3833333
aguaviva de la vega,,55,41.3,-2.3833333
aguaza,,54,38.8166667,-1.4333333
aguda,,34,43.4666667,-5.7333333
agudas,,31,37.4,-1.5833333
agudelo,,58,42.5333333,-8.65
agudo,,54,38.9833333,-4.8666667
aguela,,58,42.7333333,-7.8833333
aguera,,34,43.2166667,-6.25
aguera,,55,43.1,-3.45
aguera de carriles,,34,43.25,-6.5
aguera de castanedo,,34,43.1,-6.5833333
aguera del coto,,34,43.1166667,-6.6333333
agueras,,34,43.2,-6.0
agueria,,34,43.1666667,-5.7333333
aguerina,,34,43.2166667,-6.25
aguero,,34,43.45,-5.95
aguero,,39,43.4166667,-3.7166667
aguero,,52,42.35,-0.8
agues,,34,43.2,-5.45
aguiar,,58,43.0833333,-7.5333333
aguilafuente,,55,41.2166667,-4.1
aguilar,,27,41.95,-2.0
aguilar,,34,43.2833333,-5.8
aguilar,,51,37.5166667,-4.65
aguilar,,52,40.5833333,-0.7833333
aguilar de alfambra,,52,40.5833333,-0.7833333
aguilar de anguita,,54,41.0333333,-2.4
aguilar de bureba,,55,42.5833333,-3.3333333
aguilar de campoo,,55,42.8,-4.2666667
aguilar de campos,,55,41.9833333,-5.1833333
aguilar de codes,,32,42.6166667,-2.3833333
aguilar de compoa,,55,42.8,-4.2666667
aguilar de ebro,,52,41.5166667,-0.5666667
aguilar de la frontera,13557,51,37.5166667,-4.65
aguilar del alfambra,,52,40.5833333,-0.7833333
aguilar del rio alhama,,27,41.95,-2.0
aguilar de montuenga,,55,41.2166667,-2.2333333
aguilar de rio alhama,,27,41.95,-2.0
aguilar de segarra,,56,41.75,1.6333333
aguilar de tera,,55,41.9833333,-5.8333333
aguilarejo,,55,41.75,-4.6166667
aguilas,30739,31,37.4,-1.5833333
aguilera,,55,41.4833333,-2.8833333
aguillo,,55,42.7333333,-2.6333333
aguilo,,56,41.55,1.4166667
aguilon,,52,41.3,-1.05
aguimes,21908,53,27.9,-15.45
aguinaga,,59,43.1333333,-2.3166667
aguinaliu,,52,42.1,0.35
aguino,,34,43.1,-6.2666667
aguiones,,58,42.7,-8.4666667
aguiro,,56,42.4,0.95
aguis,,34,43.2,-5.45
aguis,,58,41.9833333,-7.7666667
agullana,,56,42.4,2.85
agullent,,60,38.8166667,-0.5333333
agulo,,53,28.1833333,-17.1833333
agustin,,58,42.95,-7.3166667
agustinos,,51,37.2166667,-3.3333333
ahedo,,39,43.3333333,-3.3833333
ahedo,,55,42.0,-3.35
ahedo,,59,43.2333333,-3.35
ahigal,,57,40.1833333,-6.1833333
ahigal de los aceiteros,,55,40.8666667,-6.7333333
ahigal de villarino,,55,41.15,-6.3666667
ahillas,,60,39.8166667,-0.9666667
ahillones,,57,38.2666667,-5.85
ahin,,60,39.9,-0.3333333
aibar,,32,42.6,-1.35
aigas,,58,42.9666667,-6.9166667
aiguafreda,,56,41.7666667,2.25
aiguamurcia,,56,41.3333333,1.3666667
aiguavella,,56,42.4333333,1.0
aiguaviva,,56,41.9333333,2.7666667
ailanes,,55,42.8666667,-3.7333333
aincialde de arizcun,,32,43.1666667,-1.4833333
aincioa,,32,42.9166667,-1.4166667
ainelle,,52,42.5833333,-0.2333333
aineto,,52,42.3833333,-0.1833333
ainielle,,52,42.5833333,-0.2333333
ainsa,,52,42.4,0.15
ainzon,,52,41.8166667,-1.5166667
airoa,,58,42.8,-6.9833333
aisa,,52,42.6833333,-0.6166667
aitona,,56,41.4833333,0.4666667
aitzarte,,59,43.0166667,-2.1666667
aitze,,59,43.2666667,-2.1666667
aizarna,,59,43.2333333,-2.2166667
aizarnazabal,,59,43.2666667,-2.2333333
aizaroz,,32,43.0166667,-1.7833333
aizoain,,32,42.85,-1.6333333
aizpe-goicoechea,,59,43.0166667,-2.3
aizpun,,32,42.8333333,-1.8666667
aizpurucho,,59,43.15,-2.35
aja,,39,43.2,-3.5166667
aja,,56,42.4166667,1.95
ajalvir,,29,40.5333333,-3.4833333
ajamil,,27,42.1666667,-2.4833333
ajanedo,,39,43.2666667,-3.7
ajarte,,55,42.75,-2.6333333
ajo,,39,43.4833333,-3.6166667
ajofrin,,54,39.75,-3.9833333
ajurias,,59,43.25,-2.65
alacano,,59,43.2166667,-2.7
alacon,,52,41.0166667,-0.6833333
alacuas,,60,39.45,-0.45
aladren,,52,41.25,-1.15
alaejos,,55,41.3166667,-5.2166667
alagoa,,58,42.5333333,-8.5333333
alagon,,52,41.7666667,-1.1166667
alagueces,,31,37.8333333,-1.7166667
alais,,58,42.4,-7.4166667
alaiza,,59,42.8166667,-2.4166667
alaizo,,59,42.8166667,-2.4166667
alajar,,51,37.8666667,-6.65
alaje,,58,43.45,-7.2666667
alajero,,53,28.05,-17.2333333
alalo,,55,41.3666667,-2.9
alalpardo,,29,40.6333333,-3.4666667
alameda,,51,37.2,-4.65
alameda,,55,41.2666667,-3.65
alameda de la sagra,,54,40.0166667,-3.8
alameda del obispo,,51,37.85,-4.8
alameda del valle,,29,40.9166667,-3.8333333
alameda de osuna,,29,40.45,-3.5833333
alameda vieja,,55,40.6,-6.5166667
alamedilla,,51,37.5833333,-3.2333333
alamedilla del berrocal,,55,40.7166667,-4.7666667
alamillo,,54,38.6833333,-4.7833333
alaminos,,54,40.8666667,-2.7333333
alamo,,51,37.6333333,-6.4333333
alange,,57,38.7833333,-6.25
alanis,,51,38.0333333,-5.7166667
alaraz,,55,40.75,-5.2833333
alarba,,52,41.2,-1.6166667
alarcia,,55,42.3,-3.3
alarcon,,54,39.55,-2.0833333
alar del rey,,55,42.6666667,-4.3
alarilla,,54,40.85,-3.1
alaro,,07,39.7,2.7833333
alas,,56,42.35,1.5166667
alastruey,,52,42.5166667,-0.75
alastuey,,52,42.5166667,-0.75
alatoz,,54,39.1,-1.35
alava,,34,43.3666667,-6.2
alayor,,07,39.9333333,4.1333333
alba,,52,40.6166667,-1.35
alba,,55,42.3666667,-3.3166667
alba,,58,42.4666667,-8.6333333
albacastro,,55,42.6833333,-4.1833333
albacete,155083,54,38.9833333,-1.85
albadalejo,,51,36.6833333,-6.0833333
albadalejo,,54,38.6166667,-2.8
alba de cerrato,,55,41.8166667,-4.3666667
alba de los cardanos,,55,42.9166667,-4.7166667
alba de tormes,,55,40.8166667,-5.5166667
alba de yeltes,,55,40.6666667,-6.3166667
albages,,56,41.45,0.75
albaida,,51,37.9166667,-4.0166667
albaida,,60,38.85,-0.5166667
albaida del aljarafe,,51,37.4333333,-6.1666667
albaina,,55,42.6833333,-2.6333333
albaizin,,51,37.2,-3.6
albala,,57,39.25,-6.1833333
albaladejito,,54,40.1,-2.1666667
albaladejo,,51,36.6833333,-6.0833333
albaladejo,,54,38.6166667,-2.8
albaladejo del cuende,,54,39.8,-2.2166667
albal,13507,60,39.4,-0.4166667
albalat,,60,39.7,-0.3333333
albalat de la ribera,,60,39.2,-0.3833333
albalat dels sorells,,60,39.5333333,-0.35
albalat dels taronchers,,60,39.7,-0.3333333
albalat de segart,,60,39.7,-0.3333333
albalat de taronchers,,60,39.7,-0.3333333
albalate,,54,40.3666667,-2.2666667
albalate de cinca,,52,41.7166667,0.15
albalate del arzobispo,,52,41.1166667,-0.5166667
albalate de las nogueras,,54,40.3666667,-2.2666667
albalate de zorita,,54,40.3,-2.8333333
albalatillo,,52,41.7333333,-0.15
albana,,56,42.3,2.7333333
alban,,58,42.75,-7.4333333
albanchez,,51,37.2833333,-2.1833333
albanchez de ubeda,,51,37.7833333,-3.4666667
albandi,,34,43.5666667,-5.75
albanilla,,31,38.2,-1.05
albaran,,31,38.2,-1.4
albarca,,56,41.3,0.9166667
albaredo,,58,42.9833333,-7.1833333
albaredos,,55,42.5833333,-7.0333333
albaredos,,58,42.4,-7.1666667
albarellos,,58,41.95,-7.4833333
albares,,54,40.3,-3.0
albares,,55,42.6,-6.3666667
albares de la ribera,,55,42.6,-6.3666667
albariza,,58,42.8,-8.8666667
albarracin,,52,40.4,-1.45
albarreal de tajo,,54,39.9,-4.2166667
albarrellos,,58,41.95,-7.4833333
albatana,,54,38.5666667,-1.5166667
albatarrech,,56,41.5666667,0.6
albatera,,60,38.1833333,-0.8666667
albeiros,,58,43.0333333,-7.55
albelda,,52,41.8666667,0.4666667
albelda de iregua,,27,42.3666667,-2.4666667
albella,,52,42.4666667,-0.0333333
albendea,,54,40.4833333,-2.4166667
albendiego,,54,41.2333333,-3.05
albendin,,51,37.6666667,-4.25
albeniz,,59,42.8833333,-2.3
albenzaire,,51,37.2,-3.9
albeos,,58,42.1333333,-8.25
alberca,,55,40.4833333,-6.1
albergueria,,58,42.1166667,-7.55
albergueria de herguijuela,,55,40.6,-5.8666667
albergues el rincon,,51,37.25,-7.05
albergues la mogaya,,51,37.3166667,-7.0833333
albergues pasada de los bayos,,51,37.3166667,-7.1166667
albergues pasada del palo,,51,37.3666667,-7.1333333
albergues tariquejo,,51,37.3166667,-7.1666667
alberique,,60,39.1166667,-0.5166667
alberite,,27,42.4,-2.45
alberite,,51,36.8166667,-5.6333333
alberite de san juan,,52,41.8166667,-1.4666667
albero alto,,52,42.05,-0.3333333
albero bajo,,52,42.0166667,-0.3833333
alberqueria,,58,42.3,-7.0333333
alberuela de la liana,,52,42.1666667,-0.0333333
alberuela de la liena,,52,42.1666667,-0.0333333
alberuela de tubo,,52,41.9,-0.2
albesa,,56,41.75,0.6666667
albeta,,52,41.8333333,-1.5
albi,,56,41.4166667,0.9333333
albiasu,,32,43.0,-1.9333333
albijoy,,58,43.0833333,-8.2
albillos,,55,42.2666667,-3.7833333
albinana,,56,41.25,1.4833333
albiol,,56,41.25,1.1
albir,,60,38.5833333,-0.0666667
albires,,55,42.25,-5.2666667
albite,,58,42.9333333,-8.8833333
albiz,,59,43.25,-2.6333333
albiztur,,59,43.1333333,-2.1333333
alblanedo,,34,43.5,-6.5166667
albocabe,,55,41.65,-2.2166667
albocacer,,60,40.35,0.0333333
albojarico,,54,38.5833333,-1.6333333
albolleque,,54,40.5666667,-3.2
alboloduy,,51,37.0333333,-2.6166667
albolote,14355,51,37.2333333,-3.65
albondon,,51,36.8333333,-3.2166667
alboniga,,59,43.4,-2.7333333
albons,,56,42.1,3.0833333
alborache,,60,39.3833333,-0.7666667
alborajico,,54,38.5833333,-1.6333333
alboraya,19431,60,39.5,-0.35
alborea,,54,39.2833333,-1.3833333
alboreca,,54,41.1333333,-2.6
alboreda,,58,42.6166667,-9.0333333
albores,,58,42.9833333,-8.95
alborge,,52,41.3333333,-0.35
albornos,,55,40.8333333,-4.8833333
albos,,58,42.1333333,-8.0
albox,10688,51,37.3833333,-2.1333333
alboy,,60,38.9666667,-0.4833333
albudeite,,31,38.0333333,-1.3833333
albuera,,57,38.7166667,-6.8166667
albuerne,,34,43.5666667,-6.2666667
albuixech,,60,39.55,-0.3166667
albujon,,31,37.7166667,-1.05
albunan,,51,37.2166667,-3.1333333
albunol,,51,36.7833333,-3.2
albunuelas,,51,36.9166667,-3.6333333
alburquerque,,57,39.2166667,-7.0
alcabon,,54,40.0,-4.3666667
alcabre,,58,42.2166667,-8.7666667
alcacer,,60,39.3666667,-0.4333333
alcadina,,54,38.55,-2.0333333
alcadozo,,54,38.6333333,-1.9833333
alcahozo,,54,39.4166667,-1.6333333
alcaide,,51,37.8,-2.05
alcaiden,,55,42.3333333,-5.8833333
alcaidon,,55,42.3333333,-5.8833333
alcaine,,52,40.95,-0.7
alcala,,51,37.5166667,-5.9833333
alcala,,53,28.1833333,-16.8166667
alcala,,60,40.3,0.2333333
alcala de chisvert,,60,40.3,0.2333333
alcala de chivert,,60,40.3,0.2333333
alcala de ebro,,52,41.8166667,-1.1833333
alcala de guadaira,58934,51,37.3333333,-5.8333333
alcala de gurrea,,52,42.0666667,-0.6833333
alcala de henares,195152,29,40.4833333,-3.3666667
alcala de jucar,,54,39.2,-1.4333333
alcala de la jovada,,60,38.7833333,-0.25
alcala de la selva,,52,40.3666667,-0.7
alcala de la vega,,54,40.0333333,-1.5166667
alcala del jucar,,54,39.2,-1.4333333
alcala del obispo,,52,42.0833333,-0.2833333
alcala de los gazules,,51,36.4666667,-5.7333333
alcala del valle,,51,36.9,-5.1666667
alcala de moncayo,,52,41.7833333,-1.7
alcala la real,21377,51,37.4666667,-3.9333333
alcalali,,60,38.75,-0.0333333
alcampel,,52,41.9,0.4333333
alcanadre,,27,42.4166667,-2.1166667
alcanadro,,27,42.4166667,-2.1166667
alcanar,,56,40.55,0.4833333
alcandre,,27,42.4166667,-2.1166667
alcanices,,55,41.7,-6.35
alcaniz,13884,52,41.05,-0.1333333
alcanizo,,54,39.9,-5.1
alcano,,56,41.4666667,0.6166667
alcantara,,51,36.6833333,-6.0
alcantara,,57,39.7166667,-6.8833333
alcantara de jucar,,60,39.0666667,-0.55
alcantarilla,37969,31,37.9666667,-1.2166667
alcantarilla,,54,38.3,-2.4333333
alcantud,,54,40.55,-2.3333333
alcaracejos,,51,38.3833333,-4.9666667
alcaraces,,51,38.3833333,-4.9666667
alcaraz,,54,38.6666667,-2.4833333
alcaraz de san juan,,54,39.4,-3.2
alcarazejos,,51,38.3833333,-4.9666667
alcarras,,56,41.5666667,0.5166667
alcarraz,,56,41.5666667,0.5166667
alcaucin,,51,36.9,-4.1166667
alcaudete,11197,51,37.6,-4.0833333
alcaudete de la jaya,,54,39.7833333,-4.8666667
alcayaga,,32,43.2666667,-1.6833333
alcazar,,51,36.85,-3.3333333
alcazar,,54,39.4,-3.2
alcazar del rey,,54,40.0666667,-2.8166667
alcazar de san juan,26976,54,39.4,-3.2
alcazarejos,,54,39.1666667,-1.5833333
alcazaren,,55,41.3666667,-4.6666667
alcazares,,31,37.75,-0.85
alceda,,39,43.2,-3.9166667
alcedo,,34,43.1166667,-5.8
alcedo,,59,42.7666667,-3.0166667
alceme,,58,42.6333333,-7.9833333
alcibar,,59,42.9833333,-2.2666667
alcira,,60,39.15,-0.4333333
alco,,60,38.7,-0.4666667
alcoba,,54,39.2666667,-4.4666667
alcoba,,55,42.55,-5.8333333
alcoba de la ribera,,55,42.55,-5.8333333
alcoba de la torre,,55,41.7166667,-3.3333333
alcobaza,,57,38.3333333,-6.8833333
alcobendas,101860,29,40.5333333,-3.6333333
alcober,,56,41.2666667,1.1666667
alcoceber,,60,40.25,0.2833333
alcocebre,,60,40.25,0.2833333
alcocer,,54,40.4666667,-2.6
alcocer de planes,,60,38.8,-0.4
alcocero,,55,42.4666667,-3.35
alcocero de mola,,55,42.4666667,-3.35
alcohujate,,54,40.4166667,-2.6166667
alcolea,,51,36.9833333,-2.95
alcolea,,54,41.0333333,-2.4666667
alcolea de calatrava,,54,38.9833333,-4.1166667
alcolea de cinca,,52,41.7166667,0.1166667
alcolea de las penas,,54,41.2166667,-2.7833333
alcolea del pinar,,54,41.0333333,-2.4666667
alcolea del rio,,51,37.6166667,-5.6666667
alcolea de tajo,,54,39.8,-5.15
alcolecha,,60,38.6833333,-0.3333333
alcoletge,,56,41.65,0.7
alcollarin,,57,39.25,-5.7333333
alconaba,,55,41.7166667,-2.3833333
alconada,,55,40.9,-5.3666667
alconada de maderuelo,,55,41.45,-3.4833333
alconadilla,,55,41.4666667,-3.5
alconchel,,57,38.5166667,-7.0666667
alconchel de ariza,,52,41.2,-2.1166667
alconchel de la estrella,,54,39.7166667,-2.5666667
alconera,,57,38.4,-6.4666667
alcontar,,51,37.3333333,-2.6
alcora,,60,40.0666667,-0.2
alcoraya,,60,38.3833333,-0.6333333
alcorcillo,,55,41.7166667,-6.3666667
alcorcon,169343,29,40.35,-3.8333333
alcorisa,,52,40.8833333,-0.3833333
alcoriza,,52,40.8833333,-0.3833333
alcorlo,,54,41.0166667,-3.0166667
alcornocal,,55,40.9166667,-6.0833333
alcornocalejo,,51,37.6333333,-5.7666667
alcoroches,,54,40.6333333,-1.7333333
alcotas,,52,40.0166667,-0.7833333
alcouce,,58,42.35,-7.2333333
alcover,,56,41.2666667,1.1666667
alcoy,,60,38.7,-0.4666667
alcoyes,,60,38.6333333,-0.3833333
alcoz,,32,43.0,-1.6666667
alcozar,,55,41.6166667,-3.3166667
alcubierre,,52,41.8,-0.45
alcubilla,,55,42.1333333,-5.9166667
alcubilla de avellaneda,,55,41.7166667,-3.3
alcubilla de las penas,,55,41.25,-2.5166667
alcubilla del marques,,55,41.5666667,-3.1333333
alcubilla de nogales,,55,42.1333333,-5.9166667
alcubillas,,54,38.75,-3.1333333
alcublas,,60,39.8,-0.7
alcudia,14436,07,39.8666667,3.1166667
alcudia,,51,37.2666667,-3.1
alcudia,,60,38.75,-0.4333333
alcudia de carlet,,60,39.2,-0.5
alcudia de crespins,,60,38.9666667,-0.5833333
alcudia de guadix,,51,37.2666667,-3.1
alcudia de monteagud,,51,37.2333333,-2.2666667
alcudia de veo,,60,39.9166667,-0.35
alcudiola,,60,38.9333333,-0.1666667
alcuescar,,57,39.1833333,-6.2333333
alcuetas,,55,42.2666667,-5.4333333
alcular,,51,36.9666667,-3.1833333
alcuneza,,54,41.1,-2.6
alcutar,,51,36.9666667,-3.1833333
alda,,59,42.7666667,-2.3333333
aldaba,,32,42.85,-1.75
aldaba,,59,43.1166667,-2.15
aldaba-chiqui,,59,43.1,-2.1333333
aldaca,,59,43.2666667,-2.6
aldan,,58,42.2833333,-8.8166667
aldano,,39,43.1333333,-3.8666667
aldape,,59,43.1333333,-2.5166667
aldaya,,60,39.4666667,-0.45
alday,,59,43.2666667,-2.9666667
aldaz,,32,43.0166667,-1.85
aldea,,34,43.2333333,-5.5
aldea,,58,43.1333333,-7.2833333
aldea blanca,,53,27.8333333,-15.4666667
aldea blanca del llano,,53,28.05,-16.6166667
aldeacardo,,55,42.0666667,-2.3333333
aldeacentenera,,57,39.5333333,-5.6333333
aldeacipreste,,55,40.3833333,-5.9
aldeacueva,,59,43.2,-3.3833333
aldeadalba de hortaces,,55,40.5166667,-6.55
aldeadavila de la ribera,,55,41.2166667,-6.6166667
aldeadavila de revilla,,55,40.8666667,-6.1833333
aldea de abajo,,58,42.7166667,-8.2333333
aldea de arango,,54,40.1,-4.9833333
aldea de arriba,,58,42.3666667,-7.2
aldea de chilegua,,53,28.25,-14.1666667
aldea de ebro,,39,42.9,-4.0333333
aldea del cano,,57,39.2833333,-6.3166667
aldea del fresno,,29,40.3166667,-4.2
aldea del obispo,,55,40.7,-6.7833333
aldea del obispo,,57,39.5666667,-5.9166667
aldea del pinar,,55,41.8666667,-3.1666667
aldea del rey,,54,38.7333333,-3.8333333
aldea del rey nino,,55,40.5833333,-4.7333333
aldea de san andres,,55,41.75,-4.5166667
aldea de san esteban,,55,41.5666667,-3.25
aldea de san miguel,,55,41.4666667,-4.6166667
aldea de san nicolas,,53,27.9833333,-15.7666667
aldea de trujillo,,57,39.5666667,-5.9166667
aldeaencabo de escalona,,54,40.1833333,-4.45
aldeagallega,,55,40.8833333,-5.7166667
aldeagutierrez,,55,41.1,-6.0166667
aldeahermosa,,51,38.3333333,-3.1333333
aldealabad,,55,40.6166667,-4.8333333
aldealabad del miron,,55,40.5833333,-5.3833333
aldealafuente,,55,41.2333333,-3.8
aldealazaro,,55,41.35,-3.4
aldealba de hortaces,,55,40.5166667,-6.55
aldealbar,,55,41.5,-4.35
aldealcardo,,55,42.0666667,-2.3333333
aldealcorvo,,55,41.25,-3.7833333
aldealengua,,55,40.9833333,-5.55
aldealengua de santa maria,,55,41.4666667,-3.4666667
aldealobos,,27,42.3,-2.2
aldealpozo,,55,41.7833333,-2.2
aldealsenor,,55,41.8833333,-2.3166667
aldeamayor de san martin,,55,41.5166667,-4.6333333
aldea moret,,57,39.45,-6.3833333
aldeanueva,,55,40.5666667,-6.65
aldeanueva de atienza,,54,41.1666667,-3.1
aldeanueva de barbarroya,,54,39.75,-5.0166667
aldeanueva de cameros,,27,42.15,-2.6166667
aldeanueva de ebro,,27,42.2333333,-1.8833333
aldeanueva de figueroa,,55,41.15,-5.5166667
aldeanueva de guadalajara,,54,40.6833333,-3.05
aldeanueva de la sierra,,55,40.6166667,-6.1
aldeanueva de la vera,,57,40.1333333,-5.7
aldeanueva del camino,,57,40.2666667,-5.9166667
aldeanueva del campanario,,55,41.35,-3.6
aldeanueva del codonal,,55,41.0833333,-4.5333333
aldeanueva del monte,,55,41.3333333,-3.5333333
aldeanueva de portanobis,,55,40.7333333,-6.6333333
aldeanueva de portanovis,,55,40.7333333,-6.6333333
aldeanueva de san bartolome,,54,39.6333333,-5.1166667
aldeanueva de santa cruz,,55,40.3833333,-5.4166667
aldeaquemada,,51,38.4,-3.3666667
aldea real,,55,41.1833333,-4.1666667
aldearraso,,55,41.2333333,-3.8
aldearrodrigo,,55,41.1166667,-5.8
aldearrubia,,55,41.0,-5.5
aldeasaz,,55,41.0666667,-3.95
aldeaseca,,55,41.05,-4.8166667
aldeaseca de alba,,55,40.8166667,-5.45
aldeaseca de armuna,,55,41.0166667,-5.6666667
aldeaseca de la frontera,,55,40.9333333,-5.2
aldeasona,,55,41.4666667,-4.05
aldeatejada,,55,40.9166667,-5.6833333
aldeavella,,58,42.6333333,-8.9333333
aldeavieja,,55,40.75,-4.4666667
aldeavieja de tormes,,55,40.5833333,-5.6166667
aldeavila de revilla,,55,40.8666667,-6.1833333
aldeguer,,58,43.3166667,-7.1666667
aldehorno,,55,41.5166667,-3.7666667
aldehuela,,29,40.3,-3.5833333
aldehuela,,52,40.2666667,-1.05
aldehuela,,54,40.05,-3.4166667
aldehuela,,55,40.7833333,-4.75
aldehuela,,57,40.3833333,-6.3833333
aldehuela de agreda,,55,41.8333333,-1.8833333
aldehuela de boveda,,55,40.85,-6.05
aldehuela de calatanazor,,55,41.7166667,-2.7833333
aldehuela de jerte,,57,40.0166667,-6.2333333
aldehuela de la boveda,,55,40.85,-6.05
aldehuela del codonal,,55,41.0,-4.0166667
aldehuela de liestos,,52,41.0666667,-1.7
aldehuela del jerte,,57,40.0166667,-6.2333333
aldehuela del rincon,,55,41.9166667,-2.5833333
aldehuela de perianez,,55,41.8,-2.3
aldehuela de rincon,,55,41.9166667,-2.5833333
aldehuela de santa cruz,,52,41.35,-1.4333333
aldehuela de yeltes,,55,40.65,-6.2333333
aldeilla,,51,38.1833333,-3.2
aldeire,,51,37.15,-3.0666667
aldemunde,,58,43.15,-8.6
aldemuz,,60,40.0666667,-1.2833333
aldeonsancho,,55,41.25,-3.8666667
aldeonte,,55,41.35,-3.6666667
aldeyuso,,55,41.55,-4.1333333
aldige,,58,43.3333333,-7.55
aldin,,34,43.5166667,-6.5166667
aldobren,,58,43.05,-7.0666667
aldoman,,58,43.1,-7.05
aldosende,,58,42.75,-7.6333333
aldover,,56,40.8833333,0.5
aldueso,,39,43.0166667,-4.0833333
aldunate,,32,42.65,-1.3666667
aldurfe,,58,43.3,-7.2833333
alea,,34,43.4333333,-5.15
aleas,,54,40.9166667,-3.15
alecanadre,,27,42.4166667,-2.1166667
alecha,,59,42.75,-2.45
alecua,,60,38.55,-0.5166667
aledo,,31,37.8,-1.5666667
alegria,,59,42.8333333,-2.5
alegria de oria,,59,43.1,-2.1
aleixar,,56,41.2,1.05
aleje,,55,42.85,-5.1166667
alejico,,55,42.85,-5.1333333
alella,,56,41.4833333,2.3
alemparte,,58,42.6833333,-8.0
alen,,59,43.2666667,-3.2
alence,,58,42.75,-7.1666667
alentisque,,55,41.4166667,-2.3333333
alentorn,,56,41.9166667,1.0666667
aleosebre,,60,40.25,0.2833333
alerre,,52,42.1666667,-0.4666667
alesanco,,27,42.4166667,-2.8166667
aleson,,27,42.4,-2.6833333
alevia,,34,43.3333333,-4.6
alfacar,,51,37.2333333,-3.5666667
alfafara,,60,38.7666667,-0.55
alfafar,19880,60,39.4166667,-0.3833333
alfages,,52,41.8166667,0.2833333
alfahuir,,60,38.9333333,-0.25
alfaiz,,51,37.1333333,-1.9666667
alfajarin,,52,41.6166667,-0.7
alfambra,,52,40.55,-1.0333333
alfamen,,52,41.4333333,-1.25
alfantega,,52,41.8166667,0.15
alfara,,56,40.8666667,0.4
alfara,,60,39.55,-0.3833333
alfara de algimia,,60,39.7666667,-0.35
alfara de carles,,56,40.8666667,0.4
alfara del patriarca,,60,39.55,-0.3833333
alfar,,56,41.6166667,2.4333333
alfarara,,60,38.7666667,-0.55
alfaraz,,55,41.2333333,-5.9833333
alfareria,,60,38.7333333,-0.0166667
alfarnate,,51,36.9833333,-4.2666667
alfarnatejo,,51,37.0,-4.2666667
alfaro,,27,42.1833333,-1.75
alfarp,,60,39.2833333,-0.55
alfarras,,56,41.8166667,0.5833333
alfarrasi,,60,38.9,-0.5
alfatares,,60,38.8333333,0.0333333
alfes,,56,41.5166667,0.6166667
alfocea,,52,41.7333333,-0.95
alfondeguilla,,60,39.8333333,-0.2666667
alforins,,60,38.3833333,-0.9166667
alforja,,56,41.2,0.9833333
alfornon,,51,36.8166667,-3.2833333
alforque,,52,41.3333333,-0.3833333
algaba,,51,37.4666667,-6.0166667
algadefe,,55,42.2166667,-5.5833333
algaida,,07,39.55,2.8666667
algaida,,31,38.1,-1.2833333
algaida,,51,36.8,-2.6
algamitas,,51,37.0166667,-5.15
algar,,31,37.65,-0.8666667
algar,,51,36.65,-5.65
algar de mesa,,54,41.1333333,-1.95
algar de palancia,,60,39.7833333,-0.3666667
algarga,,54,40.1666667,-3.0333333
algarinejo,,51,37.3166667,-4.15
algarmejo,,51,37.3166667,-4.15
algarra,,54,40.0,-1.4333333
algarrobe,,51,36.7666667,-4.0333333
algarrobico,,51,37.0333333,-1.9166667
algarrobo,,51,36.7666667,-4.0333333
algatocin,,51,36.5666667,-5.2666667
algayon,,52,41.8333333,0.3833333
algeciras,104766,51,36.1275,-5.4538889
algemesi,26222,60,39.1833333,-0.4333333
algerri,,56,41.8166667,0.6333333
algete,17554,29,40.6,-3.5
algezares,,31,37.95,-1.1
algilaga,,56,41.2166667,1.3
algimia de alfara,,60,39.75,-0.3666667
algimia de almonacid,,60,39.9166667,-0.4333333
alginet,12754,60,39.2666667,-0.4666667
algodonales,,51,36.8833333,-5.4166667
algodre,,55,41.5666667,-5.6
algora,,54,40.9666667,-2.6666667
algorfa,,60,38.0833333,-0.8
algorta,,59,43.35,-3.0166667
alguaire,,56,41.7333333,0.6
alguazas,,31,38.05,-1.2333333
alguena,,60,38.3333333,-1.0
alguerdo,,34,42.9833333,-6.7833333
alhabia,,51,36.9833333,-2.5833333
alhama,,31,37.85,-1.4166667
alhama,,51,36.95,-2.5666667
alhama,,52,41.3,-1.9
alhama de almeria,,51,36.95,-2.5666667
alhama de aragon,,52,41.3,-1.9
alhama de granada,,51,37.0,-3.9833333
alhama de murcia,18060,31,37.85,-1.4166667
alhambra,,54,38.9,-3.05
alhamilla,,51,36.9666667,-2.4
alharilla,,51,37.8833333,-4.1333333
alhaurin de la torre,25791,51,36.6666667,-4.55
alhaurin el grande,19605,51,36.6333333,-4.6833333
alhendin,,51,37.1166667,-3.65
alhondiga,,54,40.5333333,-2.8166667
alhori,,51,37.7333333,-3.35
alia,,57,39.45,-5.2166667
aliaga,,52,40.6666667,-0.7
aliaguilla,,54,39.7333333,-1.3166667
ali,,59,42.85,-2.6833333
alicante,,60,38.35,-0.4833333
alicun,,51,36.9666667,-2.6
alicun de ortega,,51,37.6,-3.1333333
alienes,,34,43.4333333,-6.3666667
aliezo,,39,43.1666667,-4.6
alija,,55,42.1333333,-5.8333333
alija de la ribera,,55,42.5166667,-5.5333333
alija de los melones,,55,42.1333333,-5.8333333
alijar,,51,36.7333333,-6.2833333
alijo,,58,42.4,-6.95
alins,,52,42.4333333,0.6166667
alins del monte,,52,42.0166667,0.3333333
alins de monte,,52,42.0166667,0.3333333
alio,,56,41.3,1.3
alique,,54,40.5833333,-2.6333333
alisadilla,,57,40.2666667,-5.8666667
aliseda,,57,39.4333333,-6.6833333
aliseda de tormes,,55,40.3333333,-5.3833333
alisedas,,54,38.85,-4.8666667
alitaje,,51,37.2333333,-3.75
aliud,,55,41.65,-2.25
aljan,,58,42.1166667,-8.5333333
aljaraque,,51,37.2666667,-7.0166667
aljariz,,51,37.25,-1.9333333
aljau,,60,38.35,-0.7666667
aljezares,,31,37.95,-1.1
al jezita,,51,36.1275,-5.4538889
aljibillos,,51,36.7833333,-2.8333333
aljorf,,60,38.85,-0.5166667
aljorra,,31,37.7,-1.0833333
aljube,,54,38.6166667,-1.6333333
aljucen,,57,39.0333333,-6.3333333
aljucer,,31,37.95,-1.15
allande,,34,43.2666667,-6.6166667
allariz,,58,42.1833333,-7.8
allence,,34,43.4666667,-6.1666667
allende,,34,43.4,-4.9166667
allende,,39,43.2166667,-4.6
allende,,59,43.1666667,-3.1
allendelagua,,39,43.4,-3.25
allen del hoyo,,39,42.9333333,-3.8833333
allepuz,,52,40.4833333,-0.7333333
aller,14428,34,43.1666667,-5.6333333
alles,,34,43.3333333,-4.7
alli,,32,43.0,-1.9
allo,,32,42.5666667,-2.0166667
allo,,58,43.1666667,-8.9333333
allona,,59,43.3666667,-2.5833333
allonca,,58,43.1833333,-6.9833333
allones,,58,43.2333333,-8.8833333
alloza,,52,40.9666667,-0.5166667
alloz,,32,42.7,-1.95
allue,,52,42.4833333,-0.3166667
allueva,,52,40.9833333,-1.0333333
almacellas,,55,41.1333333,-2.4166667
almacellas,,56,41.7333333,0.45
almacera,,60,39.5166667,-0.35
almachar,,51,36.8,-4.2333333
almaciga,,53,28.5666667,-16.2
almaciles,,51,37.9833333,-2.3333333
almaden,,54,38.7666667,-4.8333333
almaden de la plata,,51,37.8666667,-6.0666667
almadenejos,,54,38.7333333,-4.7
almadenes,,31,38.2333333,-1.55
almadraba,,51,36.6166667,-6.3833333
almadrones,,54,40.9,-2.7666667
almafra,,60,38.4666667,-0.7833333
almagarinos,,55,42.6666667,-6.25
almagro,,54,38.8833333,-3.7166667
almagros,,31,37.7666667,-1.2666667
almajalejo,,51,37.3833333,-1.9833333
almajano,,55,41.85,-2.3333333
almaluez,,55,41.2833333,-2.2666667
almandoz,,32,43.0833333,-1.6
almansa,24502,54,38.8666667,-1.0833333
almansa,,57,39.3333333,-5.1666667
almansas,,51,37.9833333,-3.0333333
almantiga,,55,41.45,-2.55
almanza,,55,42.65,-5.0333333
almanzora,,51,37.35,-2.1333333
almarail,,55,41.5833333,-2.3833333
almaraz,,57,39.8166667,-5.6833333
almaraz de duero,,55,41.4666667,-5.9166667
almaraz de la mota,,55,41.7166667,-5.2333333
almarcha,,54,39.6833333,-2.3666667
almarch,,60,38.55,-0.5
almargen,,51,37.0,-5.0166667
almarza,,55,41.95,-2.4666667
almarza de cameros,,27,42.2166667,-2.5833333
almatret,,56,41.3,-0.4333333
almayate alto,,51,36.7333333,-4.1333333
almayate bajo,,51,36.7166667,-4.1333333
almazan,,55,41.4833333,-2.5333333
almazaran,,54,38.4,-2.1166667
almazcara,,55,42.6,-6.5
almazora,,60,39.95,-0.05
almazorre,,52,42.2666667,0.0666667
almazul,,55,41.5833333,-2.15
almedijar,,60,39.8666667,-0.4
almedina,,54,38.6166667,-2.95
almedinilla,,51,37.4333333,-4.0833333
almegijar,,51,36.9,-3.3
almeida,,55,41.2666667,-6.0666667
almeiras,,58,43.3,-8.3666667
almenara,,51,37.9,-3.7333333
almenara,,60,39.75,-0.2166667
almenara de adaja,,55,41.2166667,-4.6666667
almenara de tormes,,55,41.0666667,-5.8166667
almenar,,56,41.8,0.5666667
almenar de soria,,55,41.6833333,-2.2
almendra,,55,41.2333333,-6.3333333
almendral,,57,38.6166667,-6.8166667
almendral de la canada,,54,40.1833333,-4.7333333
almendralejo,27423,57,38.6833333,-6.4
almendres,,55,42.9,-3.4166667
almendricos,,31,37.4666667,-1.7833333
almendro,,51,37.4833333,-2.5833333
almendros,,54,39.9333333,-2.8833333
almensilla,,51,37.3097222,-6.1152778
almeria,181497,51,36.8333333,-2.45
almidar,,51,37.4666667,-3.15
almirez,,54,38.35,-1.85
almiruete,,54,41.05,-3.2166667
almiserat,,60,38.9166667,-0.2833333
almocaizar,,51,37.1333333,-2.0166667
almochuel,,52,41.2833333,-0.55
almocita,,51,37.0,-2.7833333
almodovar,,54,38.7166667,-4.1666667
almodovar del campo,,54,38.7166667,-4.1666667
almodovar del pinar,,54,39.7166667,-1.8833333
almodovar del rio,,51,37.8,-5.0166667
almofrey,,58,42.4333333,-8.55
almogia,,51,36.8,-4.55
almoguera,,54,39.25,-3.8333333
almohaja,,52,40.6,-1.4333333
almoharin,,57,39.1833333,-6.0333333
almoines,,60,38.95,-0.1833333
almoite,,58,42.25,-7.6833333
almojia,,51,36.8,-4.55
almonacid de la cuba,,52,41.2833333,-0.7833333
almonacid de la sierra,,52,41.4,-1.3166667
almonacid del marquesado,,54,39.8166667,-2.75
almonacid de toledo,,54,39.7333333,-3.8666667
almonacid de zorita,,54,40.3333333,-2.85
almonaster,,51,37.8666667,-6.7833333
almonaster la real,,51,37.8666667,-6.7833333
almonte,18280,51,37.2647222,-6.5163889
almora,,54,40.2333333,-4.3833333
almoradi,16415,60,38.1166667,-0.7666667
almorchon,,54,38.7,-5.2833333
almorcita,,51,37.0,-2.7833333
almordi,,60,38.1166667,-0.7666667
almorox,,54,40.2333333,-4.3833333
almoster,,56,41.2,1.1166667
almudafar,,52,41.6333333,0.2166667
almudaina,,60,38.7666667,-0.35
almudebar,,52,42.05,-0.5833333
almudema,,31,38.0,-1.9166667
almudena,,31,38.0,-1.9166667
almudevar,,52,42.05,-0.5833333
almuedano,,51,37.4833333,-6.0833333
almuna,,34,43.5333333,-6.5166667
almunecar,22157,51,36.7166667,-3.6833333
almunia de dona godina,,52,41.4833333,-1.3666667
almuniente,,52,41.95,-0.4
almuradiel,,54,38.5166667,-3.5
almurfe,,34,43.2,-6.2666667
almusafes,,60,39.2833333,-0.4166667
almuzara,,55,42.95,-5.55
alobras,,52,40.1833333,-1.3833333
alocen,,54,40.5833333,-2.7333333
alojera,,53,28.15,-17.3166667
alomartes,,51,37.2666667,-3.9166667
alon,,58,43.0,-8.8166667
alongos,,58,42.3166667,-7.95
alonos,,39,43.2333333,-3.8666667
alonsotegui,,59,43.25,-2.9833333
alora,13644,51,36.8,-4.7
aloria,,59,43.0,-2.9833333
alos,,56,42.7,1.1
alos de balaguer,,56,41.9166667,0.9666667
alos de isil,,56,42.7,1.1
alosno,,51,37.55,-7.1166667
alovera,,54,40.6,-3.25
alozaina,,51,36.7166667,-4.85
alp,,56,42.3666667,-1.8833333
alpandeire,,51,36.6333333,-5.2
alpanseque,,55,41.2666667,-2.6666667
alparrache,,55,41.5666667,-2.35
alpartir,,52,41.4166667,-1.3833333
alpedrete,,29,40.6666667,-4.0166667
alpedrete de la sierra,,54,40.9,-3.4
alpedroches,,54,41.2333333,-2.9166667
alpenes,,52,40.8,-1.0666667
alpens,,56,42.1166667,2.1
alpera,,54,38.9666667,-1.2166667
alperiz,,58,42.7166667,-8.0333333
alpicat,,56,41.6666667,0.55
alpizar,,51,37.45,-6.4333333
alporchones,,31,37.65,-1.5833333
alpuente,,60,39.8666667,-1.0166667
alqueria,,51,37.7166667,-2.5333333
alqueria andres bueno,,55,40.9666667,-5.5166667
alqueria arauzo,,55,40.9,-5.3
alqueria ariscos,,55,40.85,-5.6666667
alqueria blanca,,07,39.3666667,3.1
alqueria cabaloria,,55,40.4,-6.0666667
alqueria canedino,,55,41.1333333,-5.6833333
alqueria casasola del campo,,55,40.75,-5.9
alqueria corbacera,,55,40.8,-5.9166667
alqueria de aznar,,60,38.7666667,-0.4166667
alqueria de campanero,,55,40.7,-6.55
alqueria de la condesa,,60,38.9333333,-0.15
alqueria domingo senor,,55,40.7333333,-5.9833333
alqueria fargue,,51,37.2,-3.55
alqueria herreros,,55,40.7166667,-5.9166667
alqueria herreros de salvatierra,,55,40.7,-5.75
alqueria la duena de abajo,,55,40.6833333,-5.7166667
alqueria la duena de arriba,,55,40.6833333,-5.7333333
alqueria la pera,,51,37.0166667,-3.8
alqueria martinebron,,55,40.3666667,-6.0833333
alqueria miguel munoz,,55,40.75,-5.7166667
alqueria naharros del rio,,55,40.9666667,-5.6
alqueria naharros de valduciel,,55,41.0833333,-5.6333333
alqueria olleros,,55,40.7833333,-6.05
alqueria otero de maria asensio,,55,40.8833333,-5.55
alqueria revilla,,55,41.0833333,-5.2833333
alquerias,,31,38.0166667,-1.0333333
alqueria san cristobal del monte,,55,41.2,-5.6666667
alqueria san vicente,,55,40.9,-5.3833333
alqueria sotrobal,,55,40.8666667,-5.25
alqueria torre de moncantar,,55,41.1166667,-5.35
alqueria zarzoso,,55,40.6,-6.1166667
alquezar,,52,42.1666667,0.0333333
alquidon,,55,42.3333333,-5.8833333
alquife,,51,37.1833333,-3.1166667
alquite,,55,41.3,-3.4
alquiza,,59,43.1666667,-2.1
alsasua,,32,42.8666667,-2.1666667
alsodux,,51,37.0,-2.5833333
alsusta,,59,43.1,-2.75
alta,,58,43.0,-7.6333333
altable,,55,42.6,-3.0666667
altafulla,,56,41.1333333,1.3833333
altamira,,58,42.45,-8.8166667
altamira,,59,43.3666667,-2.7
altamiros,,55,40.7,-4.9
altarejos,,54,39.9166667,-2.35
altea,18588,60,38.6,-0.05
altea la vieja,,60,38.6333333,-0.0166667
altet,,56,41.6833333,1.15
altico,,31,38.05,-1.9166667
alto,,58,42.9,-7.3833333
altobar de la encomienda,,55,42.1666667,-5.8166667
alto del carmen,,53,28.45,-16.2666667
altron,,56,42.45,1.1166667
altura,,60,39.85,-0.5166667
altuzarra,,27,42.2333333,-3.0166667
aluenda,,52,41.4,-1.5166667
alumbres,,31,37.6,-0.9166667
alustante,,54,40.6166667,-1.65
alvare,,34,43.3833333,-6.1333333
alvare,,58,43.2833333,-7.2833333
alveavila de la ribera,,55,41.2166667,-6.6166667
alvidron,,58,42.8,-7.9
alvite,,58,43.35,-7.3
alvites,,58,43.35,-7.3
alza,,59,43.3,-1.9333333
alzaga,,59,43.0666667,-2.15
alzagate,,59,43.0666667,-2.15
alzate,,32,43.2833333,-1.6666667
alzo,,59,43.1,-2.0833333
alzo de abajo,,59,43.1,-2.0833333
alzo de arriba,,59,43.1,-2.0833333
alzola,,59,43.2333333,-2.4
alzorriz,,32,42.7166667,-1.4666667
alzusta,,59,43.1,-2.75
amandi,,34,43.4666667,-5.4333333
amandi,,58,42.4,-7.5166667
amarante,,58,42.4166667,-8.0333333
amarela,,58,42.9333333,-9.2333333
amarita,,59,42.9166667,-2.6333333
amasa,,59,43.1833333,-2.05
amatos,,55,40.85,-5.4833333
amatos de alba,,55,40.85,-5.4833333
amatriain,,32,42.5833333,-1.5666667
amavida,,55,40.5666667,-5.0666667
amavizcar,,59,43.2333333,-3.0833333
amaya,,55,42.65,-4.1666667
amayas,,54,41.0666667,-1.9666667
amayo,,34,43.4,-5.3333333
amayuelas de abajo,,55,42.2,-4.5
amayuelas de arriba,,55,42.2166667,-4.4833333
amayuelas de ojeda,,55,42.7833333,-4.4833333
ambas aguas,,27,42.1166667,-2.1666667
ambasaguas,,55,42.2666667,-6.55
ambas aguas,,58,42.4333333,-6.95
ambas,,34,43.3166667,-6.1333333
ambasmestas,,55,42.6666667,-6.9166667
ambel,,52,41.8,-1.6166667
ambia,,58,42.2166667,-7.7166667
ambiedes,,34,43.5833333,-5.8833333
ambigue,,34,43.2666667,-5.2166667
ambingue,,34,43.2666667,-5.2166667
ambite,,29,40.3333333,-3.1666667
ambosores,,58,43.55,-7.7333333
ambreijo,,58,42.9,-7.9166667
ambres,,34,43.1666667,-6.4166667
ambroa,,58,43.3166667,-8.1166667
ambrona,,55,41.1666667,-2.5
ambros,,34,43.35,-7.0333333
ambrosero,,39,43.4166667,-3.55
ambroz,,29,40.4166667,-3.5833333
ambroz,,51,37.1666667,-3.65
ameijeira,,58,42.2166667,-8.2166667
ameijenda,,58,42.9333333,-8.6
ameijide,,58,43.25,-7.2833333
amejeira,,58,42.2166667,-8.2166667
amer,,56,42.0166667,-2.6
ames,18960,58,42.9,-8.6333333
amescoa baja,,32,42.7666667,-2.1333333
ametlla,,56,41.5666667,1.25
ametlla del mar,,56,40.9,0.8
ametlla de mar,,56,40.9,0.8
ametlla de merola,,56,41.8333333,1.8833333
ameyugo,,55,42.65,-3.05
amezaga,,59,42.8666667,-2.3166667
amez,,59,43.25,-3.15
amezcoa baja,,32,42.7666667,-2.1333333
amezola,,59,43.2333333,-2.8833333
amezqueta,,59,43.05,-2.0833333
amieva,,34,43.25,-5.0666667
amil,,58,42.5333333,-8.5833333
amillano,,32,42.7166667,-2.0666667
amiudal,,58,42.4,-8.2666667
amoedo,,58,42.3,-8.55
amoeiro,,58,42.4166667,-7.95
amoeja,,58,42.75,-7.8333333
amoloig,,60,38.3666667,-0.6833333
amor,,55,41.3833333,-5.8166667
amorebiela,,59,43.2166667,-2.7333333
amorebieta,,59,43.2166667,-2.7333333
amorevieta,,59,43.2166667,-2.7333333
amorin,,58,42.0,-8.6833333
amoroce,,58,42.1333333,-7.9666667
amoroto,,59,43.3333333,-2.5
ampolla,,56,40.8,0.7166667
amposta,19140,56,40.7166667,0.5833333
ampudia,,55,41.9166667,-4.7833333
ampuero,,39,43.35,-3.4166667
ampurias,,56,42.1333333,3.1166667
amunarrizqueta,,32,42.6333333,-1.55
amunartia,,27,42.35,-3.0333333
amurrio,9806,59,43.05,-3.0
amusco,,55,42.1666667,-4.4666667
amusquillo,,55,41.75,-4.3
ana,,58,43.0166667,-8.2
anaca,,59,43.3333333,-1.8
anadon,,52,40.9833333,-0.9833333
anafreita,,58,43.0833333,-7.8833333
anahuir,,60,38.9666667,-0.5666667
anas,,56,42.5833333,1.2166667
anastro,,55,42.7333333,-2.7833333
anavieja,,55,41.8833333,-1.9833333
anaya,,55,40.9833333,-4.3
anaya de alba,,55,40.7166667,-5.4833333
anayo,,34,43.4,-5.3333333
anaz,,39,43.3666667,-3.75
anca,,58,43.5,-8.1
anceis,,58,43.2666667,-8.35
anceo,,58,42.3666667,-8.4666667
anceu,,58,42.3666667,-8.4666667
ancho,,59,43.3166667,-1.9333333
anchuela del campo,,54,41.0333333,-2.0
anchuela del pedregal,,54,40.85,-1.8
anchuelo,,29,40.4666667,-3.2666667
anchuras,,54,39.4833333,-4.8333333
anciles,,52,42.5833333,0.5166667
anciles,,55,42.9666667,-5.0666667
ancillo,,39,43.45,-3.4833333
ancin,,32,42.6666667,-2.1833333
ancioa,,32,42.9166667,-1.4166667
ancorados,,58,42.7166667,-8.4166667
anda,,59,42.9166667,-2.8833333
andabao,,58,43.0333333,-8.1166667
andagoya,,59,42.9166667,-2.9
andaluz,,55,41.5166667,-2.8
andani,,56,41.8333333,0.5833333
andanzas del valle,,55,42.1666667,-5.7166667
andarraso,,55,42.75,-6.0
andavias,,55,41.6,-5.85
andeade,,58,42.8666667,-8.2666667
andeiro,,58,43.25,-8.3333333
andeo,,34,43.05,-6.8333333
anderbe,,34,43.2333333,-6.45
andes,,34,43.55,-6.7
andicona,,59,43.1833333,-2.5833333
andicona-elizondo,,59,43.1833333,-2.5833333
andilla,,60,39.8333333,-0.8
andina,,34,43.4833333,-6.8333333
andinas,,34,43.35,-4.5333333
andino,,55,42.9166667,-3.5666667
andinuela,,55,42.4666667,-6.3166667
andoain,13961,59,43.2166667,-2.0166667
andoin,,59,42.8666667,-2.2666667
andollu,,59,42.8333333,-2.5666667
andorra,,52,40.9666667,-0.4333333
andosilla,,32,42.3833333,-1.6666667
andoyo,,58,43.1333333,-8.5666667
andracas,,59,43.4,-2.9
andrada maria de menacabarrena,,59,43.35,-2.8
andrade,,58,43.3833333,-8.1666667
andraitx,,07,39.5833333,2.4166667
andramari,,59,43.15,-2.6
andras,,58,42.5666667,-8.7833333
andreade,,58,42.7333333,-7.55
andres bueno,,55,40.9666667,-5.5166667
andrin,,34,43.4,-4.7166667
anduerga,,34,43.45,-5.9166667
andujar,36594,51,38.05,-4.0666667
ane,,55,41.0333333,-4.3
anejigal,,55,40.8833333,-5.9666667
anento,,52,41.0666667,-1.3333333
anero,,39,43.4,-3.65
anes,,34,43.4166667,-5.7
anes,,59,43.0666667,-3.1333333
aneto,,52,42.55,0.7333333
anezcar,,32,42.8666667,-1.7166667
anfeoz,,58,42.2,-8.0
angeles,,58,42.85,-8.6666667
angeriz,,58,43.1166667,-8.6666667
angles,,56,41.95,2.65
anglesola,,56,41.65,1.0833333
angoares,,58,42.1666667,-8.5
angostina,,39,43.3333333,-3.3333333
angostina,,59,42.6333333,-2.4666667
angosto,,55,43.0166667,-3.4166667
angosto de arriba,,51,37.3333333,-2.55
angostura,,55,40.3333333,-5.35
anguciana,,27,42.5833333,-2.9
angudes,,58,42.1833333,-8.1833333
angueiros,,58,42.3833333,-7.2
angues,,52,42.1166667,-0.15
anguiano,,27,42.2666667,-2.7833333
anguiozar,,59,43.1166667,-2.4666667
anguita,,54,41.0333333,-2.3666667
anguix,,54,40.4333333,-2.8
anguix,,55,41.75,-3.9333333
angulo,,55,43.0333333,-3.1666667
angustina,,39,43.3166667,-3.7
anguta,,27,42.3333333,-3.0833333
ania,,34,43.4,-5.9666667
aniago,,55,41.5333333,-4.85
anides,,34,43.4333333,-6.9666667
anies,,52,42.3,-0.5833333
anieves,,34,43.3166667,-5.7833333
aniezo,,39,43.15,-4.5166667
anina,,51,36.7166667,-6.2
aninon,,52,41.45,-1.7
aniz,,32,43.1166667,-1.5833333
anleo,,34,43.5166667,-6.6833333
anllares,,55,42.85,-6.5333333
anllarinos,,55,42.85,-6.5666667
anllo,,58,42.3833333,-8.0833333
anna,,60,39.0166667,-0.6333333
anobre,,58,42.8,-8.3166667
anobres,,58,43.0666667,-9.1833333
anocibar,,32,42.9166667,-1.6333333
anoeta,,59,43.1666667,-2.0666667
anon,,52,41.7833333,-1.7166667
anora,,51,38.4166667,-4.9
anorbe,,32,42.6666667,-1.7166667
anorga,,59,43.3,-2.0166667
anorga-lugariz,,59,43.3,-2.0166667
anos,,58,43.1666667,-8.9166667
anover de tajo,,54,39.9833333,-3.7666667
anover de tormes,,55,41.1333333,-5.9166667
anoza,,55,42.2166667,-4.7833333
anoz,,32,42.8666667,-1.8166667
anoz,,52,41.7833333,-1.7166667
anquela del ducado,,54,40.9666667,-2.1333333
anquela del pedregal,,54,40.75,-1.7333333
anroig,,60,40.5166667,0.1333333
ansar,,58,42.7166667,-7.8166667
ansean,,58,42.65,-8.2
ansemar,,58,43.1666667,-7.4166667
ansemil,,58,42.1333333,-7.9333333
anserall,,56,42.3833333,-1.45
anso,,52,42.75,-0.8166667
ansola,,51,37.25,-3.7833333
anta,,55,42.0666667,-6.4666667
anta de rio conejos,,55,42.0666667,-6.4666667
anta de tera,,55,42.0,-6.3833333
antas,,51,37.2333333,-1.9166667
antas,,58,42.4,-8.4166667
anteguera,,51,37.0166667,-4.55
antella,,60,39.0833333,-0.5833333
anteparaluceta,,59,43.0666667,-2.65
antequera,44464,51,37.0166667,-4.55
antes,,58,43.0,-8.9166667
antezana,,59,42.8833333,-2.7166667
antezana de alava,,59,42.8833333,-2.7166667
antezana de la ribera,,59,42.7666667,-2.8666667
antias,,59,42.9666667,-2.2833333
antigua,,53,28.4166667,-14.0166667
antiguedad,,55,41.95,-4.1166667
antillon,,52,42.0333333,-0.1666667
antimio de abajo,,55,42.5,-5.6
antimio de arriba,,55,42.5166667,-5.65
antonana,,34,43.3333333,-6.2666667
antonana,,59,42.7,-2.4
antonan del valle,,55,42.5333333,-5.95
antonanes del paramo,,55,42.4,-5.7833333
antrialgo,,34,43.3666667,-5.2833333
anua,,59,42.8333333,-2.5333333
anucita,,59,42.8,-2.8833333
anuncibay,,59,43.1333333,-2.9333333
anzanigo,,52,42.4,-0.65
anzas,,34,43.35,-6.5333333
anzas,,58,43.5,-7.0833333
anzo,,34,43.4,-6.0333333
anzo,,58,42.7166667,-8.2
anzuola,,59,43.1,-2.3666667
aoiz,,32,42.7833333,-1.3666667
aorlos,,29,41.05,-3.5833333
aorroyomolinos,,29,40.2666667,-3.9
aos,,32,42.75,-1.3833333
aoslos,,29,41.05,-3.5833333
aozaraza,,59,43.0333333,-2.4833333
aozo,,59,43.1,-2.0833333
aparral,,58,43.4166667,-7.8166667
apatamonasterio,,59,43.1333333,-2.5833333
apeadero,,51,37.35,-2.0833333
apeadero de los molinos-guadarrama,,29,40.7166667,-4.0666667
apeadero la parra,,51,36.75,-6.05
apellaniz,,59,42.7333333,-2.4833333
aperregui,,59,42.9166667,-2.8333333
apies,,52,42.2166667,-0.4
aplacadoiro,,58,43.1666667,-9.0
aplazadoiro,,58,43.1666667,-9.0
apozaga,,59,43.0333333,-2.5166667
apregacion,,58,42.9666667,-7.8166667
apricano,,59,42.85,-2.8833333
aquilue,,52,42.3833333,-0.4833333
ara,,52,42.5,-0.4666667
arabayona,,55,41.05,-5.3833333
arabejo,,58,43.05,-8.65
arabi,,31,38.6833333,-1.2833333
arabuste,,59,43.2,-3.4166667
aracaldo,,59,43.15,-2.9333333
araceli,,51,38.2333333,-3.7166667
aracena,,51,37.8833333,-6.55
arada,,58,42.8,-7.8166667
aradillos,,39,43.0333333,-4.1333333
araduenga,,55,43.1,-3.1666667
arafo,,53,28.3333333,-16.4166667
aragoncillo,,54,40.9333333,-2.0333333
aragoneses,,55,41.0166667,-4.3833333
aragosa,,54,40.9666667,-2.7166667
araguas,,52,42.4666667,0.1666667
araguas del solano,,52,42.6,-0.6333333
aragues del puerto,,52,42.7,-0.6666667
arahal,18847,51,37.2666667,-5.55
arahos,,56,42.5333333,1.2666667
arahuetes,,55,41.1333333,-3.85
aralla,,55,42.9,-5.8333333
arama,,59,43.0666667,-2.1666667
aramendia,,32,42.7166667,-2.1
aramil,,34,43.3833333,-5.6166667
aramil arriba,,34,43.4,-5.6
aramil de arriba,,34,43.4,-5.6
aramunt,,56,42.2,-1.0
arana,,55,42.7,-2.7166667
arana,,59,43.3,-2.6833333
aranarache,,32,42.7833333,-2.2166667
aran,,58,43.0333333,-8.85
aranaz,,32,43.2,-1.7166667
arancedo,,34,43.5,-6.8166667
arancon,,55,41.8,-2.2833333
aranda,,55,41.6833333,-3.6833333
aranda de duero,30326,55,41.6833333,-3.6833333
aranda de moncayo,,52,41.5833333,-1.7833333
arandiga,,52,41.5166667,-1.5
arandigoyen,,32,42.6666667,-1.9833333
arandilla,,54,40.5166667,-2.3833333
arandilla,,55,41.7333333,-3.4333333
arandilla del arroyo,,54,40.5166667,-2.3833333
arandojo,,34,42.9666667,-6.8333333
aranga,,58,43.2333333,-8.0166667
arangas,,34,43.3333333,-4.8
arango,,34,43.4666667,-6.1666667
arangocillo,,54,40.9333333,-2.0333333
aranguiz,,59,42.8833333,-2.6833333
aranguren,,59,43.1,-2.8666667
araniege,,34,43.2,-6.5833333
araniego,,34,43.2,-6.5833333
aranjuez,45125,29,40.0333333,-3.6
arano,,32,43.2,-1.9
arano,,58,42.7,-8.8
aransa,,56,42.4,1.6666667
aransis,,56,42.0833333,0.9666667
arante,,58,43.4833333,-7.1666667
arantiones,,39,42.8166667,-3.9666667
aranton,,58,43.05,-8.8333333
aranuel,,60,40.0666667,-0.4833333
aranza,,58,42.8666667,-7.2666667
aranzazu,,59,42.9833333,-2.4
aranzazu celaya,,59,43.15,-2.7833333
aranzo,,55,40.9,-5.3
aranzueque,,54,40.4833333,-3.0666667
araoz,,59,43.0,-2.45
arapiles,,55,40.9,-5.6333333
arasan,,52,42.5166667,0.5166667
arasanz,,52,42.35,0.2
aras,,32,42.5666667,-2.35
aras,,60,39.9166667,-1.1333333
aras de alpuente,,60,39.9166667,-1.1333333
arato,,53,28.3333333,-16.4166667
aratores,,52,42.65,-0.5666667
aratz-erreka,,59,43.1333333,-2.2666667
aratz-machinventa,,59,43.1166667,-2.2333333
araujo,,58,41.8833333,-8.0333333
arauzo,,55,40.9,-5.3
arauzo de miel,,55,41.85,-3.3833333
arauzo de salce,,55,41.8166667,-3.4
arauzo de torre,,55,41.8,-3.4166667
aravaca,,29,40.45,-3.7833333
araya,,53,28.3666667,-16.3666667
araya,,59,42.8833333,-2.3166667
araya,,60,40.0666667,-0.2833333
arazuri,,32,42.8166667,-1.7166667
arbacegui,,59,43.2666667,-2.5833333
arbaiza,,59,43.0666667,-2.9166667
arbancon,,54,40.9666667,-3.1166667
arbanies,,52,42.1666667,-0.25
arbas,,34,43.0333333,-6.45
arbeca,,56,41.5333333,0.9333333
arbeiza,,32,42.6666667,-2.0666667
arbeteta,,54,40.6666667,-2.4
arbeyales,,34,43.1,-6.1833333
arbizu,,32,42.9166667,-2.0333333
arbo,,58,42.1166667,-8.3166667
arboces,,34,43.55,-6.8166667
arbol,,58,42.8,-7.9166667
arboleas,,51,37.35,-2.0666667
arboleya,,34,43.4166667,-5.4166667
arboli,,56,41.2333333,-0.95
arboliz,,59,43.3833333,-2.6166667
arbon,,34,43.4833333,-6.6833333
arbonies,,32,42.6833333,-1.25
arbos,,56,41.2666667,1.6
arboset,,56,41.1,0.9666667
arbucias,,56,41.8166667,2.5166667
arbues,,52,42.5,-0.7833333
arbujuelo,,55,41.1333333,-2.3666667
arbulo,,59,42.8666667,-2.5666667
arbuniel,,51,37.6333333,-3.5333333
arca,,58,42.6333333,-8.5
arcabell,,56,42.4333333,1.4833333
arcade,,58,42.3333333,-8.5833333
arcahueja,,55,42.5666667,-5.5
arcallana,,34,43.5166667,-6.3
arcarazo,,59,43.0166667,-2.5
arcas,,54,39.9833333,-2.1166667
arcaule,,59,42.85,-2.6333333
arcaute,,59,42.85,-2.6333333
arcaya,,59,42.8333333,-2.6333333
arcayos,,55,42.6,-5.0333333
arce,,32,42.8666667,-1.3666667
arce,,39,43.4166667,-3.95
arce,,59,43.2666667,-3.1333333
arcediago,,58,42.85,-8.0333333
arcediano,,55,41.0833333,-5.5666667
arcellares,,55,42.7166667,-4.0166667
arceniega,,59,43.1166667,-3.1333333
arcenillas,,55,41.45,-5.6833333
arceo,,55,43.1,-3.3666667
arceo,,58,43.0333333,-8.1666667
arcera,,39,42.8833333,-4.05
archena,16563,31,38.1166667,-1.3
archez,,51,36.8333333,-3.9833333
archidona,9002,51,37.0833333,-4.3833333
archilla,,54,40.6833333,-2.9166667
archivel,,31,38.0666667,-2.0
archs,,56,41.6833333,0.8333333
archurieta,,32,43.0833333,-1.3
arcicollar,,54,40.05,-4.1166667
arcilla,,58,43.1666667,-7.5833333
arcillera,,55,41.6833333,-6.2833333
arcillo,,55,41.4166667,-5.9333333
arciniega,,59,43.1166667,-3.1333333
arco,,34,43.4166667,-6.95
arco,,57,39.8,-6.4
arco,,58,43.0333333,-7.15
arcocha,,59,43.2333333,-2.8666667
arconada,,55,42.3333333,-4.5
arcon,,58,42.9333333,-7.0333333
arconcillos,,55,41.1166667,-3.7333333
arcones,,55,41.1166667,-3.7166667
arcos,,34,43.3666667,-5.85
arcos,,51,36.75,-5.8
arcos,,55,41.2166667,-2.2666667
arcos,,58,42.1833333,-8.4666667
arcos da condesa,,58,42.5833333,-8.6333333
arcos de jalon,,55,41.2166667,-2.2666667
arcos de la cantera,,54,40.1333333,-2.2166667
arcos de la frontera,28754,51,36.75,-5.8
arcos de la polvorosa,,55,41.9333333,-5.7
arcos de la sierra,,54,40.35,-2.1166667
arcos de las salinas,,52,39.9833333,-1.0333333
arcusa,,52,42.3166667,-0.0833333
ardaiz,,32,42.9,-1.45
ardales,,51,36.8666667,-4.85
ardana,,58,43.1833333,-8.6666667
ardan,,58,42.35,-8.7333333
ardanaz,,32,42.7333333,-1.4166667
ardemil,,58,43.1166667,-8.3666667
ardena,,56,41.1666667,1.35
ardenya,,56,41.1666667,1.35
ardesaldo,,34,43.4333333,-6.2833333
ardevila,,58,42.85,-6.9666667
ardevol,,56,41.85,1.5166667
ardia,,58,42.4666667,-8.8666667
ardila,,57,38.1666667,-6.4166667
ardines,,34,43.45,-5.0666667
ardisana,,34,43.3833333,-4.9333333
arditurre,,59,43.2833333,-1.8
arditurri,,59,43.2833333,-1.8
ardon,,55,42.4333333,-5.5666667
ardoncino,,55,42.4833333,-5.6333333
ardonsillero,,55,40.8666667,-6.1333333
area,,58,42.9,-8.3666667
areallana,,34,43.5166667,-6.3
areas,,58,42.0333333,-8.65
arechalde,,59,43.2666667,-2.8333333
arechavaleta,,59,42.8333333,-2.6666667
arecida,,53,28.6833333,-17.9333333
areitio,,59,43.0166667,-2.5166667
arejola,,59,43.05,-2.5833333
arellano,,32,42.6,-2.05
arena,,34,43.5586111,-6.0716667
arenal,,07,39.5,2.75
arenal,,39,43.3333333,-3.8166667
arenales,,51,37.3166667,-3.65
arenales,,53,28.1166667,-15.4
arenales de la moscarda,,54,39.3,-3.0333333
arenales y sevilleja,,51,38.0333333,-3.8333333
aren,,52,42.2666667,-0.7333333
arenas,,34,43.3166667,-5.4
arenas,,39,43.1166667,-4.7166667
arenas,,51,36.8166667,-4.0333333
arenas de cabrales,,34,43.3,-4.8166667
arenas de cabreles,,34,43.3,-4.8166667
arenas de iguna,,39,43.1833333,-4.05
arenas del rey,,51,36.9666667,-3.9
arenas de san juan,,54,39.2166667,-3.5
arenas de san pedro,,55,40.2,-5.0833333
arenaza,,59,43.0166667,-2.4833333
arenill,,55,42.2833333,-5.05
arenillas,,39,42.8166667,-3.9
arenillas,,55,41.35,-2.8333333
arenillas de muno,,55,42.2166667,-3.85
arenillas de nuno perez,,55,42.5166667,-4.5166667
arenillas de perez nuno,,55,42.5166667,-4.5166667
arenillas de riopisuerga,,55,42.35,-4.2333333
arenillas de san pelayo,,55,42.5833333,-4.5833333
arenillas de valderaduey,,55,42.2833333,-5.05
arenillas de villadiego,,55,42.5333333,-3.9833333
arenos,,39,43.1166667,-4.7166667
arenos,,55,43.0,-4.4833333
arens de lledo,,52,40.9833333,0.2666667
arenys de ampurda,,56,42.1666667,2.9666667
arenys de lledo,,52,40.9833333,0.2666667
arenys de mar,13869,56,41.5833333,2.55
arenys de munt,,56,41.6166667,2.55
arenzana de abajo,,27,42.3833333,-2.7166667
arenzana de arriba,,27,42.3833333,-2.6833333
areo,,56,42.5833333,1.3333333
areosa,,58,43.0833333,-8.9833333
areos,,58,42.5833333,-8.9333333
ares,,58,43.4333333,-8.2333333
ares,,60,38.6833333,-0.3166667
ares del maestre,,60,40.45,-0.1333333
areso,,32,43.0833333,-1.95
aresti,,59,43.15,-2.5833333
arestuy,,56,42.5,1.1666667
areta,,59,43.15,-2.9333333
arevalillo de cega,,55,41.1666667,-3.8833333
arevalo,,55,41.0666667,-4.7166667
arevalo de la sierra,,55,41.95,-2.4
arfa,,56,42.3333333,1.4166667
argallon,,51,38.2,-5.4833333
argalo,,58,42.7666667,-8.9166667
argamasilla de alba,,54,39.1166667,-3.1
argamasilla de calatrava,,54,38.7333333,-4.0666667
argamason,,54,38.85,-2.0333333
argame,,34,43.3,-5.8833333
argana,,53,28.9666667,-13.5666667
argancinas,,34,43.2,-6.5833333
arganda,,29,40.3,-3.4333333
argandenes,,34,43.3666667,-5.3333333
argandona,,59,42.8333333,-2.5833333
arganin,,55,41.4333333,-6.2
arganosa,,34,43.4833333,-6.0
arganoso,,34,43.45,-5.5833333
arganoso,,55,42.5166667,-6.2666667
arganza,,34,43.2666667,-6.5
arganza,,55,41.8166667,-3.0833333
arganzua,,34,43.2333333,-6.5333333
argas,,58,42.3833333,-7.3333333
argavieso,,52,42.05,-0.2833333
argayo,,55,42.8166667,-6.5666667
argecilla,,54,40.8833333,-2.8166667
argelaguer,,56,42.2166667,2.65
argelita,,60,40.05,-0.35
argellas,,58,42.75,-8.9166667
argemil,,58,42.8,-7.4333333
argente,,52,40.6833333,-1.1666667
argenteiro,,55,42.6833333,-7.0333333
argentera,,56,41.1333333,0.9166667
argentona,,56,41.55,2.4
arges,,54,39.8,-4.0333333
arges,,55,42.9,-3.6666667
argestues,,56,42.3333333,1.3166667
argilaga,,56,41.2166667,1.3
argiz,,58,42.75,-7.7833333
argolell,,56,42.4333333,1.45
argolellas,,34,43.4,-6.7166667
argolibio,,34,43.25,-5.1166667
argollanes,,34,43.3333333,-5.7666667
argomaniz,,59,42.8666667,-2.5333333
argomeda,,39,43.2666667,-3.9166667
argomedo,,55,42.9833333,-3.7666667
argomilla,,39,43.3,-3.8666667
argomoso,,58,43.4,-7.35
argonos,,39,43.45,-3.4833333
argote,,55,42.7,-2.6666667
argovejo,,55,42.9,-5.1166667
argozon,,58,42.65,-7.8666667
argual,,53,28.65,-17.9166667
arguamul,,53,28.2,-17.2833333
arguayo,,53,28.25,-16.7833333
arguebanes,,39,43.1666667,-4.6666667
arguedas,,32,42.1666667,-1.6
arguedes,,39,43.35,-4.35
arguelles,,34,43.3833333,-5.7166667
arguellite,,54,38.3333333,-2.4166667
arguero,,34,43.5333333,-5.4666667
argueso,,39,43.0333333,-4.2
arguijo,,55,41.9833333,-2.5
arguinano,,32,42.7833333,-1.9166667
arguinariz,,32,42.75,-1.85
arguineguin,,53,27.7666667,-15.6666667
arguiol,,34,43.45,-7.0
arguisal,,52,42.5833333,-0.3166667
arguis,,52,42.3166667,-0.4333333
arguisuelas,,54,39.8333333,-1.8166667
argujillo,,55,41.3166667,-5.5833333
argul,,34,43.2666667,-6.8666667
argumoso,,34,43.5166667,-6.4666667
argusino,,55,41.2666667,-6.2666667
aria,,32,42.95,-1.2666667
ariany,,07,39.65,3.1
arias,,54,40.75,-1.95
arico,,53,28.1666667,-16.4666667
arico el nuevo,,53,28.1666667,-16.4666667
arico nuevo,,53,28.1666667,-16.4666667
arico viejo,,53,28.1833333,-16.4666667
ariego de abajo,,55,42.7833333,-5.9666667
ariego de arriba,,55,42.7833333,-5.9666667
arienza,,55,42.8166667,-6.0
ariestolas,,52,41.9666667,0.2
arija,,55,42.9833333,-3.95
arinaga,,53,27.8666667,-15.3833333
arines,,58,42.8666667,-8.5
arinez,,59,42.8333333,-2.75
arino,,52,41.0333333,-0.6
arintero,,55,42.95,-5.3666667
arinzue,,52,42.5833333,0.1666667
aripe,,53,28.2,-16.75
aris,,58,42.45,-8.6833333
ariscos,,55,40.85,-5.6666667
arisgotas,,54,39.6333333,-3.9166667
aristebano,,34,43.4333333,-6.5333333
aristot,,56,42.3833333,1.6333333
aristregui,,32,42.9,-1.7333333
aritzalde,,59,42.95,-2.2666667
arive,,32,42.95,-1.25
ariza,,52,41.3166667,-2.05
arizala,,32,42.7333333,-2.0
arizaleta,,32,42.75,-1.9666667
arizcun,,32,43.1666667,-1.4833333
arizgoiti,,59,43.2333333,-2.8833333
ariztegui de garzain,,32,43.1333333,-1.5166667
arizu,,32,42.9833333,-1.6166667
arjona,,51,37.9333333,-4.05
arjonilla,,51,37.9666667,-4.1
arlana,,60,39.8833333,-0.25
arlanza,,55,42.6666667,-6.4166667
arlanzon,,55,42.3166667,-3.45
arlegui,,32,42.75,-1.6666667
arlos,,34,43.4833333,-5.9
arlucea,,59,42.7333333,-2.5333333
armada,,34,43.0333333,-5.85
armada,,55,42.9666667,-5.25
armadas,,56,41.9,3.1666667
armal,,34,43.4333333,-6.8
armallones,,54,40.7333333,-2.3
armananzas,,32,42.5666667,-2.2833333
arman,,58,43.0166667,-8.9
armanella,,60,38.5333333,-0.1
armanello,,60,38.5333333,-0.1
armano,,39,43.1833333,-4.6
armariz,,58,42.2333333,-7.75
armayor,,34,43.5333333,-6.15
armea,,58,42.8333333,-7.3166667
armear,,58,43.0666667,-9.1833333
armejun,,55,42.1,-2.1666667
armellada,,55,42.55,-5.8666667
armenande,,34,43.2333333,-6.7333333
armental,,34,43.5166667,-6.7166667
armental,,58,42.4666667,-7.8166667
armentera,,56,42.1666667,3.0833333
armentera,,58,42.4666667,-8.7333333
armenteros,,55,40.6,-5.45
armentia,,55,42.7166667,-2.7
armentia,,59,42.8333333,-2.7
armenton,,58,43.2833333,-8.55
armenton de arriba,,58,43.2833333,-8.5333333
armeses,,58,42.4,-8.0
armesnal,,55,41.2,-5.9166667
armesto,,58,42.8333333,-7.1833333
armiello,,34,43.2166667,-5.7
armilda,,34,43.15,-6.9166667
armilda,,58,43.1166667,-6.9666667
armilla,15934,51,37.15,-3.6166667
armillas,,52,40.8833333,-0.8833333
arminon,,59,42.7166667,-2.8666667
arminza,,59,43.4333333,-2.9
armuna,,55,41.0833333,-4.3166667
armuna de almanzora,,51,37.35,-2.4
armuna de tajuna,,54,40.5333333,-3.0333333
armunia,,55,42.5833333,-5.5833333
arnadelo,,55,42.55,-6.9
arnado,,55,42.5333333,-7.0166667
arnado,,58,42.4,-7.0166667
arnao,,34,43.5780556,-5.9747222
arne,,34,43.3333333,-6.9166667
arnedillo,,27,42.2166667,-2.2333333
arnedo,14299,27,42.2166667,-2.1
arnedo,,55,42.9666667,-3.9
arnego,,58,42.5833333,-7.9666667
arneguy,,32,43.1166667,-1.2833333
arnes,,56,40.9,0.2666667
arneva,,60,38.05,-0.9333333
arnilla,,51,37.2833333,-1.85
arnizo,,34,43.4833333,-6.6166667
arnois,,58,42.7666667,-8.4
arnoso,,58,42.1666667,-8.55
arnoya,,58,42.25,-8.1333333
arnuero,,39,43.4666667,-3.5666667
arnuid,,58,42.2,-7.6166667
aro,,58,42.9166667,-8.7833333
arobes,,34,43.3666667,-5.2
aroche,,51,37.95,-6.95
aroco,,39,42.8666667,-4.0333333
arona,44838,53,28.0833333,-16.6666667
arosa,,58,42.5666667,-8.8833333
arostegui,,32,42.9333333,-1.6833333
arosteguieta,,59,43.1333333,-2.75
arou,,58,43.2,-9.1
arquide,,58,43.1833333,-7.0833333
arquillina,,34,43.5166667,-6.2833333
arquillinos,,55,41.7166667,-5.65
arquillos,,51,38.1833333,-3.4333333
arquillos el viejo,,51,38.1666667,-3.4333333
arquinano,,32,42.7833333,-1.9166667
arra,,58,42.4,-8.8333333
arrabal,,52,41.6666667,-0.8666667
arrabal,,54,39.95,-1.3666667
arrabalde,,55,42.1166667,-5.8833333
arrabal de benablon,,31,38.0666667,-1.9166667
arrabalde de vidriales,,55,42.1166667,-5.8833333
arrabal de jesus,,56,40.8333333,0.5166667
arrabal de la barceloneta,,56,41.3166667,1.9166667
arrabal de la leche,,56,40.8,0.5333333
arrabal del puente,,55,40.6,-6.5333333
arrabal de portillo,,55,41.4666667,-4.5833333
arrabal de san francisco,,55,40.6,-6.5166667
arrabaldo,,58,42.35,-8.0
arrabal las matas,,56,41.5,1.9
arrabel de la encarnacion,,31,38.0333333,-1.8833333
arraco,,07,39.5666667,2.3833333
arraibi,,59,43.2,-2.7666667
arraiza,,32,42.7666667,-1.8
arraiz-orquin,,32,43.0,-1.6333333
arrancacepas,,54,40.3,-2.35
arraras,,32,43.0333333,-1.8
arraya de oca,,55,42.4166667,-3.4
arrayan,,31,38.2666667,-1.8833333
arrayanes,,51,38.1333333,-3.6166667
arrayoz,,32,43.15,-1.5666667
arrazcazan de lecaroz,,32,43.15,-1.55
arrazola,,59,43.1,-2.5666667
arre,,32,42.8333333,-1.6
arreba,,55,42.8833333,-3.75
arrecife,,51,37.7,-4.9
arrecife,48968,53,28.95,-13.5333333
arredondas,,34,43.3833333,-7.1166667
arredondo,,39,43.2666667,-3.6
arresa,,52,42.5,-0.1
arres,,52,42.55,-0.8166667
arres,,56,42.75,0.7333333
arriaga,,59,42.8666667,-2.6666667
arriaran,,59,43.0666667,-2.2333333
arriate,,51,36.8,-5.15
arriba,,32,43.0333333,-1.9833333
arriba,,34,43.4,-5.6
arriba,,58,42.5833333,-7.7333333
arrielas,,59,42.9833333,-2.3
arriestola,,52,41.9666667,0.2
arrieta,,32,42.9166667,-1.3666667
arrieta,,53,29.1333333,-13.45
arrieta,,55,42.7666667,-2.7166667
arrieta,,59,42.8666667,-2.4666667
arrietas,,59,42.9833333,-2.3
arrigorriaga,11118,59,43.2,-2.8833333
arrigunaga,,59,43.2,-2.8833333
arriola,,59,42.9166667,-2.3833333
arriondas,,34,43.3833333,-5.1833333
arriondo,,34,43.4,-5.4166667
arriquibar,,59,43.0833333,-2.75
arriquivar,,59,43.0833333,-2.75
arrizala,,59,42.8333333,-2.3666667
arro,,52,42.4,0.2333333
arro,,56,42.75,0.7166667
arroba,,54,39.15,-4.5333333
arroes,,34,43.5166667,-5.5166667
arrofranco,,57,40.3666667,-6.1166667
arrojina,,58,42.9333333,-7.0666667
arrojo,,34,43.1833333,-5.9833333
arrojo,,58,42.9,-7.25
arrolobos,,57,40.3833333,-6.1666667
arrona,,59,43.25,-2.2666667
arronategui,,59,43.4,-2.75
arrondoa,,59,43.0,-2.1833333
arroniz,,32,42.5833333,-2.0833333
arronte,,39,43.3333333,-3.6833333
arros,,56,42.5833333,1.25
arroturas,,51,38.05,-3.0333333
arroyabe,,59,42.9166667,-2.6166667
arroyal,,39,42.9166667,-4.0666667
arroyal,,55,42.4166667,-3.75
arroyo,,34,43.4166667,-5.85
arroyo,,39,42.9666667,-4.05
arroyo,,51,37.9,-6.8
arroyo,,55,41.6166667,-4.8
arroyo blanco,,31,38.1666667,-2.1833333
arroyo cerezo,,60,40.1166667,-1.4166667
arroyo de cuellar,,55,41.3333333,-4.3666667
arroyo de la luz,,57,39.4833333,-6.5833333
arroyo de la miel,,51,36.6,-4.5333333
arroyo de la plata,,51,37.6666667,-6.25
arroyo de las fraguas,,54,41.1,-3.1166667
arroyo del gato,,57,38.95,-5.6833333
arroyo del moro y los cotos,,57,38.05,-6.3
arroyo del ojanco,,51,38.3166667,-2.8833333
arroyo del puerco,,57,39.4833333,-6.5833333
arroyo de muno,,55,42.25,-3.9
arroyo de salas,,55,42.0666667,-3.2666667
arroyo de san servan,,57,38.85,-6.45
arroyo de san zadornil,,55,42.85,-3.1666667
arroyo de valdivielso,,55,42.8333333,-3.5166667
arroyofrio,,52,40.2333333,-1.4833333
arroyofrio,,54,38.4166667,-2.5333333
arroyomolinos,,29,40.2666667,-3.9
arroyo molinos,,51,37.7333333,-3.0166667
arroyomolinos de la vera,,57,40.05,-5.85
arroyomolinos de leon,,51,38.0166667,-6.4166667
arroyomolinos de montanchez,,57,39.1833333,-6.1666667
arroyomuerto,,55,40.5333333,-6.05
arroyo-pinares,,51,37.2833333,-3.9833333
arroyo salado,,51,37.95,-3.1333333
arroyo santo,,51,37.6833333,-3.2833333
arroyos,,51,38.0,-2.95
arroyuelo,,55,42.8333333,-3.3833333
arroyuelos,,39,42.8333333,-3.85
arruazu,,32,42.9166667,-2.0
arrubal,,27,42.4333333,-2.25
arrubial,,58,42.95,-7.2833333
arruiz,,32,43.0,-2.85
arrunada,,34,43.3166667,-6.9166667
arta,,07,39.7,3.35
arta,,59,43.2333333,-2.5333333
artabia,,32,42.7333333,-2.0833333
artaiz,,32,42.75,-1.4666667
artaj,,60,39.8,-0.7833333
artajo,,32,42.7333333,-1.3333333
artajona,,32,42.5833333,-1.7666667
artana,,60,39.8833333,-0.25
artariain,,32,42.6166667,-1.5666667
artaso,,52,42.4666667,-0.5333333
artasona,,52,42.1333333,0.25
artavia,,32,42.7333333,-2.0833333
artaza,,32,42.7666667,-2.1
artaza,,59,42.85,-2.9666667
artazcoz,,32,42.8166667,-1.7833333
artazu,,32,42.7,-1.8333333
arteaga,,32,42.6833333,-2.1
arteaga,,54,38.65,-2.2666667
arteaga de abajo,,54,38.65,-2.2666667
arteaga de arriba,,54,38.65,-2.2666667
arteas de abajo,,60,39.9166667,-0.75
artecalle,,59,43.1,-2.5833333
artedara,,53,27.85,-15.5666667
artedo,,34,43.5333333,-6.2166667
artedosa,,34,43.3,-5.4
arteijo,,58,43.3,-8.5
artenara,,53,28.0166667,-15.6333333
arteos,,34,43.1833333,-5.7
artesa,,60,39.95,-0.2833333
artesa de lerida,,56,41.55,0.7
artesa de segre,,56,41.9,1.05
artes,,56,41.8,1.95
artes,,58,42.5833333,-9.0
arteta,,32,42.8666667,-1.8666667
arteta,,59,43.2166667,-2.85
artica,,32,42.8333333,-1.65
articas,,59,43.3666667,-2.5166667
articuza,,32,43.2166667,-1.8
artieda,,32,42.7166667,-1.3166667
artieda,,52,42.6166667,-0.9833333
arties,,56,42.7,0.8666667
artieta,,55,43.1166667,-3.1833333
artigas,,59,43.4,-2.7166667
artiturri,,59,43.2833333,-1.8
arto,,52,42.45,-0.4
artomana,,59,42.9833333,-2.9833333
arton,,58,43.1,-8.9333333
artono,,58,42.8166667,-8.0333333
artosa,,34,43.5166667,-6.6166667
arucas,35344,53,28.1166667,-15.5166667
arues,,52,42.2666667,0.3166667
arure,,53,28.1166667,-17.3
arviza,,27,42.3666667,-3.0
arviza barrena,,27,42.3666667,-3.0
arzadigos,,58,41.8666667,-7.3166667
arzalde,,59,43.4166667,-2.8166667
arzoa,,58,41.9333333,-7.2
arzoz,,32,42.75,-1.8833333
arzua,,58,42.9333333,-8.15
arzuaga,,59,43.0833333,-2.75
arzubiaga,,59,42.8833333,-2.6166667
asados,,58,42.6833333,-8.7833333
asadur,,58,42.2833333,-7.6
asalo,,58,43.3,-8.8666667
asar,,58,42.9666667,-6.8833333
asarta,,32,42.65,-2.25
ascara,,52,42.5666667,-0.65
ascarraga,,32,43.1166667,-1.6666667
ascarza,,55,42.7666667,-2.7
ascarza,,59,42.8333333,-2.6166667
ascaso,,52,42.4833333,0.05
asco,,56,41.1833333,0.5666667
asemendi,,59,42.95,-2.2833333
asenso,,58,42.9,-8.9666667
asfarrapa,,58,42.8166667,-7.2833333
asiain,,32,42.8333333,-1.7833333
asiego,,34,43.3333333,-4.85
asieso,,52,42.5833333,-0.5666667
asin de brote,,52,42.5333333,-0.1166667
asin de broto,,52,42.5333333,-0.1166667
asma,,58,42.5666667,-7.8833333
asnurri,,56,42.4333333,1.4166667
asoberal,,52,42.6166667,-0.9166667
aso de sobremonte,,52,42.6333333,-0.3666667
ason,,39,43.2333333,-3.6
asorey,,58,42.7666667,-8.15
aso-veral,,52,42.6166667,-0.9166667
aspa,,56,41.5,0.6833333
aspariegos,,55,41.6833333,-5.6
asparrena,,59,42.8833333,-2.3166667
aspay,,58,43.0833333,-7.6666667
aspe,19430,60,38.35,-0.7666667
asperelo,,58,42.6166667,-7.9333333
aspilla,,51,37.5666667,-2.3166667
aspiroz,,32,43.0333333,-1.9333333
aspra,,34,43.55,-6.7
asprillas,,60,38.2166667,-0.65
aspuru,,59,42.9166667,-2.4333333
aspurz,,32,42.7166667,-1.15
asque,,52,42.1666667,0.05
asques,,52,42.6,-0.4166667
asso veral,,52,42.6166667,-0.9166667
astariz,,58,42.3166667,-8.0333333
asteasu,,59,43.2,-2.1
asteguieta,,59,42.8666667,-2.7166667
astelarra,,59,43.2833333,-2.6833333
astell,,56,42.4,0.9666667
asterrica,,59,43.3166667,-2.45
astigarraga,,59,43.2833333,-1.95
astigarreta,,59,43.0833333,-2.2333333
astillero,,39,43.4,-3.8166667
astiz,,32,42.9666667,-2.8833333
astobiza,,59,43.0333333,-2.9166667
astola,,59,43.1666667,-2.6166667
astorecas,,59,43.2833333,-2.7666667
astorga,12037,55,42.45,-6.05
astoviza,,59,43.0333333,-2.9166667
astrabudua,,59,43.3166667,-2.9833333
astrain,,32,42.75,-1.7333333
astrana,,39,43.2,-3.55
astudillo,,55,42.2,-4.3
astulez,,59,42.8833333,-3.0833333
astureses,,58,42.45,-8.1
asturianos,,55,42.05,-6.4833333
asua,,59,43.3,-2.9333333
asun,,52,42.6166667,-0.3833333
atajate,,51,36.6333333,-5.2333333
atalaya,,31,37.5833333,-1.4166667
atalaya,,52,40.1333333,-0.7333333
atalaya,,57,38.3333333,-6.4666667
atalaya de cuenca,,54,39.9833333,-2.05
atalaya del canavate,,54,39.5166667,-2.2333333
atalayas,,51,36.8333333,-4.15
atalayon,,31,37.5333333,-1.1333333
atalbeitar,,51,36.9333333,-3.3
atallo,,32,43.05,-1.9833333
atamaria,,31,37.6,-0.8
atan,,58,42.5,-7.7
atanes,,58,42.0166667,-7.5666667
atapuerca,,55,42.3666667,-3.5
ataquines,,55,41.1833333,-4.8
atares,,52,42.5333333,-0.6166667
atarfe,11535,51,37.2166667,-3.6833333
ataun,,59,43.0,-2.1666667
atauri,,59,42.7333333,-2.4166667
atauta,,55,41.5333333,-3.2
atazar,,29,40.9333333,-3.4666667
atea,,52,41.1666667,-1.55
ateca,,52,41.3333333,-1.7833333
atiega,,59,42.8166667,-3.0
atienza,,54,41.2,-2.8666667
atios,,58,42.1333333,-8.6
atogo,,53,28.05,-16.5833333
atondo,,32,42.8833333,-1.8166667
atras,,34,43.4333333,-5.6166667
atrave,,58,41.9,-7.2
aubert,,56,42.7333333,0.7833333
aucella,,58,42.7833333,-6.9333333
audanzas,,55,42.1666667,-5.7166667
audanzas del valle,,55,42.1666667,-5.7166667
audicana,,59,42.8833333,-2.4833333
aulabar,,51,37.7166667,-3.35
aulago,,51,37.15,-2.6166667
aulestia,,59,43.3,-2.5666667
aunon,,54,40.5166667,-2.8
aurin,,52,42.5333333,-0.35
ausejo,,27,42.35,-2.1666667
ausejo de la sierra,,55,41.9,-2.3666667
autilla del pino,,55,41.9833333,-4.6333333
autillo de campos,,55,42.0833333,-4.8333333
autol,,27,42.2166667,-2.0
auza,,32,42.9833333,-2.7
auzochiquia,,59,43.1166667,-2.0833333
avedillo de sanabria,,55,42.0666667,-6.7166667
aveinte,,55,40.7833333,-4.8333333
avellanar,,57,40.3666667,-6.3333333
avellaneda,,27,42.1666667,-2.4166667
avellaneda,,55,40.3833333,-5.3833333
avellaneda,,59,43.2333333,-3.15
avellaneda-sopuerta,,59,43.2333333,-3.15
avellanedo,,39,43.0666667,-4.5166667
avellanes,,56,41.9,0.7666667
avellanosa del paramo,,55,42.4666667,-3.8666667
avellanosa de muno,,55,41.9833333,-3.8166667
avellanosa de rioja,,55,42.3666667,-3.0833333
avenales,,55,41.1666667,-2.3166667
aveno,,34,43.4,-5.6
avia,,56,42.0666667,1.85
aviados,,55,42.8666667,-5.4333333
avila,49408,55,40.65,-4.7
avila de los caballeros,,55,40.65,-4.7
avila de los santos,,55,40.65,-4.7
aviles,,31,37.9,-1.8
aviles,81984,34,43.5569444,-5.9247222
avileses,,31,37.85,-0.9333333
avililla de la sierra,,55,40.6833333,-6.0333333
avin,,34,43.3333333,-4.95
avinazas,,51,38.1166667,-3.25
avinonet,,56,42.25,2.9166667
avinonet de puig ventos,,56,42.25,2.9166667
avinyo,,56,41.8666667,1.9666667
avinyonet,,56,41.35,1.7833333
avion,,58,42.3833333,-8.25
axpe,,59,43.1166667,-2.6
axpe de busturia,,59,43.3833333,-2.7
aya,,59,42.95,-2.15
ayabarrena,,27,42.25,-3.05
ayacor,,60,38.9666667,-0.5666667
ayamonte,17026,51,37.2166667,-7.4
ayarza,,59,43.1833333,-2.6
ayaz,,58,42.6333333,-7.5833333
ayazaza,,59,43.1333333,-2.9333333
ayazo,,58,43.0166667,-8.2666667
aydi,,56,42.5166667,1.2
ayegui,,32,42.65,-2.0333333
ayelo de malferit,,60,38.8833333,-0.5833333
ayelo de rugat,,60,38.8833333,-0.0333333
ayera,,52,42.1666667,-0.3
ayerbe,,52,42.2833333,-0.6833333
ayerbe de broto,,52,42.55,-0.1333333
ayesa,,32,42.5666667,-1.4166667
ayguafreda,,56,41.7666667,2.25
aylagas,,55,41.7166667,-3.0
ayllon,,55,41.4166667,-3.3666667
ayna,,54,38.55,-2.0833333
ayodar,,60,40.0,-0.3666667
ayoluengo,,55,42.75,-3.8666667
ayones,,34,43.3333333,-5.8833333
ayoo de vidriales,,55,42.1333333,-6.0666667
ayora,,60,39.0666667,-1.05
ayos,,58,42.4166667,-8.85
aytona,,56,41.4833333,0.4666667
ayuela,,39,43.3333333,-4.2666667
ayuela,,55,42.6333333,-4.65
ayuelas,,55,42.7,-3.0333333
azabal,,57,40.3,-6.3
azaceta,,59,42.7833333,-2.5
azadinos,,55,42.6333333,-5.6166667
azadon,,55,42.6333333,-5.8
azafa,,60,38.3,-0.7666667
azafranes,,51,36.8166667,-4.0166667
azagala,,57,39.2166667,-6.85
azagra,,32,42.3,-1.9
azaila,,52,41.2833333,-0.4833333
azano,,53,28.5666667,-16.2166667
azanon,,54,40.6833333,-2.5333333
azanuy,,52,41.9666667,0.3166667
azanza,,32,42.8333333,-1.85
azapanes,,51,36.8166667,-4.0166667
azara,,52,42.0666667,-0.0333333
azaraque,,31,37.8333333,-1.4666667
azares del paramo,,55,42.2833333,-5.8333333
azarrulla,,27,42.2666667,-3.0333333
az,,58,42.7166667,-7.95
azcamellas,,55,41.1333333,-2.4166667
azcarate,,32,43.0333333,-2.0
azcaray,,59,43.1833333,-3.0333333
azcoaga,,59,43.0333333,-2.55
azcoitia,,59,43.1833333,-2.3
azcona,,32,42.7333333,-1.9833333
azlor,,52,42.1,-0.0333333
aznacollar,,51,37.5166667,-6.2666667
aznalcazar,,51,37.3061111,-6.2480556
aznalcollar,,51,37.5166667,-6.2666667
azofra,,27,42.4166667,-2.8
azohia,,31,37.55,-1.1666667
azonos,,39,43.4333333,-3.9
azorera,,34,43.2,-6.35
azores,,51,37.4833333,-2.5666667
azoz,,32,42.85,-1.6333333
azpa,,32,42.8,-1.5166667
azparren,,32,42.8833333,-1.2666667
azpeitia,13854,59,43.1833333,-2.2666667
azperiz,,58,42.7166667,-8.0333333
azpilcueta,,32,43.1833333,-1.5
azpiroz,,32,43.0333333,-1.9333333
azqueta,,32,42.6333333,-2.0833333
azquizu,,59,43.3,-2.2333333
aztiria,,59,43.0333333,-2.3
azua,,59,42.9166667,-2.5666667
azuaga,8435,57,38.2666667,-5.6833333
azuara,,52,41.25,-0.8666667
azucaica,,54,39.9,-3.9666667
azucarera,,51,37.4666667,-2.7333333
azuebar,,60,39.8333333,-0.3666667
azuel,,51,38.3166667,-4.3166667
azuelo,,32,42.6,-2.35
azuer,,54,39.0333333,-3.5
azumara,,58,43.1833333,-7.3833333
azuqueca,,54,40.5666667,-3.2666667
azuqueca de henares,24117,54,40.5666667,-3.2666667
azutan,,54,39.7833333,-5.1166667
baamonde,,58,43.1833333,-7.7666667
baamorto,,58,42.5666667,-7.5333333
baamud,,58,43.1833333,-7.7666667
babel,,60,38.3333333,-0.05
babilafuente,,55,40.9666667,-5.4166667
babio,,58,43.3166667,-8.25
bacaicoa,,32,42.8833333,-2.1
bacamorta,,52,42.3666667,0.4166667
bacares,,51,37.2666667,-2.45
bacarot,,60,38.3333333,-0.55
bachicabo,,59,42.7833333,-3.0666667
bacor,,51,37.5333333,-2.95
bacoy,,58,43.55,-7.3833333
bacurin,,58,42.9666667,-7.6833333
bada,,34,43.35,-5.15
badaguas,,52,42.5833333,-0.4666667
badain,,52,42.55,0.1833333
badajoz,133042,57,38.8833333,-6.9666667
badalona,222413,56,41.45,2.25
badames,,39,43.35,-3.4833333
badaran,,27,42.3666667,-2.8
badenas,,52,41.0833333,-1.1166667
badernado,,58,42.8,-9.0833333
badilla,,55,41.45,-6.25
badolatosa,,51,37.3,-4.6666667
badostain,,32,42.8,-1.5833333
badules,,52,41.15,-1.25
badulla,,51,37.85,-3.4666667
baells,,52,41.95,0.4666667
baena,19349,51,37.6166667,-4.3166667
baeza,15149,51,37.9833333,-3.4666667
baezuela,,29,40.45,-3.4333333
baga,,56,42.25,1.8666667
bagerque,,56,42.7166667,0.9166667
baget,,56,42.3166667,2.4833333
bagude,,58,42.7833333,-7.6666667
baguena,,52,41.05,-1.35
bagues,,52,42.5666667,-0.9333333
bagueste,,52,42.3333333,-0.0333333
baguio,,59,43.4166667,-2.8166667
bagur,,56,41.95,3.2166667
bahabon,,55,41.4833333,-4.2833333
bahabon de esgueva,,55,41.8666667,-3.7333333
bahilio,,55,42.45,-4.5833333
bahillo,,55,42.45,-4.5833333
bahina,,58,42.1,-8.85
bahinas,,34,43.5166667,-6.4166667
baides,,54,41.0,-2.7666667
bailen,17660,51,38.1,-3.7666667
baillo,,55,42.2833333,-6.4666667
bailo,,52,42.5166667,-0.8
baina,,34,43.2833333,-5.8333333
baina,,58,42.8166667,-8.05
bainas,,58,43.0333333,-9.0166667
bais,,58,42.8,-8.0333333
baiste,,58,42.45,-8.2833333
baizana,,58,43.1,-8.95
bajada,,34,43.3833333,-6.8833333
bajamar,,53,28.5333333,-16.3333333
bajauri,,55,42.65,-2.5666667
bajelas,,58,42.4333333,-7.0333333
bajeles,,58,42.4333333,-7.0333333
bajondillo,,55,40.3833333,-4.8
balaguer,14207,56,41.7833333,0.8166667
balalcazar,,51,38.5666667,-5.1666667
balax,,51,37.4,-2.6666667
balazote,,54,38.8833333,-2.1333333
balbacienta,,39,43.3666667,-3.3
balbacil,,54,41.05,-2.1
balbaina,,51,36.6833333,-6.2333333
balbarda,,55,40.6333333,-4.9666667
balbin,,34,43.6166667,-5.8166667
balboa,,55,42.7166667,-6.9166667
balboa,,58,42.75,-7.8166667
balconchan,,52,41.0833333,-1.45
balcones,,51,37.9666667,-2.4666667
balconete,,54,40.65,-2.8833333
baldazos,,31,37.6833333,-1.6
balde,,58,42.3666667,-8.2
baldellou,,52,41.9166667,0.55
baldio de la grulla,,57,38.2,-6.1333333
baldoma,,56,41.9166667,1.0166667
baldornon,,34,43.45,-5.6
baldovar,,60,39.9,-1.0333333
baldranes,,58,42.0666667,-8.5833333
baldriz,,58,42.0333333,-7.5333333
balea,,58,42.25,-8.7916667
balenya,,56,41.8166667,2.2166667
balerina,,51,36.7333333,-2.8833333
balerma,,51,36.7333333,-2.8833333
baliarrain,,59,43.0666667,-2.1166667
balisa,,55,41.0166667,-4.4166667
ballerias,,52,41.9,-0.15
ballestar,,60,40.6666667,0.1833333
ballestero,,54,38.85,-2.45
ballesteros,,54,39.2666667,-3.9666667
ballestro,,54,38.85,-2.45
balleta,,56,42.35,3.1166667
ballobar,,52,41.6166667,0.2
balloria,,34,43.4333333,-6.3
ballota,,34,43.55,-6.3166667
balluncar,,55,41.4333333,-2.5333333
balmonte,,34,43.45,-6.9333333
balmonte,,58,43.1666667,-7.4
balneario,,60,38.8166667,-0.6166667
balneario jabalcuz,,51,37.7333333,-3.8166667
balneario la aliseda,,51,38.3333333,-3.5833333
baloira,,58,42.7166667,-8.5166667
balones,,60,38.7333333,-0.3333333
balonga,,31,38.2666667,-1.1
balonga,,58,43.15,-7.2833333
balongo,,58,42.1833333,-8.1333333
balouta,,55,42.9,-6.8
balsa,,58,42.7666667,-7.25
balsa de ves,,54,39.2666667,-1.2
balsa-pintada,,31,37.75,-1.1
balsareny,,56,41.8666667,1.8833333
balsares,,60,38.25,-0.5666667
balseiro,,58,42.3833333,-8.6333333
balsera,,34,43.5,-6.4166667
balsicas,,31,37.8166667,-0.95
balsillas,,51,37.3666667,-2.7666667
balsoma,,58,42.9333333,-8.5
baltanas,,55,41.9333333,-4.25
baltar,,58,41.95,-7.7166667
balteiro,,58,42.6333333,-9.0
baltezana,,39,43.3333333,-3.1666667
balzain,,51,37.1,-3.55
bama,,58,42.8833333,-8.3666667
bamba,,55,41.4666667,-5.6166667
bamio,,58,42.6333333,-8.75
bamiro,,58,43.1333333,-8.9666667
banaguas,,52,42.5833333,-0.5833333
banalbufar,,07,39.6833333,2.5166667
banares,,27,42.4666667,-2.9166667
banaries,,52,42.1333333,-0.4666667
banastas,,52,42.1833333,-0.45
bances,,34,43.5,-6.1166667
bandadas,,55,40.55,-4.85
banda de las rosas,,53,28.15,-17.25
bandalies,,52,42.1666667,-0.3
bandaneira,,58,43.0333333,-9.0833333
bande,,58,42.0333333,-7.9666667
bandeira,,58,42.7333333,-8.3
bando,,58,42.8833333,-8.4666667
bandoja,,58,43.2166667,-8.1333333
banecidas,,55,42.4833333,-5.1
baneras,,56,41.2833333,1.5833333
baneras,,60,38.7166667,-0.65
baneres,,60,38.7166667,-0.65
banga,,58,42.4,-8.1166667
bangueses de abajo,,58,42.1,-8.05
bangueses de arriba,,58,42.1,-8.05
baniel,,55,41.5333333,-2.4833333
bano,,58,42.6333333,-8.55
banobarez,,55,40.85,-6.6
banolas,,56,42.1166667,2.7666667
banoles,,56,42.1166667,2.7666667
banon,,52,40.8333333,-1.1833333
banos,,55,41.9166667,-4.4666667
banos,,57,40.3166667,-5.85
banos,,58,41.9833333,-7.9666667
banos de alicun de las torres,,51,37.5166667,-3.1
banos de archena,,31,38.1333333,-1.3
banos de cerrato,,55,41.9166667,-4.4666667
banos de ebro,,59,42.5333333,-2.6666667
banos de encina,,51,38.1666667,-3.7666667
banos de la encina,,51,38.1666667,-3.7666667
banos del agua hedionda,,51,37.6833333,-3.95
banos de la pena,,55,42.7333333,-4.65
banos de molgas,,58,42.2333333,-7.6666667
banos de montemayor,,57,40.3,-5.8333333
banos de panticosa,,52,42.7666667,-0.2333333
banos de rioja,,27,42.5166667,-2.95
banos de rio tobia,,27,42.3333333,-2.75
banos de sierra elvira,,51,37.2166667,-3.7
banos de tajo,,54,40.7166667,-1.9666667
banos de valdearados,,55,41.7666667,-3.55
banos de vilo,,51,36.95,-4.2
banos de zujar,,51,37.6,-2.8166667
banuegues,,34,43.6333333,-5.8166667
banuelos,,54,41.2833333,-2.9166667
banuelos de bureba,,55,42.5,-3.2833333
banuelos del rudron,,55,42.6833333,-3.85
banugues,,34,43.6333333,-5.8166667
banuncias,,55,42.4666667,-5.6333333
banzas,,58,42.8833333,-8.9166667
bao,,58,42.25,-7.15
baones,,34,43.5166667,-5.65
baos,,34,43.5,-6.2666667
baos,,58,43.0,-9.0
baquedano,,32,42.7833333,-2.1166667
baquerin de campos,,55,42.0166667,-4.7833333
baquio,,59,43.4166667,-2.8166667
bara,,52,42.3333333,-0.1166667
baracaldo,,59,43.3,-2.9833333
baradal,,34,43.3166667,-6.35
barago,,39,43.0666667,-4.6166667
baraguas,,52,42.5833333,-0.4833333
barahona,,55,41.3,-2.65
barahona de fresno,,55,41.35,-3.5666667
barahona del fresno,,55,41.35,-3.5666667
baraibar,,32,43.0,-1.9166667
barainca,,59,43.35,-2.5666667
barajas,,29,40.4833333,-3.5833333
barajas,,55,40.3666667,-5.15
barajas de madrid,,29,40.4833333,-3.5833333
barajas de melo,,54,40.1166667,-2.9166667
barajas madrid,,29,40.4833333,-3.5833333
barajores,,55,42.7666667,-4.6666667
barajuen,,59,43.05,-2.55
baralla,,58,42.8833333,-7.25
barallobre,,58,43.45,-8.1833333
barambio,,59,43.05,-2.9166667
baranain,22264,32,42.8,-1.6666667
baran,,58,42.75,-7.5166667
baranda,,55,43.0166667,-3.5
barandon,,34,43.3333333,-6.75
barangon,,58,43.1333333,-7.2
barantes,,58,42.4166667,-7.5833333
barasoain,,32,42.6,-1.65
barazon,,58,42.8666667,-8.0166667
barbadanes,,58,42.3,-7.8833333
barbadelo,,58,42.7666667,-7.45
barbadillo,,55,40.9333333,-5.8666667
barbadillo de herreros,,55,42.15,-3.1666667
barbadillo del mercado,,55,42.0333333,-3.35
barbadillo del pez,,55,42.1166667,-3.2333333
barbain,,58,42.6833333,-7.45
barbalimpia,,54,39.9833333,-2.3333333
barbalos,,55,40.6833333,-5.9333333
barbantes,,58,42.35,-8.0
barbara,,56,41.4,1.2333333
barbarias,,59,43.0,-2.2833333
barbarin,,32,42.6,-2.1
barbarroja,,60,38.2833333,-0.9666667
barbaruens,,52,42.5,0.4
barbastro,15598,52,42.0333333,0.1333333
barbate,22524,51,36.1897222,-5.9216667
barbate de franco,,51,36.1897222,-5.9216667
barbatona,,54,41.0666667,-2.5833333
barbegal,,52,41.95,0.0
barbeira,,58,42.9833333,-8.8833333
barbeiros,,58,43.0666667,-8.3333333
barbeito,,58,43.0666667,-8.15
barbeitos,,58,43.15,-7.0166667
barbens,,56,41.6666667,1.0166667
barbenuta,,52,42.6,-0.3
barboles,,52,41.7166667,-1.1833333
barbolla,,55,41.3333333,-3.6666667
barbos,,58,43.6833333,-7.8166667
barboya,,55,41.3333333,-3.6666667
barbud,,58,42.7333333,-8.45
barbudo,,58,42.3666667,-8.4833333
barbues,,52,41.9833333,-0.4166667
barbunales,,52,42.0166667,-0.0833333
barca,,34,43.3,-6.3666667
barca,,55,41.45,-2.6166667
barcabo,,52,42.2333333,0.0666667
barcala,,58,42.7166667,-8.5833333
barcarrota,,57,38.5166667,-6.85
barcebal,,55,41.65,-3.0
barcebalejo,,55,41.6333333,-3.05
barceino,,55,41.0833333,-6.4666667
barcela,,58,42.1,-8.3333333
barcellina,,34,43.5333333,-6.5166667
barcelona,1570378,56,41.3833333,2.1833333
barceloneta,,56,41.3833333,2.1833333
barcena,,34,43.2833333,-6.5166667
barcena,,39,43.1333333,-4.7166667
barcenaciones,,39,43.3333333,-4.15
barcena de bureba,,55,42.6166667,-3.55
barcena de campos,,55,42.4833333,-4.5
barcena de carriedo,,39,43.25,-3.8166667
barcena de cicero,,39,43.4166667,-3.5
barcena de cicero,,55,42.75,-4.2
barcena de cudon,,39,43.4,-4.0
barcena de ebro,,39,42.85,-4.0333333
barcena de la abadia,,55,42.7833333,-6.6333333
barcena del monasterio,,34,43.3666667,-6.5166667
barcena del rio,,55,42.5833333,-6.55
barcena de pie de concha,,39,43.1333333,-4.05
barcena de pienza,,55,43.0,-3.4833333
barcena de pla de concha,,39,43.1333333,-4.05
barcena de udalla,,39,43.3166667,-3.4333333
barcena mayor,,39,43.15,-4.1833333
barcenas,,55,43.1,-3.5666667
barcenilla,,39,43.3833333,-3.95
barcenilla,,55,42.85,-4.4
barcenilla de cerezos,,55,43.0666667,-3.5833333
barcenillas,,39,43.2333333,-4.2666667
barcenillas de cerezos,,55,43.0666667,-3.5833333
barcenillas del ribero,,55,43.0333333,-3.4833333
barcenillas de ribero,,55,43.0333333,-3.4833333
barceo,,55,41.0666667,-6.45
barcheta,,60,39.0166667,-0.4166667
barchin del hoyo,,54,39.6666667,-2.0666667
barcia,,34,43.5333333,-6.5
barcia,,58,42.4666667,-8.35
barciademera,,58,42.2666667,-8.3833333
barcial de la loma,,55,41.95,-5.2833333
barcial del barco,,55,41.9333333,-5.6666667
barcias,,58,43.0333333,-7.25
barciela,,58,42.95,-8.4333333
barcience,,54,39.9833333,-4.2333333
barcina del barco,,55,42.7833333,-3.2166667
barcina de los montes,,55,42.7166667,-3.3166667
barcinas,,51,37.3666667,-3.55
barco de avila,,55,40.35,-5.5166667
barcones,,55,41.2833333,-2.8166667
bardallur,,52,41.6833333,-1.2
bardaos,,58,42.6833333,-7.4166667
bardauri,,55,42.6666667,-2.95
bardazoso,,51,38.1,-2.9166667
bardullas,,58,43.0333333,-9.2166667
baredo,,58,42.1,-8.8666667
bareno,,59,43.3833333,-2.9833333
bares,,58,43.7666667,-7.6833333
bareyo,,39,43.4666667,-3.6
bargaedo,,34,43.3833333,-5.3833333
barganiza,,34,43.45,-5.75
bargas,,54,39.9333333,-4.05
bargeda,,53,28.3333333,-14.0833333
bargelas,,55,42.6833333,-7.0166667
bargis bajo,,51,36.8333333,-3.3333333
bargis,,51,36.8166667,-3.3333333
bargota,,32,42.5666667,-2.3166667
barig,,60,39.0166667,-0.3
barillas,,32,41.9666667,-1.6333333
barinaga,,59,43.2333333,-2.4833333
barinas,,31,38.2666667,-1.05
barindano,,32,42.7666667,-2.1166667
bariones,,55,42.0833333,-5.6
bariones de la vega,,55,42.0833333,-5.6
barizo,,58,43.3166667,-8.8666667
barja,,58,42.0,-7.1666667
barjacoba,,55,42.1166667,-6.9666667
barja de lor,,58,42.5166667,-7.3333333
barjamayor,,58,42.7166667,-7.05
barjas,,55,42.6166667,-6.9833333
barjas,,58,42.5333333,-7.1666667
barjeles,,58,41.9666667,-7.95
barjis bajo,,51,36.8333333,-3.3333333
barjis,,51,36.8166667,-3.3333333
barlovento,,53,28.8166667,-17.7833333
barluenga,,52,42.2,-0.3333333
barniedo de la reina,,55,43.0,-4.8833333
baro,,39,43.15,-4.6833333
baro,,55,42.9833333,-3.1833333
baroja,,59,42.6666667,-2.6833333
barona,,58,42.7,-9.0333333
baroncelle,,58,43.3166667,-7.5166667
baros,,52,42.55,-0.5166667
barquero,,58,43.7333333,-7.7
barqueros,,31,37.9333333,-1.3666667
barquilla,,55,40.6833333,-6.7166667
barquina,,58,42.8,-8.9
barraca de aguas vivas,,60,39.1,-0.3666667
barraca el campo,,51,36.75,-2.6833333
barracas,,31,37.6166667,-0.7666667
barracas,,60,40.0166667,-0.6833333
barracas nuevas,,31,38.05,-1.25
barraceira,,58,42.75,-7.1166667
barrachina,,52,40.9,-1.1333333
barraco,,55,40.4833333,-4.6333333
barrado,,57,40.0833333,-5.8833333
barral,,58,43.2666667,-7.2833333
barranan,,58,43.3,-8.5333333
barran,,58,42.5,-8.0
barranca,,34,43.3833333,-6.9833333
barranca de paramios,,34,43.3833333,-6.9833333
barranco,,60,38.5166667,-0.4833333
barranco de la montesina,,51,38.1166667,-2.9833333
barranco del atalayon,,31,37.4833333,-1.65
barranco del lobo,,51,37.4333333,-4.0333333
barranco del oro,,51,37.1666667,-3.5666667
barranco de los asensios,,31,37.4833333,-1.65
barranco de los hilarios,,31,37.6166667,-1.8166667
barranco de los lobos,,31,37.4666667,-1.5333333
barranco de seca,,31,37.5666667,-1.4333333
barranco grande,,53,28.4333333,-16.3
barranco hondo,,53,28.4,-16.35
barranco montesina,,51,38.1166667,-2.9833333
barrancos,,57,38.3666667,-6.0333333
barranda,,31,38.05,-1.9666667
barrantes,,58,42.0166667,-8.7666667
barrasa,,55,43.1,-3.3166667
barrax,,54,39.05,-2.2
barreales,,57,38.3666667,-6.5333333
barreda,,34,43.5833333,-5.8833333
barreda,,39,43.0833333,-4.55
barredo,,34,43.3833333,-5.9833333
barredo,,58,43.0333333,-7.4
barreira,,58,42.7333333,-8.9
barreiro,,58,42.8166667,-7.9166667
barreiros,,58,43.0,-7.3
barrela,,58,42.5333333,-7.8166667
barrencalle,,59,43.1,-2.5666667
barrencu,,59,43.1833333,-2.6166667
barreneches,,59,43.2666667,-2.75
barreras,,55,41.0333333,-6.5833333
barrero,,34,43.4,-6.5833333
barres,,34,43.5333333,-7.0
barriada abriojal,,51,36.95,-2.4666667
barriada alhori,,51,37.7333333,-3.35
barriada artigas,,56,41.4333333,2.2166667
barriada aulabar,,51,37.7166667,-3.35
barriada balerma,,51,36.7333333,-2.8833333
barriada banos de sierra elvira,,51,37.2166667,-3.7
barriada barrio bajo,,51,36.9166667,-3.5333333
barriada barrio del carmen,,51,36.8833333,-2.4333333
barriada bobadilla,,51,37.1833333,-3.65
barriada burgallana,,51,37.3,-1.8666667
barriada canales,,51,37.15,-3.4666667
barriada canteras,,51,37.2333333,-3.5666667
barriada carcauz,,51,36.85,-2.6833333
barriada casas altas,,51,37.3833333,-1.75
barriada castala,,51,36.8833333,-2.9333333
barriada celin,,51,36.8333333,-2.8666667
barriada cerrillo de maracena,,51,37.2,-3.6333333
barriada chiran,,51,36.9,-2.9333333
barriada cortes,,51,37.3166667,-3.2166667
barriada cruz de lagos,,51,37.15,-3.6
barriada cuevas de las yeseras,,51,37.4666667,-2.7166667
barriada cuevas del canal,,51,37.8833333,-2.6333333
barriada cuevas de mayo,,51,36.9333333,-2.45
barriada de aguadulce,,51,36.8166667,-2.5666667
barriada de burgallana,,51,37.3,-1.8666667
barriada de las hortichuelas,,51,36.8166667,-2.6
barriada de san pio x,,53,28.45,-16.2833333
barriada el barrancon,,51,37.2333333,-2.4833333
barriada el campillo,,51,36.75,-2.9833333
barriada el cantaro alto,,51,37.2833333,-2.5333333
barriada el cantaro bajo,,51,37.3,-2.5333333
barriada el canuelo,,51,36.8166667,-2.6833333
barriada el chuche,,51,36.9,-2.4333333
barriada el cid,,51,36.8833333,-2.9666667
barriada el cortijuelo,,51,37.2666667,-2.4833333
barriada el ejido,,51,36.7833333,-2.8166667
barriada el mami,,51,36.8666667,-2.4166667
barriada el marchal de anton lopez,,51,36.9,-2.6333333
barriada el margen,,51,37.5166667,-2.2333333
barriada el marraque,,51,36.9333333,-2.45
barriada el pardo,,51,36.7666667,-2.9666667
barriada el puente del rio,,51,36.75,-2.9833333
barriada el puerto,,51,36.75,-2.6
barriada el rascador,,51,37.3,-2.5166667
barriada el varadero,,51,36.7166667,-3.5166667
barriada estacion,,57,40.2166667,-5.9666667
barriada estacion de hijate,,51,37.4,-2.6166667
barriada estacion de illora,,51,37.25,-3.85
barriada fabrica azucarera,,51,37.4666667,-2.7333333
barriada fuencaliente y calera,,51,37.35,-2.55
barriada guanarteme,,53,28.1333333,-15.4333333
barriada guardias viejas,,51,36.7,-2.85
barriada guarros,,51,37.0166667,-2.95
barriada jubar,,51,37.0166667,-3.0333333
barriada la caleta guardia,,51,36.75,-3.6
barriada la colonia,,51,36.9666667,-3.8666667
barriada la esperanza,,51,37.1666667,-4.15
barriada la estacion de dona maria ocana,,51,37.15,-2.6833333
barriada la fuente santilla,,51,36.75,-2.9833333
barriada la loma alta,,51,37.3,-2.5333333
barriada la penarrodada,,51,36.8666667,-2.9666667
barriada la rambla,,51,36.8833333,-3.0333333
barriada las casicas,,51,37.4,-1.7333333
barriada las casillas,,51,37.2666667,-2.5833333
barriada las cuevas de maria,,51,36.9333333,-2.4666667
barriada las cuevas viejas,,51,36.9333333,-2.45
barriada las yeseras de galachar,,51,36.9666667,-2.5333333
barriada los carriones,,51,37.6833333,-2.6666667
barriada los cerricos,,51,37.5333333,-2.2
barriada los imposibles,,51,36.9666667,-2.55
barriada minas del marquesado,,51,37.1833333,-3.1166667
barriada morche,,51,36.7333333,-3.9833333
barriada olapra,,51,37.2166667,-2.5
barriada paulenca,,51,36.9666667,-2.4833333
barriada retamales,,51,36.9666667,-3.8666667
barriada rio chico,,51,36.8166667,-2.9833333
barriada rio grande,,51,36.8166667,-3.0166667
barriada san roque,,51,36.8333333,-2.9833333
barriada san roque,,57,38.8833333,-6.95
barriada santillana,,51,37.1,-2.7166667
barriada san torcuato,,51,37.35,-3.1333333
barriada seco de lucena,,51,37.0833333,-3.9833333
barriada tices,,51,37.0666667,-2.7166667
barriada trapiche,,51,36.8166667,-4.1166667
barriada-velerda,,51,37.3666667,-3.2166667
barriaga,,51,37.7166667,-4.95
barrial,,53,28.6333333,-17.85
barrientos,,55,42.4166667,-5.9666667
barriga,,51,38.0333333,-3.1666667
barriga,,55,42.9666667,-3.1333333
barrilejos,,57,38.2,-6.0333333
barrillos,,55,42.7166667,-5.4
barrillos de las arrimadas,,55,42.8166667,-5.2833333
barrio abesedo,,55,42.5333333,-6.45
barrio aceca,,54,39.95,-3.85
barrio alcutar,,51,36.9666667,-3.1833333
barrio aldehuela,,55,40.7833333,-4.75
barrio alisadilla,,57,40.2666667,-5.8666667
barrio arroyo,,60,39.5166667,-1.1666667
barrio bajo,,51,36.9166667,-3.5333333
barrio bandadas,,55,40.55,-4.85
barrio barranco del oro,,51,37.1666667,-3.5666667
barrio,,34,43.1166667,-6.1
barrio,,39,43.0166667,-4.2333333
barrio,,58,42.3666667,-7.2333333
barrio,,59,42.8,-3.0833333
barrio batoy,,60,38.6833333,-0.5
barrio benalua,,60,38.3333333,-0.5
barrio benicull,,60,39.1833333,-0.3833333
barrio buenavista,,57,38.5166667,-6.7833333
barriobusto,,59,42.5666667,-2.4333333
barrio cabezuelo,,55,40.3666667,-5.55
barrio campa,,34,43.4,-5.75
barrio campurbin,,55,40.35,-5.3666667
barrio ca'n bros,,56,41.4833333,1.9166667
barrio castillejos,,57,38.7166667,-6.5166667
barrio cereceda,,55,40.35,-5.55
barrio chico,,55,40.4166667,-5.55
barrio ciudad jardin,,60,38.3666667,-0.4833333
barrio ciudad lineal,,29,40.45,-3.65
barrio collado,,54,40.4333333,-1.9333333
barrio colonia alfar,,29,40.45,-3.8
barrio colonia,,51,37.9666667,-3.7666667
barrio corchuela,,54,39.9833333,-5.1666667
barrio cortijillos,,51,37.7666667,-3.0833333
barrio cuevas de luna,,51,37.5833333,-2.75
barrio cuevas de puente abajo,,51,37.6166667,-2.75
barrio cuevas de rio baza,,51,37.6,-2.75
barrio de abajo,,55,42.6,-6.65
barrio de ambasaguas,,55,42.2666667,-6.55
barrio de arriba,,39,42.8833333,-4.05
barrio de arriba,,55,40.5333333,-5.0833333
barrio de arriba,,60,39.5833333,-0.9666667
barrio debesa,,55,42.8,-5.6333333
barrio de bricia,,55,42.9,-3.85
barrio de buenos aires,,53,28.45,-16.2666667
barrio de calzada,,55,42.1833333,-6.0
barrio de canyet,,56,41.4666667,2.25
barrio de castrofoya,,58,42.3833333,-7.1166667
barrio de catral,,60,38.15,-0.8333333
barrio de catral y callosa,,60,38.15,-0.8333333
barrio de concud,,52,40.3833333,-1.1333333
barrio de diaz ruiz,,55,42.65,-3.35
barrio de echaide,,32,43.1333333,-1.5
barrio de el campo de santibanez,,55,42.6833333,-5.6333333
barrio de el nido,,60,38.0833333,-0.7666667
barrio de fanals,,56,41.8166667,3.0666667
barrio de fernan nunez,,51,36.9333333,-3.6166667
barrio de ganecoleta,,32,43.0666667,-1.3
barrio de guanarteme,,53,28.1333333,-15.4333333
barrio de jarana,,51,36.5,-6.15
barrio de la alegria,,53,28.4833333,-16.2333333
barrio de la concepcion,,31,37.6,-1.0
barrio de la estacion,,29,40.5833333,-3.95
barrio de la estacion,,51,36.2166667,-5.4333333
barrio de la iglesia,,39,43.3833333,-4.25
barrio de la magdalena,,52,42.2666667,-1.2
barrio de la mina,,51,37.7,-6.6166667
barrio de la puebla,,55,42.6666667,-4.6166667
barrio de la puente,,55,42.7833333,-6.15
barrio de las casinas altas,,57,39.35,-7.2833333
barrio de las casinas bajas,,57,39.35,-7.2833333
barrio de las cuevas,,60,38.1333333,-0.95
barrio de las eras,,60,38.8833333,-0.5833333
barrio de las heras,,60,38.8833333,-0.5833333
barrio de las huertas,,57,39.35,-7.2666667
barrio de las maravillas,,31,38.0833333,-1.7833333
barrio de las minas,,52,40.1333333,-1.1833333
barrio de las ollas,,55,42.8666667,-5.3333333
barrio de las penas,,52,40.1833333,-0.5666667
barrio de la vega,,51,37.1333333,-3.55
barrio del camino de catral,,60,38.1166667,-0.8
barrio del carmen,,51,36.8833333,-2.4333333
barrio del chopo,,51,37.55,-2.75
barrio de lienas,,52,42.2333333,-0.4
barrio del medio,,55,40.5333333,-5.0833333
barrio del molino,,54,38.8166667,-2.1833333
barrio de lomba,,55,42.0833333,-6.6666667
barrio de los dolores,,60,38.15,-0.8333333
barrio del peral,,31,37.6166667,-0.9833333
barrio de lugar nuevo,,60,39.4166667,-0.3833333
barrio de manresa,,56,41.45,2.2666667
barrio de marianes,,34,43.55,-5.5166667
barrio de muno,,55,42.1833333,-4.0
barrio de nuestra senora,,55,42.7166667,-5.3833333
barrio de otero,,58,42.25,-7.1166667
barrio de peral,,31,37.6166667,-0.9833333
barrio de pescadores,,51,37.0,-1.9
