names,population,state_code,lat,lon
abarda,,28,33.7775,10.7694444
abbah qusur,,14,35.9447222,8.8325
`abbas,,35,33.9011111,8.1305556
abbes,,35,33.9011111,8.1305556
abd er rahmane,,23,36.15,10.25
abd er rahmane el garsi zaouia,,23,36.15,10.25
abes,,29,33.8833333,10.1166667
abzeg,,32,35.0333333,10.9666667
ad dabdabah,,29,33.8833333,9.8
ad dakhilah,,18,36.8666667,9.7
ad damus,,16,35.6666667,10.7666667
ad damus,,19,36.7666667,10.7333333
ad dulab,,02,35.4,8.9
ad duwayrat,,34,32.8666667,10.2833333
adeloun,,28,33.7666667,10.7833333
adh dhahibat,,34,32.0166667,10.7
adjim,,28,33.7247222,10.7519444
adlet touila,,33,35.0677778,9.7847222
africa,,15,35.5047222,11.0622222
agareb,,32,34.7411111,10.53
aggarset nepte,,35,33.8741667,7.8797222
aghir,,28,33.7666667,11.0166667
ahmad al hakim,,06,36.6333333,8.5666667
ahmad bin `ali,,06,36.5333333,8.8169444
ahmed ben ali,,06,36.5333333,8.8169444
ahmed el hakim,,06,36.6333333,8.5666667
ahmed zid,,27,36.6330556,10.2836111
ahzeg,,32,35.0333333,10.9666667
ailet jridani,,03,35.1016667,10.0330556
ain bou seba,,06,36.2788889,8.4508333
ain cherichera,,03,35.6372222,9.815
ain djelloula,,03,35.8002778,9.7955556
ain djeloula,,03,35.8002778,9.7955556
ain draham,,06,36.7772222,8.6925
aine djeloula,,03,35.8002778,9.7955556
aine draham,,06,36.7772222,8.6925
aine el asker,,37,36.5747222,9.9913889
aine faroua,,18,37.1955556,9.765
ain el asker,,37,36.5747222,9.9913889
ain el faroua,,18,37.1955556,9.765
ain el mouia,,14,36.2536111,8.9075
aine radouane,,31,33.7333333,9.25
aine sellam,,17,36.8,9.1166667
aine zigzaou,,31,33.7333333,9.2166667
ain jioula,,03,35.8002778,9.7955556
ain krannguet sour,,14,35.8777778,8.6577778
ain mestour,,03,35.9,9.6333333
ain moulares,,30,34.4833333,8.2666667
ain radouane,,31,33.7333333,9.25
ain sahalin,,16,35.7533333,10.7116667
ain saidana,,31,33.7666667,9.3
ain saidane,,31,33.7666667,9.3
ain sayada,,03,35.6113889,9.3933333
ain sellam,,17,36.8,9.1166667
ain zigzaou,,31,33.7333333,9.2166667
ajim,,28,33.7247222,10.7519444
akkudah,20027,23,35.8708333,10.5683333
akouda,,23,35.8708333,10.5683333
akuda,,23,35.8708333,10.5683333
al `abadiliyah,,03,35.1408333,9.855
al `abbasiyah,,32,34.7225,11.2419444
al achem,,16,35.4833333,10.6833333
al agraine,,03,35.9480556,9.6041667
al akhawat,,22,36.25,9.25
al akhawayn,,19,36.5666667,10.5166667
al akwash,,15,35.5036111,11.0472222
al `ala',,03,35.6161111,9.5597222
al `alandayah,,28,33.4333333,11.0833333
al `alim,,03,35.9088889,10.0586111
al `aliyah,,18,37.1666667,10.0333333
al `alqamah,,16,35.6166667,10.8833333
al `aqarib,,32,34.7411111,10.53
`alaqimah,,35,33.8666667,7.8833333
al `arusah,,26,36.3833333,9.45
al aswad,,36,36.6655556,10.0475
al `ataya,,32,34.7461111,11.2977778
al `attar,,26,36.7319444,10.0716667
al `ayayishah,,30,34.3166667,9.2666667
al `ayn,,32,34.8,10.7833333
al `azib,,18,37.2088889,9.9477778
al bakakishah,,19,36.8333333,10.65
al baqalitah,,16,35.6166667,11.0
al barawikah,,29,33.5,10.1166667
al batan,,26,36.8161111,9.84
al bayyaz,,31,33.7,8.9833333
al bazimah,,31,33.6658333,9.0116667
al birin,,26,36.7186111,10.1119444
al borma,,34,31.6666667,9.1333333
al buhayrah,,15,35.3333333,11.0
al bulaydah,,03,36.0166667,10.0333333
al burayj,,19,36.8,10.6
al burjayn,,23,35.6666667,10.5833333
al burmah,,34,31.6666667,9.1333333
al bustan,,26,36.8,10.1666667
alegma,,35,33.8666667,7.8833333
al fahs,,26,36.3669444,9.905
al fajjah,,36,36.6797222,9.9813889
al fawwar,,31,33.3683333,8.6680556
al fihri,,19,36.4647222,10.7511111
al firnanah,,06,36.6547222,8.6975
al funduq al jadid,,19,36.6705556,10.4475
al ghazal,,33,34.5666667,9.5833333
al ghurayyibah,,32,34.5,10.2166667
al graa,,16,35.5833333,10.8666667
al haddadah,,28,33.7833333,11.05
al hafsah,,29,33.5166667,9.9666667
al hafsi,,15,35.5275,11.0394444
al hajj as saghir,,03,36.0,10.1166667
al hajj `umar,,06,36.4888889,8.8175
al hamadah,,16,35.75,10.7
al hammah,,29,33.9,9.8
al hammamat,,19,36.4,10.6166667
al hanashah,,32,35.1333333,10.75
al harah al kabirah,,28,33.8666667,10.8666667
al harah as saghirah,,28,33.8208333,10.8552778
al hara'iq,,14,35.7994444,9.225
al hawmat,,03,35.9652778,10.0294444
al hayara,,02,35.4333333,8.8
al hazim,,28,33.7833333,10.9333333
al hizq,,32,35.0333333,10.9666667
al hushayshinah,,32,34.4166667,10.1833333
al huwariyah,,19,37.0508333,11.0108333
al huwwariyah,,19,37.0508333,11.0108333
ali ben ez zine,,06,36.4966667,8.5086111
ali lazreg,,32,34.7263889,10.3213889
al `irq,,35,34.0166667,8.1833333
al jabal al abyad,,17,36.9833333,9.0833333
al jabbas,,36,36.89,10.0802778
al jadidah,,19,36.55,10.5333333
al jamah,,22,36.1166667,9.2833333
al jamm,,15,35.3,10.7166667
al jana'in,,34,31.7330556,10.1505556
al jawawidah,,16,35.5,10.9166667
al jazirah,,31,33.7727778,8.8647222
al jubaybinah,,03,36.1166667,10.1
al judayyidah,,18,36.8311111,9.9241667
al jurf,,28,33.6958333,10.7341667
al kaf,,14,36.1822222,8.7147222
al kallabin,,32,34.7086111,11.2188889
al kana'is,,23,35.6833333,10.5166667
al karashiwah,,28,33.7666667,10.8833333
al karashiwah,,34,32.8166667,10.5666667
al karib,,14,36.3333333,9.1333333
al karm,,36,36.8333333,10.3166667
al katif,,03,35.6333333,9.45
al-kayrawan,,03,35.6744444,10.1016667
al khadriyah,,03,35.43,10.1033333
al khalij,,06,36.4591667,8.8038889
al khara'ib,,32,34.7786111,11.255
al khawi,,28,33.7333333,10.85
al khirbah,,29,33.5166667,10.1
al khulaydiyah,,27,36.6455556,10.1927778
al khuraybah,,06,36.6711111,8.9227778
al khuraybah,,32,34.9836111,10.8980556
al lawatah,,32,35.0527778,11.0030556
al lawzah,,32,35.0297222,11.0038889
allegma,,35,33.8666667,7.8833333
allouet el gounna,,28,33.15,11.4666667
al madilah,,30,34.25,8.75
al madinah,,26,36.8,10.1833333
al maghmumah,,31,33.5672222,8.8841667
al mahadhibah,,23,36.025,10.4613889
al mahdiyah,,15,35.5047222,11.0622222
al mahras,,32,34.5275,10.5008333
al ma'i,,28,33.8,10.8833333
al ma'iyah,,29,33.9666667,10.0166667
al majlis,,17,36.9438889,8.9838889
al makhalif,,03,36.0333333,10.1833333
al makhzan,,19,36.8666667,10.7333333
al malasin,,36,36.7983333,10.1605556
al ma`murah,,19,36.4672222,10.8058333
al manarah,,16,35.7,10.7833333
al manarah,,29,33.85,10.1
al mansurah,,31,33.7261111,8.9386111
al manubiyah,,36,36.7844444,10.1683333
al manzil,,14,35.9594444,9.0852778
al maqarisah,,28,33.8166667,11.0
al marirah,,36,36.72,10.1616667
al marsa,,19,36.8333333,11.1
al marsa,,28,33.2,11.2166667
al marsa,,36,36.8833333,10.3333333
al mas`adin,,23,35.7644444,10.5969444
al masdur,,16,35.6833333,10.7333333
al mashraf,,14,35.9102778,9.1225
al matamir,,28,33.3666667,10.4333333
al matlin,,18,37.25,10.05
al matwiyah,,29,33.9666667,10.0
al mawajin,,06,36.4994444,8.265
al mayyitah,,29,33.8666667,10.0666667
al mazarah,,17,36.7166667,9.1666667
al mazzunah,,33,34.5833333,9.8333333
al medou,,29,33.8,10.0833333
al metlaoui,,30,34.3333333,8.4
al midah,,19,36.7255556,10.8552778
al miknasi,,33,34.6166667,9.6
al minshar,,17,36.7333333,9.3166667
al mi`sarah,,15,35.3833333,10.7833333
al mstiri,,36,36.6922222,10.0825
al mu`allaqah,,36,36.8666667,10.3166667
al muhammadiyah,,36,36.6769444,10.1555556
al muknin,,16,35.6333333,10.9
al munastir,,16,35.7833333,10.8333333
al munayhilah,,26,36.8586111,10.1161111
al murnaqiyah,,26,36.7591667,10.0175
alouet el gounna,,28,33.15,11.4666667
al qal`ah al kabirah,,23,35.8727778,10.5372222
al qal`ah al kubra,,23,35.8727778,10.5372222
al qal`ah,,31,33.4833333,9.0036111
al qal`ah as saghirah,,23,35.8255556,10.5580556
al qal`ah as sughra,,23,35.8255556,10.5580556
al qannarah,,02,35.695,8.6913889
al qantarah,,28,33.6852778,10.9225
al qarmadah,,32,34.75,10.7833333
al qasr al jadid,,28,33.3,10.3
al qasr al jadid,,34,32.6833333,10.9
al qasr,,29,33.9,9.8
al qasr,,30,34.3980556,8.8013889
al qasr as sa`id,,26,36.8130556,10.1238889
al qasrayn,,02,35.1672222,8.8288889
al qattar,,30,34.3372222,8.9527778
al qayrawan,,03,35.6744444,10.1016667
al qaytanah,,35,33.9261111,8.1283333
al qulay`ah,,31,33.7747222,8.8525
al qusur,,14,35.8963889,8.8866667
al `umran,,26,36.8166667,10.1666667
al `urqub,,29,33.55,10.05
al `uwaynah,,26,36.8480556,10.2563889
al `uwaynah,,31,33.4555556,9.0311111
al `uwaynah raja,,31,33.3386111,8.8144444
al wardanin,,16,35.7166667,10.6666667
al waslatiyah,,03,35.8477778,9.5894444
al widyan,,19,36.7919444,10.8513889
al wusfan,,03,36.1,10.1
amara ben sliman,,03,35.6083333,10.2347222
amdoun,,17,36.7666667,9.0833333
andalouses,,18,37.2830556,9.8741667
an naffatiyah,,28,33.2397222,10.8702778
an nafidah,,23,36.1352778,10.3808333
an naghamishah,,06,36.5330556,8.7922222
an nahl,,29,33.9,10.0833333
an namlat,,35,33.9952778,8.1561111
aoudsja,,26,37.1333333,10.1
aouina,,31,33.4555556,9.0311111
aouru,,28,33.7833333,10.8333333
aousdja,,26,37.1333333,10.1
aquilaria,,19,37.0508333,11.0108333
aram,,29,33.5833333,10.3333333
argoub mechtat,,06,36.5791667,8.4180556
arhir,,28,33.7666667,11.0166667
ariana,,26,36.8625,10.1955556
arkou,,28,33.7833333,11.0
arlet en najaa,,03,35.2527778,10.0858333
armand-colin,,26,36.55,9.95
ar rabitah,,26,36.805,10.1577778
ar rahmat,,31,33.6441667,8.9963889
ar rajish,,15,35.4666667,11.0386111
`arram,,29,33.5833333,10.3333333
ar ramlah,,32,34.7108333,11.1944444
ar raml,,15,35.5166667,11.05
ar rawdah,,15,35.5,11.05
ar rawhiyah,,02,35.6647222,9.0547222
ar rejdane,,17,36.9333333,8.9666667
ar rijal al aroua,,16,35.5166667,10.9
ar riqab,,33,34.8666667,9.7833333
ar rudayyif,,30,34.3833333,8.15
aryanah,237401,26,36.8625,10.1955556
ash shababiyah,,28,33.7666667,10.9833333
ash shabbah,,15,35.2372222,11.115
ash sharqi,,32,34.7561111,11.2491667
ash shawaribiyah,,14,35.9075,9.1416667
ash shawariniyah,,14,35.9622222,9.1436111
ash shawashiniyah,,14,35.8166667,8.9
ash shurayshirah,,03,35.6372222,9.815
ash shuwayqi,,18,36.8861111,9.7977778
as sabalah,,26,36.915,10.1055556
as sahili,,23,35.7636111,10.2888889
as sahilin,,16,35.7533333,10.7116667
as sa`idah,,26,36.8138889,9.9655556
as saluqiyah,,26,36.5833333,9.5166667
as sanad,,30,34.4666667,9.2666667
as saqalibah,,19,36.7919444,10.9719444
as sars,,14,36.0833333,9.0166667
as sawda',,33,35.1,9.5366667
as sawma`ah,,19,36.5452778,10.7805556
as sawwaf,,37,36.2333333,10.1666667
as sayyadah,,16,35.6666667,10.9
as segala,,28,33.8,10.9166667
as sijumi,,36,36.7558333,10.1183333
as subaykhah,,03,35.9338889,10.0208333
as sukhayrah,,32,34.2833333,10.1
as sunduq,,33,35.0983333,9.4813889
at tarabulusiyah,,03,35.9652778,10.2494444
attar,,26,36.7319444,10.0716667
at tawfiq,,26,36.8,10.1666667
audja,,26,37.1333333,10.1
awlad al `abid,,23,35.9794444,10.2572222
awlad al qasim,,32,34.6855556,11.1663889
awlad ar rawajih,,03,35.965,10.1647222
awlad bu `ali,,32,34.7019444,11.1986111
awlad bu hadda,,14,35.9561111,9.0497222
awlad majid,,35,34.0,8.25
awlad marzuq,,14,35.7666667,8.9666667
awlad `umar,,28,33.8333333,10.9666667
awlad yaniq,,32,34.6733333,11.1397222
`awsajah,,26,37.1333333,10.1
ayaicha,,30,34.3166667,9.2666667
`ayn ad darahim,,06,36.7772222,8.6925
`ayn al `askar,,37,36.5747222,9.9913889
`ayn al farwah,,18,37.1955556,9.765
`ayn jalulah,,03,35.8002778,9.7955556
`ayn mastur,,03,35.9,9.6333333
`ayn ridwan,,31,33.7333333,9.25
`ayn sa`idan,,31,33.7666667,9.3
`ayn sallam,,17,36.8,9.1166667
`ayn ziqzaw,,31,33.7333333,9.2166667
`azib al muruq,,06,36.5363889,8.2977778
azib el mroug,,06,36.5363889,8.2977778
az zahruni,,26,36.7894444,10.1111111
az zaqanah,,15,35.4891667,11.045
az zaramidin,,16,35.5833333,10.7333333
az zarat,,29,33.6666667,10.35
az zaribah,,29,33.4833333,10.0333333
az zawawin,,18,37.1333333,10.05
az zawilah,,15,35.5005556,11.0605556
azzedine,,33,34.7333333,9.6666667
az zuwarah,,03,36.1166667,10.1166667
az zuwarin,,14,36.0166667,8.9166667
az zuwaytinah,,18,36.85,9.8833333
bab al jazirah,,26,36.8,10.1833333
bab alleoua,,36,36.7911111,10.1866667
bab al qurjani,,36,36.7869444,10.1680556
bab as suwayqah,,26,36.8166667,10.1833333
bab bou saadoun,,26,36.8097222,10.165
bab djarira,,26,36.8,10.1833333
bab djazira,,26,36.8,10.1833333
bab el gorjani,,36,36.7869444,10.1680556
bab el gorjarni,,36,36.7869444,10.1680556
bab khadra,,26,36.8097222,10.1761111
babouch,,06,36.8166667,8.6666667
bab saadoun,,26,36.8097222,10.165
bab sa`dun,,26,36.8097222,10.165
bab sidi kassem,,36,36.7936111,10.1611111
bab souika,,26,36.8166667,10.1833333
babush,,06,36.8166667,8.6666667
bad saadoun,,26,36.8097222,10.165
bajah,57211,17,36.7333333,9.1833333
balli,,19,36.5666667,10.55
balta,,06,36.7086111,8.9427778
baltah,,06,36.7086111,8.9427778
banbalah,,16,35.7,10.8
bani `ata',,18,37.2333333,10.0666667
bani `ayshun,,19,36.5766667,10.8433333
bani barkah,,34,32.8833333,10.4333333
bani dinhet,,28,33.8166667,10.85
bani hassan,,16,35.5666667,10.8166667
bani hazaz,,19,36.8730556,10.8911111
bani `isa,,29,33.6,9.9
bani khaddash,,28,33.25,10.2
bani khallad,,19,36.65,10.6
bani khezer,,34,32.85,10.5666667
bani khiyar,,19,36.4691667,10.7822222
bani kulthum,,23,35.7,10.6
bani seggane,,29,33.5833333,9.9666667
bani zaltan,,29,33.55,10.1
bannan,,16,35.6833333,10.8333333
banzart,,18,37.2744444,9.8738889
baradah,,26,36.7386111,10.0025
bardaw,,17,36.7333333,9.1833333
bardaw,74027,26,36.8091667,10.1405556
bardo,,17,36.7333333,9.1833333
bardo,,26,36.8091667,10.1405556
barghouthla,,31,33.6047222,8.915
barkouk,,28,33.85,10.85
barquq,,28,33.85,10.85
barquq,,29,33.4166667,10.1333333
bashatir,,18,37.3061111,9.7405556
bazima,,31,33.6658333,9.0116667
bazma,,31,33.6658333,9.0116667
bchelli,,31,33.6141667,8.9183333
beau site,,26,36.8336111,10.1644444
bechater,,18,37.3061111,9.7405556
bechateur,,18,37.3061111,9.7405556
bechelli,,31,33.6141667,8.9183333
bechri,,31,33.7908333,8.7761111
bedja,,17,36.7333333,9.1833333
beja,,17,36.7333333,9.1833333
bejaoua,,36,36.8361111,10.0136111
bekalta,,16,35.6166667,11.0
belgica,,32,34.7055556,10.5813889
bel houl,,32,34.7730556,10.3819444
beli,,19,36.5666667,10.55
bel kassim,,32,34.6855556,11.1663889
bellevue,,36,36.7772222,10.1925
belli,,19,36.5666667,10.55
belvedere,,26,36.8247222,10.1863889
bembla,,16,35.7,10.8
ben aichoun,,19,36.5766667,10.8433333
ben arous,,36,36.7530556,10.2188889
ben bachir,,06,36.5705556,8.8575
ben bechir,,06,36.5705556,8.8575
ben djarou,,14,35.9105556,8.9444444
benen,,16,35.6833333,10.8333333
ben fetaiel,,28,33.55,11.1166667
ben gardan,,28,33.1333333,11.2166667
ben-gardan,,28,33.1333333,11.2166667
ben gardane,,28,33.1333333,11.2166667
ben hamid,,16,35.5833333,10.9
beni aichoum,,19,36.5766667,10.8433333
beni aichoun,,19,36.5766667,10.8433333
beni aissa,,29,33.6,9.9
beni ata,,18,37.2333333,10.0666667
beni-aychoun,,19,36.5766667,10.8433333
beni barka,,34,32.8833333,10.4333333
beni braouka,,29,33.5,10.1166667
beni dinhet,,28,33.8166667,10.85
beni eta,,18,37.2333333,10.0666667
beni hassan,,16,35.5666667,10.8166667
beni hassane,,16,35.5666667,10.8166667
beni hazaxe,,19,36.8730556,10.8911111
beni hazaz,,19,36.8730556,10.8911111
beni kaltoum,,23,35.7,10.6
beni khaar,,19,36.4691667,10.7822222
beni khalled,,19,36.65,10.6
beni khaltoun,,23,35.7,10.6
beni kheddache,,28,33.25,10.2
beni-khezer,,34,32.85,10.5666667
beni khiar,,19,36.4691667,10.7822222
beni kraled,,19,36.65,10.6
beni kraltoum,,23,35.7,10.6
beni kraltun,,23,35.7,10.6
beni kreddache,,28,33.25,10.2
beni kriar,,19,36.4691667,10.7822222
beni seggane,,29,33.5833333,9.9666667
beni yekrzer,,34,32.85,10.5666667
beni zelten,,29,33.55,10.1
beni zeltene,,29,33.55,10.1
ben khezer,,34,32.85,10.5666667
ben khirat,,23,36.0080556,10.3533333
ben metir,,06,36.7544444,8.7513889
ben nan,,16,35.6833333,10.8333333
bennane,,16,35.6833333,10.8333333
ben rhilouf,,29,33.8833333,9.6166667
ben romdane,,03,35.1716667,10.2272222
ben-saidane,,37,36.2566667,9.9572222
berghoutsia,,31,33.6047222,8.915
bergoug,,29,33.4166667,10.1333333
berouari,,02,34.9225,8.8694444
berrboutsia,,31,33.6047222,8.915
berrhoutsia,,31,33.6047222,8.915
biada,,28,33.3,10.3
biar mafa,,32,35.15,10.85
bi'ar msifa,,32,35.15,10.85
bidane,,23,36.1672222,10.3533333
bijouville,,18,37.2705556,9.8622222
bilad al hadar,,35,33.9166667,8.1333333
bin `arus,,36,36.7530556,10.2188889
bin bashir,,06,36.5705556,8.8575
bin fata'il,,28,33.55,11.1166667
bin hamid,,16,35.5833333,10.9
bin metir,,06,36.7544444,8.7513889
bin qirdan,13364,28,33.1333333,11.2166667
bin rhilouf,,29,33.8833333,9.6166667
bi'r al hufayy,,33,34.9333333,9.2
bir ali ben khalifa,,32,34.7333333,10.1
bir ali ben khalifat,,32,34.7333333,10.1
bi'r `ali bin khalifah,,32,34.7333333,10.1
bi'r al kudayyat,,06,36.5769444,8.8177778
bi'r al malluli,,32,34.85,10.55
bi'r al mashariqah,,37,36.5161111,9.9583333
bi'r al qas`ah,,36,36.7347222,10.21
bi'r at tayyib,,16,35.65,10.6833333
bir-bou-reckba,,19,36.4333333,10.5833333
bir-bou-regba,,19,36.4333333,10.5833333
bir bou rekba,,19,36.4333333,10.5833333
bi'r bu ruqbah,,19,36.4333333,10.5833333
bir chaaba,,32,35.0666667,10.75
bir-chadouf,,19,36.45,10.7166667
bir challouf,,19,36.45,10.7166667
bir chalouf,,19,36.45,10.7166667
bir ech chebbou,,02,35.3269444,8.5958333
bir el afey,,33,34.9333333,9.2
bir el bey,,23,36.0333333,10.3052778
bir el hafey,,33,34.9333333,9.2
bir el kedaiet,,06,36.5769444,8.8177778
bir el kedaiv,,06,36.5769444,8.8177778
bir el mellouli,,32,34.85,10.55
bir et taieb,,16,35.65,10.6833333
bir halima,,37,36.4,10.05
bi'r halimah,,37,36.4,10.05
birine,,26,36.7186111,10.1119444
bir kassa,,36,36.7347222,10.21
bi'r khalifah,,14,35.9580556,9.1716667
bir khelifa,,14,35.9580556,9.1716667
bi'r marwah,,19,36.8,10.6333333
bir m'cherga,,37,36.5161111,9.9583333
bir meherga,,37,36.5161111,9.9583333
bir mellouli,,32,34.85,10.55
bir meroua,,19,36.8,10.6333333
bir morra,,34,32.8166667,11.1
bi'r shalluf,,19,36.45,10.7166667
bi'r shu`bah,,32,35.0666667,10.75
bir tabeug,,32,35.05,10.5166667
bir taieb,,16,35.65,10.6833333
bir tebeug,,32,35.05,10.5166667
bi'r tebeuk,,32,35.05,10.5166667
bir tebeul,,32,35.05,10.5166667
bir zar,,34,31.4672222,10.1291667
biserta,,18,37.2744444,9.8738889
bishri,,31,33.7908333,8.7761111
bit bou saa,,33,35.1291667,9.4547222
bizerta,,18,37.2744444,9.8738889
bizerte,,18,37.2744444,9.8738889
bled el hadber,,35,33.9166667,8.1333333
bled el hader,,35,33.9166667,8.1333333
bled el hadhar,,35,33.9166667,8.1333333
bled el hadher,,35,33.9166667,8.1333333
blidet,,31,33.58,8.8405556
blidet el meguedmine,,34,32.8666667,10.4166667
bodeur,,16,35.6666667,10.8333333
bordj aalouine,,26,36.6888889,9.8883333
bordj adj ali,,36,37.0002778,10.0927778
bordj admed zaid,,27,36.6330556,10.2836111
bordj ali ben ammar,,36,37.0002778,10.0927778
bordj ali bene ammar,,36,37.0002778,10.0927778
bordj ali ben rdjeb,,22,36.1,9.5166667
bordj arif termeus,,15,35.5002778,11.0358333
bordj bach mamlouk,,36,36.6208333,9.9883333
bordj ben chelbi,,18,37.0086111,9.7713889
bordj bene chelbi,,18,37.0086111,9.7713889
bordj ben reguiga,,32,34.8213889,10.4872222
bordj bir tabeug,,32,35.05,10.5166667
bordj bou er rmada,,26,36.3833333,10.0333333
bordj bou ficha,,19,36.3016667,10.4547222
bordj cedria-potinville,,36,36.6958333,10.3863889
bordj chakir,,26,36.7583333,10.0783333
bordj d' arhir,,28,33.7666667,11.0166667
bordj ech cheikh belkassem,,18,36.95,9.3166667
bordje frendj,,26,36.7,9.8144444
bordj el achichina,,32,34.4166667,10.1833333
bordj el amri,,26,36.7027778,9.8877778
bordj el bey,,19,36.84,10.9113889
bordj el bey,,23,36.0333333,10.3052778
bordj el hadj brahim,,14,35.8333333,8.6
bordj el hadj braik,,32,34.9061111,10.8783333
bordj el hadj mohammed,,02,35.5833333,8.7666667
bordj el hafsia,,26,36.7319444,9.9275
bordj el handousse,,15,35.5122222,11.0522222
bordj el kherba,,18,37.0580556,9.7597222
bordj el krerba,,18,37.0580556,9.7597222
bordj el meragueb,,32,34.7316667,10.4683333
bordj el touil,,26,36.9333333,10.1438889
bordj et teurki,,36,36.6611111,9.9691667
bordj et touil,,26,36.9333333,10.1438889
bordj et tourki,,14,36.1258333,8.7136111
bordj flifel,,03,36.2,9.6666667
bordj flifet,,03,36.2,9.6666667
bordj fouaoud,,36,36.5877778,10.1658333
bordj frenndj,,26,36.7,9.8144444
bordj gourbala,,30,34.2727778,8.5488889
bordj gourbata,,30,34.2727778,8.5488889
bordj ktori,,32,34.6666667,10.7166667
bordj maajen bel abbes,,02,34.7333333,8.5166667
bordj maajen,,02,34.7333333,8.5166667
bordj madjene bel abbes,,02,34.7333333,8.5166667
bordj mohammed el hadj ali,,32,34.7155556,10.3977778
bordj mohammed el madjiri,,32,34.7208333,10.3966667
bordj oulad lara,,36,36.8375,10.3225
bordj saidane,,31,33.7666667,9.3
bordj sidi toui,,28,32.7333333,11.3666667
bordj tahar,,06,36.5,9.2666667
bordj turki,,26,36.8719444,10.1672222
borj aalouine,,26,36.6888889,9.8883333
borj abd allah ferhatt,,15,35.245,11.0916667
borj ahmed zaid,,27,36.6330556,10.2836111
borj ali ben ahmar,,36,37.0002778,10.0927778
borj ali ben ammar,,36,37.0002778,10.0927778
borj ali ben sil,,18,37.0911111,9.7566667
borj amera trabesse,,18,36.9802778,9.8122222
borj arif termeus,,15,35.5002778,11.0358333
borj bach mamlouk,,36,36.6208333,9.9883333
borj ben aouali,,18,37.0297222,9.8297222
borj ben chelbi,,18,37.0086111,9.7713889
borj ben reguiga,,32,34.8213889,10.4872222
borj bou khail,,26,36.6738889,9.9444444
borj chakir,,26,36.7583333,10.0783333
borj ech chouchana,,18,37.0219444,9.6375
borj el achichina,,32,34.4166667,10.1833333
borj el amri,,26,36.7027778,9.8877778
borj el bey,,19,36.84,10.9113889
borj el bey,,23,36.0333333,10.3052778
borj el habib,,18,36.8722222,9.8002778
borj el hadj mohammed,,02,35.5833333,8.7666667
borj el hadj salah,,18,37.0963889,9.7622222
borj el hafsia,,26,36.7319444,9.9275
borj el haj braik,,32,34.9061111,10.8783333
borj el haj salah,,18,37.0963889,9.7622222
borj el handousse,,15,35.5122222,11.0522222
borj el hatat,,18,37.1225,9.86
borj el kherba,,18,37.0580556,9.7597222
borj el khessous,,26,36.9586111,10.1955556
borj el khoudja,,36,36.9208333,10.0761111
borj el khouja,,36,36.9208333,10.0761111
borj el meragueb,,32,34.7316667,10.4683333
borj ennbaza,,36,36.6502778,10.245
borj et teurki,,36,36.6611111,9.9691667
borj et touil,,26,36.9333333,10.1438889
borj et tourki,,14,36.1258333,8.7136111
borj fouaoud,,36,36.5877778,10.1658333
borj frennj,,26,36.7,9.8144444
borj gourbata,,30,34.2727778,8.5488889
borj graba,,36,36.6711111,9.9619444
borj hadida,,18,36.9172222,9.8725
borj jenein,,34,31.7330556,10.1505556
borj mahdjouba,,18,36.9713889,9.7613889
borj mahjouba,,18,36.9713889,9.7613889
borj mechehed salah,,34,32.1922222,10.9872222
borj mejen bel abbes,,02,34.7333333,8.5166667
borj mohammed el haj ali,,32,34.7155556,10.3977778
borj mohammed el majiri,,32,34.7208333,10.3966667
borj ouichka,,18,37.0361111,9.8894444
borj oulad lara,,36,36.8375,10.3225
borj saidane,,31,33.7666667,9.3
borj sidi toui,,28,32.7333333,11.3666667
borj turki,,26,36.8719444,10.1672222
bou abdallah,,22,35.8502778,9.4277778
bou aleg,,19,36.8519444,10.8544444
bou alem,,30,34.5666667,8.95
bou ali,,32,34.7019444,11.1986111
bou arada,,26,36.35,9.6166667
bou arkoub,,19,36.5333333,10.55
bou atouch,,29,33.9,9.7666667
bou attouche,,29,33.9,9.7666667
bou bellel,,30,34.4333333,9.2833333
bou cebah,,29,33.6166667,9.9
bou chebka,,02,35.1694444,8.435
bou chema,,29,33.9,10.0666667
bou chemma,,29,33.9,10.0666667
bou chenini,,29,33.9,10.0666667
bou chlaga,,19,36.5466667,10.1883333
bouder,,16,35.6666667,10.8333333
boudher,,16,35.6666667,10.8333333
bou djafer,,23,35.835,10.64
bou djelida,,26,36.4166667,9.5166667
bou djerga,,36,36.7163889,10.2647222
bou el azhar,,19,36.6855556,10.8119444
bou ficha,,19,36.3016667,10.4547222
boughrara,,28,33.5377778,10.6761111
bou ghrara,,28,33.5377778,10.6761111
bou grad,,30,34.6086111,8.8713889
bou grara,,28,33.5377778,10.6761111
bou hadjar,,16,35.6833333,10.8666667
bou hamed,,28,33.3033333,10.7377778
bou hamram,,30,34.3666667,9.1
bou hamran,,30,34.3666667,9.1
bou hamrane,,30,34.3666667,9.1
bou jerga,,36,36.7163889,10.2647222
boukrim,,19,36.9222222,10.9336111
bou menjel,,28,33.7775,10.7694444
bou merdas,,15,35.45,10.7333333
bou merdes,,15,35.45,10.7333333
bourdjine,,23,35.6666667,10.5833333
bou rebia,,23,35.6833333,10.5666667
bou regba,,26,36.7497222,10.0588889
bourguiba,,18,37.1558333,9.7936111
bou saadia,,03,36.0333333,9.6333333
bou salem,,06,36.6097222,8.9713889
bou thadi,,32,35.1,10.2666667
brada,,26,36.7386111,10.0025
braina,,32,34.7205556,10.3402778
bu adjar,,16,35.6833333,10.8666667
bu ali,,32,34.7019444,11.1986111
bu `aradah,,26,36.35,9.6166667
bu ar rabi`ah,,23,35.6833333,10.5666667
bu `attush,,29,33.9,9.7666667
bu ballal,,30,34.4333333,9.2833333
bu ficha,,19,36.3016667,10.4547222
bu fisha,,19,36.3016667,10.4547222
bu fishah,,19,36.3016667,10.4547222
bu ghirarah,,28,33.5377778,10.6761111
bu hajar,,16,35.6833333,10.8666667
bu humran,,30,34.3666667,9.1
bu jalidah,,26,36.4166667,9.5166667
bulaydat al muqaddamin,,34,32.8666667,10.4166667
bulla reggia,,06,36.5622222,8.7588889
bu mirdas,,15,35.45,10.7333333
burghuthiyah,,31,33.6047222,8.915
burj ahmad za'id,,27,36.6330556,10.2836111
burj al amri,,26,36.7027778,9.8877778
burj `alawiyin,,26,36.6888889,9.8883333
burj al bay,,19,36.84,10.9113889
burj al bay,,23,36.0333333,10.3052778
burj al hafsiyah,,26,36.7319444,9.9275
burj al hajj ibrahim,,14,35.8333333,8.6
burj al hajj muhammad,,02,35.5833333,8.7666667
burj `ali bin `ammar,,36,37.0002778,10.0927778
burj al khirbah,,18,37.0580556,9.7597222
burj ash shaykh bu al qasim,,18,36.95,9.3166667
burj at tahir,,06,36.5,9.2666667
burj at tawil,,26,36.9333333,10.1438889
burj at turki,,26,36.8719444,10.1672222
burj bash mamluk,,36,36.6208333,9.9883333
burj bin shalabi,,18,37.0086111,9.7713889
burj bu ar ramadah,,26,36.3833333,10.0333333
burj frendj,,26,36.7,9.8144444
burj fulayfil,,03,36.2,9.6666667
burj majin bu al `abbas,,02,34.7333333,8.5166667
burj qurbatah,,30,34.2727778,8.5488889
burj sidi at tawi,,28,32.7333333,11.3666667
bu sabah,,29,33.6166667,9.9
bu sa`diyah,,03,36.0333333,9.6333333
bu salim,20310,06,36.6097222,8.9713889
bu shabakah,,02,35.1694444,8.435
bu shammah,,29,33.9,10.0666667
bu shema,,29,33.9,10.0666667
bu thady,,32,35.1,10.2666667
bu `urqub,,19,36.5333333,10.55
camp de la sante,,06,36.7333333,8.6833333
camp de sante,,06,36.7333333,8.6833333
camp-des-chenes,,06,36.7333333,8.6833333
camp de sidi el hani,,23,35.6713889,10.3158333
camp de souk el djemaa,,22,35.8791667,9.1333333
camp de souk el jemaa,,22,35.8791667,9.1333333
camp du zarour,,18,37.115,9.7397222
camp serviere,,19,36.6463889,10.4427778
capsa,,30,34.425,8.7841667
carthage,,36,36.8541667,10.3302778
cebala-ben-ammar,,26,36.915,10.1055556
cebala-du-mornag,,36,36.6816667,10.2888889
cedada,,35,34.0169444,8.2711111
cekhira,,32,34.2833333,10.1
chaba remada,,19,36.5116667,10.8041667
chabbia,,35,33.9166667,8.1333333
chabet smala,,29,33.5,10.0
chahbania,,28,33.255,10.8377778
chakbanaria,,14,36.1822222,8.7147222
chalbi,,06,36.5644444,8.905
chaouach,,26,36.7166667,9.55
chaouache,,26,36.7166667,9.55
chaouat,,18,36.875,9.9444444
chara bou krim,,19,36.9391667,10.9238889
charpin ville,,14,35.735,8.2744444
chassart-teffaha,,26,36.7,9.6
chebabia,,28,33.7666667,10.9833333
chebba,,15,35.2372222,11.115
chebbaou,,36,36.8463889,10.0375
chebchoub,,32,34.7627778,10.3655556
chebika,,35,34.3166667,7.9333333
chebikha,,35,34.3166667,7.9333333
cheguimi,,29,33.4,10.1333333
cheikh birm,,18,37.1663889,9.9569444
cheikh hamed,,03,35.9694444,9.9780556
chekanes,,16,35.7833333,10.8
chemlali,,29,33.6166667,9.8833333
chemtou ance,,06,36.4833333,8.5833333
chenenni,,29,33.8666667,10.0666667
chenini,,29,33.8666667,10.0666667
chenini,,34,32.9166667,10.2666667
chenini de gabes,,29,33.8666667,10.0666667
chergui,,32,34.7561111,11.2491667
cherichira,,03,35.6372222,9.815
cheylus,,37,36.5572222,10.06
chidibbia,,26,36.5833333,9.5166667
chikka benar,,14,36.1822222,8.7147222
chorbane,,15,35.2833333,10.3833333
chougri,,18,36.8861111,9.7977778
chouigui,,18,36.8861111,9.7977778
chourbane,,15,35.2833333,10.3833333
chuiggui,,18,36.8861111,9.7977778
cite lescure,,36,36.7736111,10.2238889
cite ouvriere,,23,36.1430556,10.3558333
clupea,,19,36.85,11.1
col de babouch,,06,36.8166667,8.6666667
cremieuxville,,26,36.8388889,10.1727778
creteville,,36,36.6625,10.3280556
crich el oued,,26,36.6833333,9.6666667
dababishah,,31,33.7930556,8.7511111
dachret bou djehda,,26,36.4166667,9.5166667
dachret bou djelida,,26,36.4166667,9.5166667
daghagba,,34,32.8333333,10.4666667
daghagha,,34,32.8333333,10.4666667
daghaghah,,34,32.8333333,10.4666667
dagla,,19,36.9530556,10.8305556
dahmani,,14,35.9447222,8.8325
dai zina,,19,36.3894444,10.4466667
damous,,16,35.6666667,10.7666667
damous el laya,,26,36.7638889,10.0058333
damouss,,16,35.6666667,10.7666667
damouss,,19,36.7666667,10.7333333
daour amar ben ali saidani,,18,37.2438889,9.5661111
daour haoussene,,18,37.2438889,9.6055556
dar `abd al `aziz,,02,35.5333333,8.8166667
dar abdallah bel hadj,,18,37.0538889,9.4947222
dar abdallah bel haj,,18,37.0538889,9.4947222
dar abdallah ben talef,,19,36.8980556,10.9322222
dar abd el aziz,,02,35.5333333,8.8166667
dar ahmed ben hadj yahia,,19,36.9369444,10.9458333
dar ahmed ben haj yahia,,19,36.9369444,10.9458333
dar ahmed ben keani,,19,36.9094444,10.8872222
dar ahmed mohammed ed derouich,,19,36.8666667,10.8783333
dar ahmed mohammed largueb,,03,35.2669444,9.6455556
dar ahmed msakni,,19,36.8455556,10.8413889
dar al `arusi,,23,36.1122222,10.2916667
dar al bay,,18,36.7666667,9.45
dar al fallah,,03,35.1613889,9.9916667
dar al hajj `ali bin sulayman,,22,36.05,9.3166667
dar al hajj hasan,,16,35.6833333,10.6833333
dar al hajj salih bin mubarak,,02,35.6533333,8.7269444
dar al hajj yusuf,,26,36.3738889,9.8755556
dar ali ben baziz,,32,34.7605556,10.5330556
dar ali ben bouzid,,03,35.3566667,9.6797222
dar ali ben hamidou,,18,37.2894444,9.6163889
dar ali ben hammidou,,18,37.2894444,9.6163889
dar ali ben hassene,,16,35.5,10.7
dar ali ben mohammed,,03,35.1325,10.0066667
dar ali bey,,03,35.6775,9.91
dar `ali bin hamidu,,18,37.2894444,9.6163889
dar `ali bin hassan,,16,35.5,10.7
dar al jalalibah,,03,35.7191667,9.4944444
dar al jundi,,19,36.8,10.6666667
dar al misratiyah,,19,36.6716667,10.4644444
dar al mu'adhdhin bin qasim,,03,35.6941667,9.8469444
dar al qabisi,,26,36.75,9.7166667
dar al widyan,,19,36.7966667,10.8694444
dar ameur,,03,35.3888889,9.5713889
dar amor ben rammah,,03,35.1663889,9.9930556
dar amor cherina,,18,37.2333333,9.6666667
dar amrous,,18,36.8166667,9.5
dar ash shawush `abd allah,,23,35.9094444,10.4663889
dar at talib hasan,,19,36.9297222,10.9791667
dar at tuwaybiyah,,03,35.3216667,10.2038889
dar awlad al murabit,,23,36.0758333,10.2930556
dar awlad khalifah,,02,35.35,8.6166667
dar awlad sidi farhat,,03,35.9566667,10.0688889
dar azdine,,32,34.6588889,11.0916667
dar bach hamba,,37,36.48,9.7847222
dar bach mufti,,03,35.6505556,10.1397222
dar bagara,,03,35.3261111,9.7275
dar bel gacem,,18,36.9333333,10.0333333
dar belkassem ben hadj naceur,,03,35.2830556,9.5405556
dar belkassem ben haj naceur,,03,35.2830556,9.5405556
dar bel kassem bou ktel,,03,35.3102778,10.1391667
dar ben amar,,19,36.9244444,10.8558333
dar ben el ouaar,,32,34.8077778,10.5463889
dar beni amar,,19,36.8722222,10.9191667
dar ben mbarek,,32,34.8019444,10.5408333
dar ben nehar,,32,34.7944444,10.5452778
dar ben saidane,,37,36.2566667,9.9572222
dar ben slimane,,19,36.6177778,10.8766667
dar ben zallout,,19,36.6844444,10.7866667
dar bir soula,,18,37.0713889,9.7919444
dar bou agine,,19,36.6713889,10.8002778
dar bou diya,,26,36.8666667,10.25
dar bou guedaoui,,19,36.9375,10.8394444
dar bou guetaia,,14,36.2666667,9.0
dar bou habib,,19,36.8788889,10.8555556
dar bou khelif,,19,36.8797222,10.8838889
dar bou sain,,19,36.5166667,10.6
dar bou zeraia,,18,37.2141667,9.5675
dar bou zid,,14,35.8333333,8.4666667
dar brahim ben assassa,,19,36.9330556,10.8391667
dar brahim ben kahia,,15,35.3811111,10.2211111
dar brahim ben nasser,,19,36.9302778,10.8930556
dar brinissa,,03,35.4602778,9.5188889
dar bu al qasim,,18,36.9333333,10.0333333
dar bu diya',,26,36.8666667,10.25
dar bu qattayah,,14,36.2666667,9.0
dar bu zayd,,14,35.8333333,8.4666667
dar-chaabane,,19,36.4694444,10.7511111
dar-chaabane-el-fehri,,19,36.4694444,10.7511111
dar chabane,,19,36.4694444,10.7511111
dar chabanne,,19,36.4694444,10.7511111
dar chaouch ali ben khalifa,,17,36.1458333,9.9761111
dar chaouch ali ben kralifa,,17,36.1458333,9.9761111
dar chaouch ali,,19,36.8447222,10.9188889
dar cheikh ahmed,,22,35.58,9.3066667
dar cheikh ali,,17,36.3325,9.7811111
dar cheikr ahmed,,22,35.58,9.3066667
dar cheikr ali,,17,36.3325,9.7811111
dar djendi,,19,36.8,10.6666667
dar djeziri,,36,36.88,10.2758333
dar dred,,19,36.8858333,10.8058333
dar ech chambi,,14,35.8755556,8.9422222
dar ech chaouch abd alla,,23,35.9094444,10.4663889
dar ech cheikh amor ben ali,,18,37.0263889,9.3941667
dar el allani,,03,35.7202778,10.0397222
dar el aroussi,,23,36.1122222,10.2916667
dar el beida,,18,36.8908333,10.0036111
dar el beil,,03,36.0319444,9.7947222
dar el bey,,18,36.7666667,9.45
dar el bey,,23,36.1352778,10.3808333
dar el bey,,36,36.8125,10.3044444
dar el bich,,19,36.7866667,10.9330556
dar el caid,,23,35.8694444,10.5925
dar el cheikh kilani,,18,37.1266667,9.5244444
dar el djendi,,19,36.8,10.6666667
dar el frinine,,19,36.5833333,10.6833333
dar el gabsi,,26,36.75,9.7166667
dar el gouadria,,32,34.9705556,10.6422222
dar el goudaria,,32,34.9705556,10.6422222
dar el guedidi,,19,36.8763889,10.8430556
dar el hadj ahmed,,06,36.5038889,8.9080556
dar el hadj ahmed,,26,36.3013889,9.9169444
dar el hadj ahmed souid,,36,36.8780556,10.3161111
dar el hadj aleya,,19,36.9319444,10.8638889
dar el hadj ali ben slimane,,22,36.05,9.3166667
dar el hadj ali,,19,36.9230556,10.8238889
dar el hadj amara,,23,35.9261111,10.3758333
dar el hadj daoui,,19,36.8705556,10.9252778
dar el hadj es srhir,,03,36.0,10.1166667
dar el hadj hassene,,16,35.6833333,10.6833333
dar el hadj mabrouk,,03,35.6761111,9.9144444
dar el hadj mohammed mallak,,32,34.7805556,10.7836111
dar el hadjri,,19,36.8944444,10.8036111
dar el hadj salah ben emmbarek,,02,35.6533333,8.7269444
dar el hadj salah ben m'barek,,02,35.6533333,8.7269444
dar el hadj taieb,,32,34.7844444,10.7438889
dar el hadj youssef,,26,36.3738889,9.8755556
dar el haj ahmed,,26,36.3013889,9.9169444
dar el haj ahmed souid,,36,36.8780556,10.3161111
dar el haj aleya,,19,36.9319444,10.8638889
dar el haj ali,,19,36.9230556,10.8238889
dar el haj amara,,23,35.9261111,10.3758333
dar el haj daoui,,19,36.8705556,10.9252778
dar el haj mabrouk,,03,35.6761111,9.9144444
dar el haj mohammed mallak,,32,34.7805556,10.7836111
dar el hajri,,19,36.8944444,10.8036111
dar el haj salih ben moubarak,,02,35.6533333,8.7269444
dar el haj taieb,,32,34.7844444,10.7438889
dar el haj youssef,,26,36.3738889,9.8755556
dar el haoui,,19,36.8575,10.8463889
dar el jilani,,19,37.0005556,10.9994444
dar el kharaz,,19,36.6763889,10.7658333
dar el koudia,,18,37.2827778,9.8638889
dar el madani,,32,34.8222222,10.6755556
dar el mahameri,,19,36.8838889,10.9275
dar el matia,,19,36.9372222,10.9633333
dar el mouldi,,19,36.8777778,10.8280556
dar el mzali,,19,36.8391667,10.9383333
dar el ouahichi,,32,34.8136111,10.5252778
dar el oudiane,,19,36.7966667,10.8694444
dar el ouzir,,36,36.8775,10.3302778
dar el said,,23,35.8694444,10.5925
dar el tehami,,32,34.9755556,10.5886111
dar er rebia,,37,36.3255556,9.785
dar er reml,,19,36.8333333,10.9472222
dar es saadi,,32,34.9127778,10.6644444
dar es srahia,,03,35.9341667,10.1055556
dar et talerzat,,27,36.6386111,10.3516667
dar et tehami,,32,34.9755556,10.5886111
dar et touibia,,03,35.3216667,10.2038889
dar ez zogb el ouafi,,26,37.1166667,10.1666667
dar fallah,,03,35.1613889,9.9916667
dar farikat,,02,35.3166667,8.5833333
dar frikat,,02,35.3166667,8.5833333
dar grim el oussit,,19,36.9325,10.8927778
dar hadj ahmed ben ameur,,03,35.6672222,9.9652778
dar hadj ali ben sliman,,22,36.05,9.3166667
dar hadj en nour,,19,36.8586111,10.8880556
dar hadj salah,,23,35.6666667,10.4105556
dar haj ahmed ben ameur,,03,35.6672222,9.9652778
dar haj en nour,,19,36.8586111,10.8880556
dar haj salah,,23,35.6666667,10.4105556
dar halfaoui,,26,36.7333333,9.7333333
dar halfawi,,26,36.7333333,9.7333333
dar hamad djedidi,,19,36.4302778,10.4752778
dar hamad jedidi,,19,36.4302778,10.4752778
dar harcha,,03,35.3094444,9.7325
darharha,,34,32.8333333,10.4666667
dar hasan al murabit,,18,36.9666667,9.4666667
dar hasan zegoulli,,19,36.6602778,10.7919444
dar hassen ben bel kassem,,03,35.2738889,10.1994444
dar hassene ech chemiki,,18,37.295,9.6788889
dar hassene el mrabott,,18,36.9666667,9.4666667
dar hassen zegouli,,19,36.6602778,10.7919444
dar hassen zegoulli,,19,36.6602778,10.7919444
dar hassine ben ameur,,19,36.7797222,10.8538889
dar hessine ben amor,,19,36.7797222,10.8538889
dar husayn bin `amir,,19,36.7797222,10.8538889
dar `izz ad din,,32,34.6588889,11.0916667
dar jdida,,19,36.9136111,10.8741667
dar jeziri,,36,36.88,10.2758333
dar karaeche,,19,36.7644444,10.9144444
dar khaled,,23,36.0608333,10.3136111
dar khalid,,23,36.0608333,10.3136111
dar khalifa ben hassene,,19,36.8872222,10.8991667
dar kraled,,23,36.0608333,10.3136111
dar krarrata,,18,37.2041667,9.6077778
dar ktori,,32,34.6666667,10.7166667
dar ktory,,32,34.6666667,10.7166667
dar ladjimi,,03,35.6711111,9.7225
dar lajimi,,03,35.6711111,9.7225
dar mallul,,19,36.9058333,10.9533333
dar mannsour bou amara,,03,35.2105556,9.9130556
dar marrouch,,14,35.7,8.4333333
dar melloul,,19,36.9058333,10.9533333
dar merazguia,,18,37.2,9.5986111
dar mimoun bey,,36,36.8747222,10.3411111
dar mohamed bel hadj ali,,02,35.5333333,8.85
dar mohamed bel hdaj ali,,02,35.5333333,8.85
dar mohammed bel hadj,,18,37.0519444,9.4722222
dar mohammed bel haj,,18,37.0519444,9.4722222
dar mohammed ben abdallah,,17,36.1333333,10.0166667
dar mohammed ben ahmed,,19,36.945,10.9555556
dar mohammed ben hazaz,,19,36.8725,10.8547222
dar mohammed ben mabrouk,,19,36.9886111,10.9797222
dar mohammed ben messaoud,,26,36.7166667,9.75
dar mohammed salah,,32,34.8602778,10.75
dar mouaddene ben kassem,,03,35.6941667,9.8469444
dar mouaddenne ben kassem,,03,35.6941667,9.8469444
dar muhammad bin `abd allah,,17,36.1333333,10.0166667
dar muhammad bin mas`ud,,26,36.7166667,9.75
dar muhammad bu al hajj `ali,,02,35.5333333,8.85
dar naheli,,26,36.8930556,10.1316667
darnayah,,02,35.1316667,8.4711111
dar noureddine,,19,36.8475,10.9436111
dar olad el hadj alib abdallah,,32,34.9769444,10.8155556
dar olad el-hadj ali ben abdallah,,32,34.9769444,10.8155556
dar oulad daoued,,19,36.7866667,10.8577778
dar oulad otsmane,,19,36.9255556,10.8277778
dar ouled khalifa,,02,35.35,8.6166667
dar ouled sidi ferhatt,,03,35.9566667,10.0688889
dar ramel,,18,37.2933333,9.6147222
dar retba,,19,36.4394444,10.48
dar safi,,19,36.8852778,10.965
dar salah bene saad,,18,37.2075,9.6055556
dar salah ben zaroug,,03,35.6322222,10.1033333
dar salah bey,,36,36.8666667,10.3166667
dar salah bou el fellah,,03,35.9961111,9.7038889
dar salih bey,,36,36.8666667,10.3166667
dar sbiaete,,14,35.8591667,8.5913889
dar sha`ban,,19,36.4694444,10.7511111
dar shawush `ali bin khalifah,,17,36.1458333,9.9761111
dar sialah,,03,35.1561111,9.9063889
dar sidi al azhar,,14,35.7666667,8.85
dar sidi attik,,19,36.7358333,10.8566667
dar sidi azhar,,14,35.7666667,8.85
dar sidi el azhar,,14,35.7666667,8.85
dar sidi el gani,,19,36.9013889,10.9480556
dar sidi el moudjad,,18,37.2963889,9.5705556
dar sidi el moujad,,18,37.2963889,9.5705556
dar sidi m'hamed ech cherif,,36,36.8883333,10.3180556
dar sidi muhammad ash sharif,,36,36.8883333,10.3180556
dar soudane,,19,36.8166667,10.8222222
dar souid,,34,32.8,10.3666667
dar sudan,,19,36.8166667,10.8333333
dar suwayd,,34,32.8,10.3666667
dar tahar zaouch,,36,36.8802778,10.3208333
dar taieb bou abd el slam,,33,35.2422222,9.3780556
dar taieb bou abd es slam,,33,35.2422222,9.3780556
dar taleb hassem,,19,36.9297222,10.9791667
dar taleb hassene,,19,36.9297222,10.9791667
dar taleb mohammed,,19,36.6675,10.8211111
dar titi,,23,35.6341667,10.3794444
dar touibia,,03,35.3216667,10.2038889
dar `umar bin ar rammah,,03,35.1663889,9.9930556
dar `umrus,,18,36.8166667,9.5
dashrat al aouach,,22,36.0333333,9.2166667
dashrat al `ar`arah,,22,36.3166667,9.3333333
dashrat al bahirine,,22,36.0333333,9.6
dashrat al fuqrah,,03,36.0333333,9.6166667
dashrat al ghamiliyah,,22,35.9444444,9.5236111
dashrat al ghar,,03,36.05,9.65
dashrat al hadaya,,03,35.4633333,9.6808333
dashrat al kramet,,22,36.3166667,9.3166667
dashrat al oucelti,,22,36.2,9.5166667
dashrat al qanburah,,03,35.8952778,9.5425
dashrat al qannarah,,22,35.9747222,9.5455556
dashrat al qaryah,,22,35.7722222,9.445
dashrat al qulay`ah,,03,35.9166667,9.5833333
dashrat al waslatiyah,,22,35.9561111,9.2719444
dashrat an nechad,,22,36.0333333,9.6
dashrat as sarduk,,03,35.9491667,9.7619444
dashrat at taw'amah,,03,35.9091667,9.5530556
dashrat awlad `isawi,,03,35.6472222,9.5952778
dashrat awlad muhammad bin sa`id,,02,35.6525,8.6072222
dashrat az zaribah,,22,35.9336111,9.5130556
dashrat ballutah,,03,36.05,9.6166667
dashrat bin `abd allah,,22,35.8027778,9.4655556
dashrat bin sa`idan,,37,36.2566667,9.9572222
dashrat bu `abd allah,,22,35.8502778,9.4277778
dashrat bu dabbus,,03,35.9072222,9.8047222
dashrat bu sabioun,,22,35.9441667,9.5091667
dashrat bu tays,,03,36.1166667,9.65
dashrat chetlou,,26,36.4166667,9.3833333
dashrat janwah,,22,35.8425,9.4988889
dashrat kaf ash shami,,19,36.8666667,10.9666667
dashrat mansurah,,22,35.8130556,9.4794444
dashrat sefaieb,,22,35.6622222,9.1055556
dashrat sidi hamadah,,22,35.9577778,9.5491667
dashrat zawiyat sidi salih,,02,35.15,8.6666667
dawalah,,19,36.8333333,10.6166667
dawwar ad dahmani,,18,37.0955556,9.8075
dawwar ad dawawidah,,22,35.7316667,9.4641667
dawwar ad duwaymis,,18,37.2025,9.6277778
dawwar ad duwayrah,,18,37.07,9.8519444
dawwar al adhla,,03,35.3908333,9.9538889
dawwar al `amamiriyah,,14,35.7991667,9.0227778
dawwar al aouata,,14,35.8383333,8.9986111
dawwar al `arab,,18,37.0186111,9.4519444
dawwar al azaizia,,14,35.7944444,8.8433333
dawwar al barashiniyah,,02,35.75,8.7333333
dawwar al bashir,,18,37.2333333,9.6333333
dawwar al falitah,,18,37.1377778,9.5847222
dawwar al farwah,,18,37.2080556,9.7633333
dawwar al frinine,,19,36.5833333,10.6833333
dawwar al ghiran,,18,37.3291667,9.7486111
dawwar al hadjerine,,18,36.9586111,10.0163889
dawwar al hajj ahmad,,06,36.5038889,8.9080556
dawwar al hajj ahmad,,14,36.35,8.85
dawwar al hajj ahmad,,19,36.5166667,10.4
dawwar al hajj mansur,,19,36.5611111,10.4044444
dawwar al hajj wanis,,02,35.6833333,8.85
dawwar al hammamji,,18,36.8166667,9.4166667
dawwar al hofer,,18,37.1141667,9.9705556
dawwar al huwayd,,18,37.0930556,9.9869444
dawwar `ali bin az zayn,,06,36.4966667,8.5086111
dawwar `ali bin khulut,,02,35.6666667,8.8
dawwar al jawawidah,,18,37.1497222,9.9236111
dawwar al kharratah,,18,37.2041667,9.6077778
dawwar al khaymah,,18,37.1555556,9.9386111
dawwar al mabtuhah,,18,36.9652778,9.9486111
dawwar al ma',,31,33.3833333,7.75
dawwar al majanin,,17,36.3,9.6333333
dawwar al malikat,,33,34.9333333,9.5166667
dawwar al manarah,,18,37.3216667,9.6905556
dawwar al qawadiriyah,,14,35.75,8.9833333
dawwar al qusayr,,18,37.2133333,9.5644444
dawwar al waslatiyah,,22,36.2666667,9.3333333
dawwar ar ru`aynin,,19,36.8519444,10.9052778
dawwar ash cheniti,,18,37.2225,9.6383333
dawwar ash shatayb,,18,37.2188889,9.6722222
dawwar ash shatt,,36,36.8475,10.3213889
dawwar as sawalim,,22,35.8136111,9.1463889
dawwar as sulah,,18,37.2027778,9.7463889
dawwar at talib `ali,,27,36.6386111,10.3516667
dawwar at tallah,,18,37.3,9.7666667
dawwar awlad `abbas,,03,35.3758333,9.4972222
dawwar awlad al hajj ahmad,,19,36.5038889,10.2488889
dawwar awlad `ali bin nasir,,02,35.7,8.7333333
dawwar awlad bu `aziz,,14,35.7666667,9.0
dawwar awlad gana,,14,35.7833333,8.85
dawwar awlad mas`ud,,02,35.7333333,8.7166667
dawwar awlad sidi `abid,,14,35.8333333,8.3833333
dawwar awlad zaytun,,14,35.7675,9.0344444
dawwar az zaribah,,26,37.1,10.15
dawwar az zarqun,,18,37.2666667,9.75
dawwar az zughb,,26,37.1166667,10.1666667
dawwar bayud,,22,35.6333333,9.3333333
dawwar bechouk,,18,37.0986111,9.5819444
dawwar bed,,26,36.8,9.5833333
dawwar bin jarw,,14,35.9105556,8.9444444
dawwar bin mansur,,18,37.2980556,9.6408333
dawwar bin misbah,,18,37.2858333,9.6897222
dawwar bi'r as sulah,,18,37.0713889,9.7919444
dawwar bu al `a'id,,18,37.0411111,9.7044444
dawwar bu nafil,,22,35.9636111,9.1936111
dawwar bu sem,,19,36.5166667,10.6
dawwar cherfech,,36,36.9563889,10.0458333
dawwar dar ramil,,18,37.2933333,9.6147222
dawwar farrujah,,18,37.2072222,9.6425
dawwar ghar ouinkel,,18,37.2575,9.6305556
dawwar goungla,,18,37.1655556,9.7655556
dawwar guerfdjana,,18,36.9333333,10.0166667
dawwar hammadah,,18,37.3166667,9.6666667
dawwar henna,,18,36.8666667,9.9833333
dawwar ja`far,,18,37.2319444,9.7419444
dawwar jawwal,,14,35.9986111,9.1236111
dawwar lezdine,,18,36.9461111,10.0075
dawwar manzil `amir,,18,36.9080556,10.005
dawwar messeftine,,18,37.0797222,9.7488889
dawwar mraf,,18,37.1016667,9.2341667
dawwar muhammad bu al hajj bu al qasim,,14,35.8333333,8.35
dawwar qamamisah,,14,35.9627778,8.765
dawwar qarnatah,,18,37.0986111,9.9997222
dawwar ra's al `ayn,,14,35.9833333,8.8166667
dawwar salih bin sa`d,,18,37.2075,9.6055556
dawwar sha`ib,,03,35.7588889,9.5469444
dawwar sidi `amir,,18,37.2405556,9.6011111
dawwar sidi bu hanash,,26,36.9736111,10.1316667
dawwar sidi muhammad bu al qurun,,02,35.5833333,8.9166667
dawwar sidi salih bin husayn,,06,36.9,8.6833333
dawwar sidi `uthman,,18,36.95,9.9166667
dawwar suq al ithnayn,,18,37.0511111,9.8119444
dawwar tinjah,,18,37.1666667,9.75
dawwar `umar cherina,,18,37.2333333,9.6666667
dawwar `unq al jamal,,18,36.9,9.9666667
dawwar `uthman bin hasan,,19,36.5355556,10.4125
dawwar `uwayn al hajjaj,,19,36.7333333,10.7166667
dawwar yusuf bey,,18,37.0491667,9.8058333
debabcha,,31,33.7930556,8.7511111
debdaba,,29,33.8833333,9.8
debdabat el jerardia,,03,35.6436111,9.5394444
de carnieres,,18,36.9558333,9.9922222
dechour marraoua,,18,37.1616667,9.9436111
dechra ballouta,,03,36.05,9.6166667
dechra bou tiss,,03,36.1166667,9.65
dechra el hedaya,,03,35.4633333,9.6808333
dechra kef chami,,19,36.8666667,10.9666667
dechrat el araara,,22,36.3166667,9.3333333
dechrat kramet,,22,36.3166667,9.3166667
dechret bahirine,,22,36.0333333,9.6
dechret ballouta,,03,36.05,9.6166667
dechret ben-abdallah,,22,35.8027778,9.4655556
dechret beni abdallah,,22,35.8027778,9.4655556
dechret ben saidane,,37,36.2566667,9.9572222
dechret bou abdallah,,22,35.8502778,9.4277778
dechret bou dabous,,03,35.9072222,9.8047222
dechret bou dabouss,,03,35.9072222,9.8047222
dechret bou sabioun,,22,35.9441667,9.5091667
dechret bou tis,,03,36.1166667,9.65
dechret chetlou,,26,36.4166667,9.3833333
dechret djenoua,,22,35.8425,9.4988889
dechret el aarara,,22,36.3166667,9.3333333
dechret el agraine,,03,35.9480556,9.6041667
dechret el amdjenine,,17,36.3,9.6333333
dechret el aouach,,22,36.0333333,9.2166667
dechret el bahirine,,22,36.0333333,9.6
dechret el fougra,,03,36.0333333,9.6166667
dechret el gamboura,,03,35.8952778,9.5425
dechret el garia,,22,35.7722222,9.445
dechret el golea,,03,35.9166667,9.5833333
dechret el guennara,,22,35.9747222,9.5455556
dechret el kramet,,22,36.3166667,9.3166667
dechret el onennara,,22,35.9747222,9.5455556
dechret el oucelti,,22,36.2,9.5166667
dechret el ousseltia,,22,35.9561111,9.2719444
dechret el rhar,,03,36.05,9.65
dechret en nechad,,22,36.0333333,9.6
dechret er ramlia,,22,35.9444444,9.5236111
dechret es sardouek,,03,35.9491667,9.7619444
dechret es serdouk,,03,35.9491667,9.7619444
dechret et mannsoura,,22,35.8130556,9.4794444
dechret ez zriba,,22,35.9336111,9.5130556
dechret ghamlia,,22,35.9444444,9.5236111
dechret guennara,,22,35.9747222,9.5455556
dechret jelelba,,03,35.7102778,9.4675
dechret jenoua,,22,35.8425,9.4988889
dechret majoura,,30,34.6666667,9.2333333
dechret mannsoura,,22,35.8130556,9.4794444
dechret nechia,,22,36.0333333,9.6
dechret ouled aissaoui,,03,35.6472222,9.5952778
dechret ouled kralifa,,02,35.35,8.6166667
dechret ouled mohamed ben said,,02,35.6525,8.6072222
dechret rhamlia,,22,35.9444444,9.5236111
dechret sefaieb,,22,35.6622222,9.1055556
dechret sidi hamada,,22,35.9577778,9.5491667
dechret touama,,03,35.9091667,9.5530556
dechret zaouiet sidi salah,,02,35.15,8.6666667
dechret zerdoud,,03,35.9491667,9.7619444
degache,,35,33.9858333,8.2202778
deguach,,35,33.9858333,8.2202778
dehiba,,34,32.0166667,10.7
dehibat,,34,32.0166667,10.7
dekhila,,18,36.8666667,9.7
dekrnia,,14,36.3333333,9.2
depienne,,26,36.45,10.0333333
dernaia,,02,35.1316667,8.4711111
diar beni allah,,03,35.505,9.4755556
diar-el-adjiaj,,19,36.6269444,10.8613889
diar el amri,,02,35.6333333,8.5666667
diar el hadi hassan,,15,35.2894444,11.0541667
diar el hadjedj,,19,36.6269444,10.8613889
diar el hadj hassan,,15,35.2894444,11.0541667
diar el haj hassan,,15,35.2894444,11.0541667
diar el hajjej,,19,36.6269444,10.8613889
diar oulad hamouda,,15,35.3666667,11.0333333
diyar al hajjaj,,19,36.6269444,10.8613889
diyar al hajj hassan,,15,35.2894444,11.0541667
diyar awlad hammudah,,15,35.3666667,11.0333333
djafar,,26,36.8875,10.1952778
djama,,22,36.1166667,9.2833333
djama el guelloufi,,28,33.6166667,11.0333333
djama er rih,,14,36.41,8.9191667
djara,,29,33.9,10.1
djara es srhira,,29,33.9,10.1
djar al amri,,02,35.6333333,8.5666667
djar el amri,,02,35.6333333,8.5666667
djaziret-el-louhichi,,31,33.7727778,8.8647222
djebaniana,,32,35.0333333,10.9166667
djebarna,,32,34.8166667,10.4727778
djebel abiod,,17,36.9833333,9.0833333
djebel-abiodh,,17,36.9833333,9.0833333
djebel abiot,,17,36.9833333,9.0833333
djebel djelloud,,36,36.7763889,10.205
djebeliana,,32,35.0333333,10.9166667
djebel mdilla,,30,34.2866667,8.7505556
djebel oust,,37,36.5572222,10.06
djebel trozza,,03,35.5433333,9.5825
djebeniana,,32,35.0333333,10.9166667
djebibina,,03,36.1166667,10.1
djebiniana,,32,35.0333333,10.9166667
djedaid,,31,33.6852778,8.9547222
djedak ali,,32,34.9777778,10.5897222
djedeia,,18,36.8311111,9.9241667
djedeida,,18,36.8311111,9.9241667
djedida,,18,36.8311111,9.9241667
djedida,,31,33.7236111,8.9330556
djehim,,35,33.9061111,8.1247222
djelidatt,,34,32.9,10.45
djeloula,,03,35.8002778,9.7955556
djemal,,16,35.6333333,10.7666667
djemil,,18,37.2358333,9.9175
djemma,,31,33.5777778,9.0147222
djemmal,,16,35.6333333,10.7666667
djemmel,,16,35.6333333,10.7666667
djemna,,31,33.5777778,9.0147222
djeneien,,34,31.7330556,10.1505556
djeradou,,19,36.2719444,10.3286111
djeradoux,,19,36.2719444,10.3286111
djerba,,28,33.8747222,10.8591667
djerda,,02,35.6608333,8.5888889
djerf,,28,33.6958333,10.7341667
djerf el kanntara,,28,33.6333333,10.95
djerf el kantara,,28,33.6333333,10.95
djerissa,,14,35.845,8.6375
djezira,,31,33.7727778,8.8647222
djilma,,33,35.2741667,9.4252778
djorf bou grara,,28,33.5377778,10.6761111
djorf,,28,33.6958333,10.7341667
djors,,28,33.6958333,10.7341667
djoua awlad sultan,,14,35.8333333,8.85
djouaber,,32,34.7666667,11.25
djoua oulad soltane,,14,35.8333333,8.85
douaber,,32,34.7666667,11.25
douaidia,,06,36.9355556,8.8011111
douala,,19,36.8333333,10.6166667
douane,,19,36.4447222,10.7508333
douar abdallah,,18,37.1147222,9.6544444
douar abd el kader,,27,36.565,10.2475
douar adou,,36,36.5277778,10.2913889
douar aifa,,22,35.9702778,9.2402778
douar ain ghelal,,18,37.1138889,9.8733333
douar ain rhelal,,18,37.1138889,9.8733333
douar aissa,,03,35.9166667,9.7391667
douar ali ben ahmar,,27,36.6005556,10.2819444
douar ali ben amara,,18,37.0866667,9.9430556
douar ali ben ez zine,,06,36.4966667,8.5086111
douar ali ben krelout,,02,35.6666667,8.8
douar ali ben msika,,14,36.0113889,8.8483333
douar ali bou mesbah,,03,35.9369444,9.6925
douar ali bou said,,03,35.2997222,9.8533333
douar ali el hadj amar,,03,35.2566667,10.1497222
douar ali el haj amar,,03,35.2566667,10.1497222
douar amor ben ramah,,03,35.1663889,9.9930556
douar amor cherina,,18,37.2333333,9.6666667
douar ank el djemel,,18,36.9,9.9666667
douar aouin el hedjadj,,19,36.7333333,10.7166667
douar atmane ben hacene,,19,36.5355556,10.4125
douar atmane ben hassene,,19,36.5355556,10.4125
douar atouama,,06,36.7391667,8.7883333
douar baya rassa,,18,37.1805556,9.7611111
douar bayoud,,22,35.6333333,9.3333333
douar bechatib,,18,37.2188889,9.6722222
douar bechouk,,18,37.0986111,9.5819444
douar bed,,26,36.8,9.5833333
douar bel aid,,18,37.0411111,9.7044444
douar belghout,,18,36.9741667,9.8330556
douar bel kassem ben amor,,03,35.3,10.1591667
douar belrhout,,18,36.9741667,9.8330556
douar ben amara,,18,37.1358333,9.9697222
douar ben aouda,,18,37.0519444,9.8897222
douar ben chelbi,,18,37.0036111,9.7669444
douar ben diffalah,,14,35.9597222,9.1141667
douar ben djouida,,32,34.7416667,10.3816667
douar bene mansour,,18,37.2980556,9.6408333
douar ben hamda ech chrif,,18,36.9916667,9.7538889
douar ben hamouda el klia,,18,37.1202778,9.9172222
douar beni oudzil,,18,37.2786111,9.6605556
douar beni oussel,,18,37.2058333,9.7180556
douar ben jarou,,14,35.9105556,8.9444444
douar ben jouida,,32,34.7416667,10.3816667
douar ben mahmoud,,14,35.9338889,9.1158333
douar ben mannsour,,18,37.2980556,9.6408333
douar ben miled,,27,36.5788889,10.2566667
douar ben mosbah,,18,37.2858333,9.6897222
douar ben nasseur,,18,37.32,9.7436111
douar ben nour,,18,37.1955556,9.7261111
douar ben rjeb,,19,36.5183333,10.3636111
douar ben sadek,,18,37.1386111,9.9622222
douar ben saidane,,03,35.6338889,9.5711111
douar ben said,,18,37.1152778,9.9494444
douar ben said,,27,36.6022222,10.3569444
douar ben tiba,,18,37.1344444,9.9638889
douar berna,,18,37.0794444,9.7205556
douar besbessia,,18,37.0630556,9.9475
douar bessouf,,18,36.9733333,9.8705556
douar bir abd el ghim,,18,37.0430556,9.7908333
douar bir abd el rhim,,18,37.0430556,9.7908333
douar bir es soula,,18,37.0713889,9.7919444
douar bou ali,,03,35.1613889,9.9586111
douar bou beker,,03,35.9533333,9.7330556
douar bou beker,,27,36.5894444,10.2352778
douar bou chenina,,18,37.0219444,9.6175
douar bou daoudi,,03,35.9533333,9.6869444
douar bou djourane,,18,37.0936111,9.8525
douar bou jourane,,18,37.0936111,9.8525
douar bou maa,,06,36.7588889,8.7847222
douar bou mahres,,14,36.0619444,8.9816667
douar bou nefil,,22,35.9636111,9.1936111
douar bou rkane,,18,37.1038889,9.8622222
douar bou said,,27,36.5380556,10.2233333
douar bou sem,,19,36.5166667,10.6
douar boussari sghir,,03,35.3811111,9.9358333
douar boussari srhir,,03,35.3811111,9.9358333
douar brahim ben rahal,,18,37.1480556,9.9961111
douar brahim bou daoui,,19,36.9991667,10.9594444
douar brahim el hamidi,,32,34.7413889,10.4636111
douar chaib,,03,35.7588889,9.5469444
douar charbi,,26,36.9994444,10.1033333
douar chebbaou,,36,36.8463889,10.0375
douar cheikh ali,,18,37.0058333,9.8044444
douar cheikh amar,,19,36.8666667,10.9105556
douar cheniti,,18,37.2225,9.6383333
douar cherfech,,36,36.9563889,10.0458333
douar chouli,,03,35.8908333,9.6502778
douar dagma,,18,36.9377778,9.935
douar dahmani,,18,37.0955556,9.8075
douar dar ammar,,18,36.9863889,10.0261111
douar dar ramel,,18,37.2933333,9.6147222
douar demoine,,18,37.0955556,9.8075
douar djafeur,,18,37.2319444,9.7419444
douar djeddaria,,18,37.1427778,9.945
douar djouaouda,,18,37.1497222,9.9236111
douar djouf es sbiba,,14,35.8252778,9.0061111
douar djoum es srhir,,18,37.1008333,9.8808333
douar douahria,,18,37.0638889,9.2261111
douar douaidia,,06,36.9355556,8.8011111
douar douaouda,,22,35.7316667,9.4641667
douar douimis,,18,37.0566667,9.9841667
douar ech chaouia,,18,37.1986111,9.6952778
douar ech charafia,,14,36.105,8.9963889
douar ech chatib,,18,37.2188889,9.6722222
douar ech cheniti,,18,37.2225,9.6383333
douar ech cherif,,18,37.0775,9.6855556
douar ech cherit,,27,36.5708333,10.3241667
douar ech chott,,36,36.8475,10.3213889
douar ed demane ez zaa,,18,37.0908333,9.9108333
douar ed douimis,,18,37.2025,9.6277778
douar ed douira,,18,37.07,9.8519444
douar ej jenane,,18,37.0836111,9.6655556
douar el abaida,,03,35.6694444,9.5277778
douar el abd bou debous,,14,35.9347222,9.1480556
douar el adhla,,03,35.3908333,9.9538889
douar el agha,,18,37.1144444,9.9869444
douar el aich ben hamza,,18,37.2875,9.5925
douar el amamria,,14,35.7991667,9.0227778
douar el aouachia,,18,37.1375,9.9983333
douar el aouata,,14,35.8383333,8.9986111
douar el arab,,18,37.0186111,9.4519444
douar el arianout,,18,37.0922222,9.7986111
douar el assafir,,18,37.0416667,9.7447222
douar el ayad,,19,36.5372222,10.4327778
douar el azaizia,,14,35.7944444,8.8433333
douar el bachir,,18,37.0097222,9.8591667
douar el bahira,,03,35.3013889,10.1336111
douar el bakhia,,18,37.025,9.5586111
douar el beida,,18,37.0586111,9.8794444
douar el bezazia,,18,36.9947222,10.0325
douar el bheira,,06,36.5711111,8.4033333
douar el blate,,18,37.0786111,9.8552778
douar el brachenia,,02,35.75,8.7333333
douar el chott,,36,36.8475,10.3213889
douar el debabsa,,14,35.9669444,9.1180556
douar el djedid,,19,36.565,10.3794444
douar el djenane,,18,37.0836111,9.6655556
douar el douimiss,,18,37.2025,9.6277778
douar el faroua,,18,37.2080556,9.7633333
douar el fedja,,18,37.0966667,9.9308333
douar el feja,,18,37.0966667,9.9308333
douar el felta,,18,37.1377778,9.5847222
douar el fras,,14,35.9588889,9.0
douar el fratis,,02,35.3147222,9.4452778
douar el frinine,,19,36.5833333,10.6833333
douar el gharba,,03,35.9283333,9.7311111
douar el ghezel,,27,36.5366667,10.3552778
douar el ghirane,,18,37.3291667,9.7486111
douar el gouadria,,14,35.75,8.9833333
douar el graya,,18,37.2783333,9.7455556
douar el guelaia,,03,35.3730556,10.1494444
douar el guessa,,26,36.7833333,9.815
douar el guezadri,,18,37.0444444,9.7572222
douar el hadj ahmed,,06,36.5038889,8.9080556
douar el hadj ahmed,,19,36.5166667,10.4
douar el hadj ahmed,,27,36.6022222,10.2788889
douar el hadj ayas,,19,36.6341667,10.4347222
douar el hadj bou amra,,18,37.0811111,9.9108333
douar el hadj dhahbi,,14,36.0019444,8.7561111
douar el hadj djemaa,,27,36.5997222,10.2722222
douar el hadjerine,,18,36.9586111,10.0163889
douar el hadj mannsour,,19,36.5611111,10.4044444
douar el hadj mansour,,19,36.5611111,10.4044444
douar el hadj mohammed ben hassene,,18,37.3327778,9.7319444
douar el hadj mohammed,,18,37.2955556,9.5680556
douar el hadj mohammed,,19,36.64,10.3966667
douar el hadj mosbah,,27,36.6352778,10.3511111
douar el hadj oumis,,02,35.6833333,8.85
douar el hadj ounis,,02,35.6833333,8.85
douar el hadj said,,18,37.2566667,9.6219444
douar elhadj salah,,06,36.4908333,8.4813889
douar el hadj salem bou kheiba,,19,36.6002778,10.79
douar el hadj toumi,,19,36.5622222,10.4252778
douar el hafer,,18,37.1141667,9.9705556
douar el hafey,,36,36.8830556,10.3375
douar el haim,,26,36.7027778,9.8627778
douar el haj ahmed,,06,36.5038889,8.9080556
douar el haj ahmed,,27,36.6022222,10.2788889
douar el haj ayas,,19,36.6341667,10.4347222
douar el haj bou amra,,18,37.0811111,9.9108333
douar el haj dhahbi,,14,36.0019444,8.7561111
douar el hajerine,,18,36.9586111,10.0163889
douar el haj jemaa,,27,36.5997222,10.2722222
douar el haj mannsour,,19,36.5611111,10.4044444
douar el haj mohammed ben hassene,,18,37.3327778,9.7319444
douar el haj mohammed,,18,37.2955556,9.5680556
douar el haj mohammed,,19,36.64,10.3966667
douar el haj mosbah,,27,36.6352778,10.3511111
douar el haj said,,18,37.2566667,9.6219444
douar el haj salah,,06,36.4908333,8.4813889
douar el haj salem bou kheiba,,19,36.6002778,10.79
douar el haj toumi,,19,36.5622222,10.4252778
douar el hamandji,,18,36.8166667,9.4166667
douar el haouidh,,18,37.0930556,9.9869444
douar el hassini,,18,37.1347222,9.5783333
douar el helalif,,18,37.1236111,9.875
douar el hofer,,18,37.1141667,9.9705556
douar el jedid,,19,36.565,10.3794444
douar el kafia,,14,36.0516667,8.9602778
douar el kechabta,,18,37.0902778,9.9241667
douar el kharrouba,,18,37.08,9.9527778
douar el kherifa,,18,37.0488889,9.8775
douar el khima,,18,37.1555556,9.9386111
douar el khissane,,18,37.1222222,9.9069444
douar el krima,,18,37.1555556,9.9386111
douar el ksir,,18,37.2133333,9.5644444
douar el maada,,18,37.1025,9.83
douar el mabtouha,,18,36.9652778,9.9486111
douar el ma,,31,33.3833333,7.75
douar el mallaha,,22,35.9286111,9.1377778
douar el medjanine,,17,36.3,9.6333333
douar el medjoub,,18,37.1005556,9.9041667
douar el mehadba,,23,36.025,10.4613889
douar el mehamid,,33,35.3175,9.4680556
douar el mejoub,,18,37.1005556,9.9041667
douar el mekki,,18,37.0066667,9.8277778
douar el merdsa,,22,35.9047222,9.2355556
douar el metroub,,18,37.1041667,9.7327778
douar el mezline,,18,37.0630556,9.8963889
douar el mnara,,18,37.3055556,9.6966667
douar el mrabet,,22,35.9130556,9.2241667
douar el ouslatia,,22,35.9561111,9.2719444
douar el rharba,,03,35.9283333,9.7311111
douar el rhirane,,18,37.3291667,9.7486111
douar el tarig,,33,35.37,9.4377778
douar el zough,,26,37.1166667,10.1666667
douar ennbaza,,27,36.6463889,10.2502778
douar en nouilia,,03,35.3052778,10.1772222
douar er rahmane,,27,36.6191667,10.235
douar er rainine,,19,36.8519444,10.9052778
douar er remadni,,19,36.9988889,10.9188889
douar er rhezel,,27,36.5366667,10.3552778
douar er rirane,,18,37.3291667,9.7486111
douar er roumane,,18,37.0980556,9.9541667
douar es safsaf,,18,37.1211111,9.9297222
douar es sakkak,,18,36.9983333,9.8730556
douar es sali,,18,37.2483333,9.6530556
douar es sghaira,,32,34.7452778,10.4827778
douar es smara,,18,37.0538889,9.8283333
douar es soula,,18,37.2027778,9.7463889
douar es srhaira,,32,34.7452778,10.4827778
douar et tahouna,,18,37.0269444,9.6522222
douar et taleb ali,,27,36.6386111,10.3516667
douar et tarig,,33,35.37,9.4377778
douar et tella,,18,37.3,9.7666667
douar et toub,,18,37.2355556,9.6647222
douar et touila,,18,36.9958333,9.8166667
douar ez zafra,,18,37.2516667,9.6938889
douar ez zedine,,19,36.8191667,10.8922222
douar ez zerdoudi,,18,37.1197222,9.6252778
douar ez zergane,,32,34.7666667,10.4711111
douar ez zergoun,,18,37.2666667,9.75
douar ez zogb,,26,37.1166667,10.1666667
douar ez zough,,26,37.1166667,10.1666667
douar ez zourh,,26,37.1166667,10.1666667
douar ez zriba,,26,37.1,10.15
douar faroua,,18,37.2080556,9.7633333
douar faroudja,,18,37.2072222,9.6425
douar farouja,,18,37.2072222,9.6425
douar fellah,,03,35.1613889,9.9916667
douar felta,,18,37.1377778,9.5847222
douar ferdouine,,18,37.09,9.5591667
douar gabrejelli,,26,36.9488889,10.1052778
douar ghar ouinkel,,18,37.2575,9.6305556
douar ghezala,,18,37.2872222,9.7161111
douar goungla,,18,37.1655556,9.7655556
douar gournata,,18,37.0986111,9.9997222
douar guelaa,,18,37.1272222,9.92
douar guelfat,,19,37.0008333,10.9677778
douar guerfdjana,,18,36.9333333,10.0166667
douar hadj ahmed,,14,36.3583333,8.8527778
douar hadj chabane,,18,37.0452778,9.9338889
douar hadj salah,,18,37.0436111,9.9263889
douar haj ahmed,,14,36.3583333,8.8527778
douar haj chabane,,18,37.0452778,9.9338889
douar haj salah,,18,37.0436111,9.9263889
douar hamama,,23,35.76,10.2636111
douar hammada,,18,37.3166667,9.6666667
douar hammar el hattab,,18,37.0244444,9.6930556
douar hamouda ben mannsour,,18,37.0644444,9.6861111
douar hamouda,,03,35.8036111,9.6133333
douar hamrouna,,27,36.5577778,10.2452778
douar hashassia,,18,37.2561111,9.6044444
douar hasni salah,,19,37.0247222,10.9275
douar hassine ben hadj salah,,18,37.1869444,9.6866667
douar hassine ben haj salah,,18,37.1869444,9.6866667
douar henna,,18,36.8666667,9.9833333
douar jafeur,,18,37.2319444,9.7419444
douar jaouel,,14,35.9986111,9.1236111
douar jeddaria,,18,37.1427778,9.945
douar jelelba,,03,35.7191667,9.4944444
douar jendouba,,06,36.6238889,8.7752778
douar jouaouda,,18,37.1497222,9.9236111
douar jouf es sbiba,,14,35.8252778,9.0061111
douar joum es sghir,,18,37.1008333,9.8808333
douar kabyle,,06,36.9530556,8.7508333
douar kaddour,,03,35.9333333,9.7208333
douar kaouana,,36,36.9861111,10.0730556
douar kenndjel,,27,36.6277778,10.2330556
douar kennjel,,27,36.6277778,10.2330556
douar kharrata,,18,37.2041667,9.6077778
douar khelifa ben slimane,,03,35.3052778,10.1558333
douar khima,,18,37.1555556,9.9386111
douar kmamsa,,14,35.9627778,8.765
douar kouider en noual,,27,36.6052778,10.2502778
douar krelifa ben slimane,,03,35.3052778,10.1558333
douar laater,,14,35.9211111,9.1075
douar lababsa,,36,36.5216667,10.2980556
douar laheg ben merouah,,19,36.9941667,10.9683333
douar lezdine,,18,36.9461111,10.0075
douar maaoui ben said,,19,36.8886111,10.8266667
douar mabrouk ben mannsour,,18,37.2697222,9.5988889
douar mabrouk ben rehem,,15,35.3397222,10.23
douar maisra,,18,36.9377778,9.8236111
douar mannchara,,18,37.2133333,9.7477778
douar mannoubi,,19,36.61,10.4291667
douar maunsour bou hadia,,03,35.9177778,9.6333333
douar mbarek,,27,36.5716667,10.2438889
douar meguerba,,22,35.9305556,9.2694444
douar melikat,,33,34.9333333,9.5166667
douar mennchia,,36,36.9580556,10.0272222
douar mennzel aissa,,19,36.8602778,10.9136111
douar mennzel ameur,,18,36.9080556,10.005
douar mennzel rached,,18,36.9275,10.0127778
douar menzel ameur,,18,36.9080556,10.005
douar mernissa,,18,37.3186111,9.7025
douar merzaguine,,18,37.1788889,9.7213889
douar mesratia,,19,36.6716667,10.4644444
douar messeftine,,18,37.0797222,9.7488889
douar mnara,,18,37.3216667,9.6905556
douar mohammed bel hadj belkassem,,14,35.8333333,8.35
douar mohammed ben attala,,18,37.0058333,9.8122222
douar mohammed ben redjeb,,27,36.5591667,10.2583333
douar mohammed ben rejeb,,27,36.5591667,10.2583333
douar mohammed ben salah,,18,37.2986111,9.7397222
douar mohammed bou brahim,,03,35.9288889,9.6927778
douar mohammed del hajd belkassem,,14,35.8333333,8.35
douar mohammed,,18,37.1272222,9.6261111
douar mohammed,,27,36.6066667,10.3452778
douar mohammed el akerni,,03,35.3680556,10.1869444
douar mokhtar,,18,37.0722222,9.8977778
douar mokna,,18,36.9680556,9.7463889
douar mostefa,,18,37.1419444,9.9505556
douar moulaheneche,,06,36.5022222,8.3877778
douar mraf,,18,37.1016667,9.2341667
douar msakine,,33,35.4188889,9.4508333
douar msifin,,18,37.0130556,9.6127778
douar mtakerem,,18,37.2619444,9.5866667
douar olad sidi abid,,14,35.8333333,8.3833333
douar otsmane,,18,37.0652778,9.9113889
douar oudeia,,18,37.1061111,9.9705556
douar oulad abbas,,03,35.3758333,9.4972222
douar oulad ahmed ben ali,,22,35.8258333,9.1455556
douar oulad ahmed,,15,35.3669444,10.2055556
douar ouladaia,,18,37.2516667,9.5963889
douar oulad ali ben naceur,,02,35.7,8.7333333
douar oulad aoun,,23,35.9219444,10.2958333
douar oulad bou aziz,,14,35.7666667,9.0
douar oulad djebar,,23,35.7133333,10.3386111
douar oulad ech cherabi,,19,36.5683333,10.3877778
douar oulad el-hadj ali ben abdallah,,32,34.9769444,10.8155556
douar oulad el hadj salah,,32,34.9483333,10.8316667
douar oulad el haj ali ben abdallah,,32,34.9769444,10.8155556
douar oulad el haj salah,,32,34.9483333,10.8316667
douar oulad el kalaa,,06,36.5613889,8.3952778
douar oulad el mrabot,,23,36.0758333,10.2930556
douar oulad gana,,14,35.7833333,8.85
douar oulad hadj ahmed,,19,36.5038889,10.2488889
douar oulad haj ahmed,,19,36.5038889,10.2488889
douar oulad hassine ben abbas,,15,35.3716667,10.21
douar oulad jebar,,23,35.7133333,10.3386111
douar oulad kbir,,23,35.6977778,10.3366667
douar oulad khiar,,14,36.0530556,8.9880556
douar oulad messaoud,,02,35.7333333,8.7166667
douar oulad mohammed,,32,34.7166667,10.4238889
douar oulad moumen,,06,36.7491667,8.7697222
douar oulad salah,,32,34.8355556,10.49
douar oulad zitoun,,14,35.7675,9.0344444
douar oulad znai,,23,35.7388889,10.3116667
douar ouled abd allah,,03,35.3372222,9.4833333
douar ouled abd el kader,,32,34.5888889,10.3891667
douar ouled ali ben salem,,03,35.6319444,9.5808333
douar ouled avad,,06,36.6030556,8.7680556
douar ouled bou allah,,03,35.9086111,9.5980556
douar ouled bou zaria,,06,36.5483333,8.4036111
douar ouled messaoud,,03,35.625,9.5619444
douar ouled zaid,,03,35.5130556,9.5677778
douar oum et tine,,18,37.1525,9.9925
douar ousseltia,,22,36.2666667,9.3333333
douar rarounkel,,18,37.2575,9.6305556
douar ras el aine,,14,35.9833333,8.8166667
douar rebta,,14,35.965,9.0702778
douar rhar ouinkel,,18,37.2575,9.6305556
douar rhezala,,18,37.2872222,9.7161111
douar rouis er roua,,19,36.8180556,10.915
douar sadok,,03,35.9480556,9.7177778
douar said ben hadj,,18,37.0033333,9.7922222
douar said ben haj,,18,37.0033333,9.7922222
douar salah belkilani,,18,37.2655556,9.5580556
douar salah ben abda,,14,35.9852778,9.1225
douar salah ben khaled,,18,37.0069444,9.8494444
douar salah ben khalifa,,27,36.5686111,10.3533333
douar salah ben saad,,18,37.2075,9.6055556
douar salah ed dridi,,18,37.3061111,9.7230556
douar salem ben ez zine,,03,35.3152778,10.1508333
douar salem,,27,36.6261111,10.3519444
douar seka kebir,,18,36.9719444,9.8933333
douar seka sghir,,18,36.9744444,9.8905556
douar seka srhir,,18,36.9744444,9.8905556
douar sidi ameur,,02,35.0866667,9.2538889
douar sidi ameur,,18,37.2405556,9.6011111
douar sidi amor,,06,36.9213889,8.7933333
douar sidi athman,,18,36.95,9.9166667
douar sidi athmane,,18,36.95,9.9166667
douar sidi bou hanech,,26,36.9736111,10.1316667
douar sidi bou haneche,,26,36.9736111,10.1316667
douar sidi chabane,,36,36.5102778,10.3002778
douar sidi mohamed bel kroun,,02,35.5833333,8.9166667
douar sidi salah ben assine,,06,36.9,8.6833333
douar sidi salah ben hassine,,06,36.9,8.6833333
douar slimane gharbi,,18,37.1302778,9.9830556
douar slimane rharbi,,18,37.1302778,9.9830556
douar smaratia,,19,36.6716667,10.4644444
douar snesi,,18,37.0788889,9.1955556
douar soualem,,22,35.8136111,9.1463889
douar souarigue,,33,35.3030556,9.4691667
douar souk et tnine,,18,37.0511111,9.8119444
douar souk et toub,,18,37.0430556,9.8302778
douar soulah,,18,37.2027778,9.7463889
douar tassa,,18,37.1272222,9.5908333
douar tell er rebia,,03,35.895,9.6097222
douar tindja,,18,37.1666667,9.75
douar touba,,36,36.9683333,10.035
douar tourou,,18,37.2380556,9.5758333
douar trifaia,,18,37.0683333,9.6886111
douar youssef bey,,18,37.0491667,9.8058333
douar zaouia el kebira,,18,36.9147222,9.9755556
douar zaouia es sghira,,18,36.9061111,9.995
douar zaouia es srhira,,18,36.9061111,9.995
douar zouameia,,03,35.6994444,9.5280556
douar zouaouda,,22,35.7316667,9.4641667
douar zougdjag,,19,36.9002778,10.8111111
douar zougjag,,19,36.9002778,10.8111111
douar zouila,,27,36.6302778,10.2388889
douar zouitina,,18,37.2238889,9.5936111
douira,,18,37.07,9.8519444
douirat,,34,32.8666667,10.2833333
douiret es serdouk,,03,35.9491667,9.7619444
dour el hadj mannsour,,19,36.5611111,10.4044444
douz,,31,33.4575,9.0216667
dubosville,,36,36.7830556,10.1908333
duela,,19,36.8333333,10.6166667
duz,28127,31,33.4575,9.0216667
ebba-ksour,,14,35.8963889,8.8866667
ebba ksour,,14,35.9447222,8.8325
ebbenes,,31,33.6833333,8.8833333
ebness,,31,33.6833333,8.8833333
ech cheikh azzouz,,06,36.6022222,8.9872222
ech-chergui,,32,34.7561111,11.2491667
ech cheriha,,14,35.7566667,9.4672222
ech cheurfa,,03,36.0155556,9.9827778
ech chouachnia,,14,35.8166667,8.9
ech chouarbia,,14,35.9075,9.1416667
ech chouarnia,,14,35.9622222,9.1436111
ed debdaba,,29,33.8833333,9.8
eddekhila,,18,36.8666667,9.7
ed doghra,,30,34.4752778,8.5225
ed dzahibi,,23,36.0958333,10.2897222
edjouaouda,,16,35.5,10.9166667
el abadlia,,03,35.1408333,9.855
el abassia,,32,34.7225,11.2419444
el achaichia,,06,36.6208333,8.9430556
el achem,,16,35.4833333,10.6833333
el achichina,,32,34.4166667,10.1833333
el adara,,31,33.4330556,9.0055556
el agareb,,32,34.7411111,10.53
el agraine,,03,35.9480556,9.6041667
el aguerba,,32,34.8930556,10.8297222
el ahmar,,23,35.9463889,10.5372222
el ain,,32,34.8,10.7833333
el aioun,,06,36.5986111,8.7555556
el ajama,,14,35.9366667,9.13
el akhouat,,22,36.25,9.25
el akhouine,,19,36.5666667,10.5166667
el akrouine,,19,36.5666667,10.5166667
el ala,,03,35.6161111,9.5597222
el alekma,,16,35.6166667,10.8833333
el alem,,03,35.9088889,10.0586111
el alendaya,,28,33.4333333,11.0833333
el alia,,18,37.1666667,10.0333333
el alkema,,16,35.6166667,10.8833333
el amamria,,14,35.7966667,9.0247222
el amarmria,,14,35.7991667,9.0227778
el amra,,32,34.9836111,10.8980556
el aouaria,,19,37.0508333,11.0108333
el aouata,,14,35.8383333,8.9986111
el aouina,,26,36.8480556,10.2563889
el aouina,,31,33.3386111,8.8144444
el aouina,,36,36.8180556,10.305
el aouina radja,,31,33.3386111,8.8144444
el aouina raja,,31,33.3386111,8.8144444
el aouinat,,32,34.9033333,10.3744444
el aouinet raja,,31,33.3386111,8.8144444
el araba,,32,34.8775,10.3697222
el argoub,,29,33.55,10.05
el ariana,,26,36.8625,10.1955556
el arouna,,26,36.3833333,9.45
el aroussa,,26,36.3833333,9.45
el aroussia,,26,36.8133333,9.7963889
el assoued,,36,36.6655556,10.0475
el ataya,,32,34.7461111,11.2977778
el attaia,,32,34.7461111,11.2977778
el attar,,26,36.7319444,10.0716667
el attaya,,32,34.7461111,11.2977778
el awaria,,19,37.0508333,11.0108333
el ayacha,,30,34.3166667,9.2666667
el ayaicha,,30,34.3166667,9.2666667
el ayaoha,,30,34.3166667,9.2666667
el azaizia,,14,35.7944444,8.8433333
el azib,,18,37.2088889,9.9477778
el bahira,,15,35.3333333,11.0
el baiaz,,31,33.7,8.9833333
el bair,,32,34.8030556,10.285
el-bak-ksour,,14,35.8963889,8.8866667
el batane,,26,36.8161111,9.84
el bathane,,26,36.8161111,9.84
el bathan,,26,36.8161111,9.84
el battan,,26,36.8161111,9.84
el bayada,,33,35.4352778,9.4697222
el bedarna,,32,34.8741667,10.8275
el bekakcha,,19,36.8333333,10.65
el bekakha,,32,34.7822222,10.3372222
el bekakra,,32,34.7822222,10.3372222
el beniane,,32,34.8338889,10.6119444
el ben kheddaone,,28,33.25,10.2
el bey,,14,35.9627778,9.0522222
el bidha,,18,37.1391667,9.2475
el blida,,03,36.0166667,10.0333333
el borma,,34,31.6666667,9.1333333
el bostane,,26,36.8,10.1666667
el bourdjine,,23,35.6666667,10.5833333
el braouka,,29,33.5,10.1166667
el bredj,,19,36.8,10.6
el bridj,,19,36.8,10.6
el djem,,15,35.3,10.7166667
el djidida,,19,36.55,10.5333333
el erg,,35,34.0166667,8.1833333
el erijat,,03,35.1425,9.9261111
el fahri,,19,36.4647222,10.7511111
el fahs,,26,36.3669444,9.905
el faouar,,31,33.3683333,8.6680556
el fedja,,36,36.6797222,9.9813889
el fehri,,19,36.4647222,10.7511111
el feja,,36,36.6797222,9.9813889
el fleissiah,,03,36.0027778,9.9769444
el gelaah,,26,37.0666667,10.1166667
el gennara,,02,35.695,8.6913889
el ghazal,,33,34.5666667,9.5833333
el ghazalia,,14,36.0005556,8.8127778
el ghobena,,03,35.4883333,9.6475
el golaa,,31,33.4833333,9.0036111
el golea,,31,33.7747222,8.8525
el graa,,16,35.5833333,10.8666667
el guecheine,,28,33.8358333,10.9147222
el guedara,,31,33.5955556,8.8988889
el guennara,,02,35.695,8.6913889
el guetar,,30,34.3372222,8.9527778
el guettar,,30,34.3372222,8.9527778
el guithna,,35,33.9261111,8.1283333
el hachchane,,28,33.85,10.8333333
el haddada,,28,33.7833333,11.05
el hadeba,,03,35.2386111,9.7972222
el hadj amer,,06,36.4888889,8.8175
el hadj amor,,06,36.4888889,8.8175
el hadjerine,,18,36.9586111,10.0163889
el hadj es srhir,,03,36.0,10.1166667
el hadj mohammed zarrouch,,23,35.9452778,10.5083333
el hafsa,,29,33.5166667,9.9666667
el hafsi,,15,35.5275,11.0394444
el hahara k'bira,,28,33.8666667,10.8666667
el hahara srira,,28,33.8208333,10.8552778
el haj amor,,06,36.4888889,8.8175
el haj mohammed zarrouch,,23,35.9452778,10.5083333
el hamada,,16,35.75,10.7
el hamila,,18,37.2852778,9.7094444
el hamissia,,03,35.2966667,9.7825
el hamma de l'arad,,29,33.9,9.8
el-hamma-djerid,,35,34.0,8.15
el hamma du djerid,,35,34.0,8.15
el hamma,,29,33.9,9.8
el hamma,,35,34.0,8.15
el hammam,,06,36.5622222,8.7588889
el hani,,23,35.6713889,10.3158333
el haouach,,36,36.8880556,10.3222222
el haouaria,,19,37.0508333,11.0108333
el-haouid,,18,37.0930556,9.9869444
el haoumet,,03,35.9652778,10.0294444
el haraig,,14,35.7994444,9.225
el hashassia,,32,34.8247222,10.2738889
el hayara,,02,35.4333333,8.8
el hazem,,28,33.7833333,10.9333333
el hememda,,03,36.0102778,9.9794444
el houach zarzouna,,18,37.2658333,9.8763889
el houamdia,,32,34.7194444,10.3516667
el houanize,,06,36.6197222,8.9297222
el jema,,03,35.9733333,9.9580556
el jem,,15,35.3,10.7166667
el jemm,,15,35.3,10.7166667
el jezira,,31,33.7727778,8.8647222
el kalaa,,31,33.4833333,9.0036111
el kantara,,28,33.6852778,10.9225
el kantara,,36,36.9922222,10.0619444
el karouba,,26,36.8002778,9.7502778
el kef,,14,36.1822222,8.7147222
el kelij,,06,36.4591667,8.8038889
el keriba,,32,34.9836111,10.8980556
el ketef,,03,35.6333333,9.45
el khadria,,03,35.43,10.1033333
el khalfia,,28,33.3488889,10.7144444
el kharrouba,,03,35.3961111,9.985
el khelij,,06,36.4591667,8.8038889
el kheraib,,32,34.7786111,11.255
el kheriba,,06,36.6711111,8.9227778
el khnefess,,28,33.3125,10.9886111
el kilam,,06,36.9569444,8.9169444
el-korchine,,19,36.6777778,10.8669444
el kouache,,15,35.5036111,11.0472222
el kouaf,,18,37.1311111,9.2347222
el kouiba,,03,35.2366667,9.7847222
el kradria,,03,35.43,10.1033333
el krarrouba,,03,35.3961111,9.985
el kreiba,,06,36.6711111,8.9227778
el krelidj,,06,36.4591667,8.8038889
el kreraib,,32,34.7786111,11.255
el krerba,,29,33.5166667,10.1
el ksar,,29,33.9,9.8
el ksar,,30,34.3980556,8.8013889
el ksour,,14,35.8963889,8.8866667
el ksour,,22,35.9241667,9.3305556
el laba,,28,33.3130556,10.5255556
elles,,14,35.9497222,9.1005556
ellez,,14,35.9497222,9.1005556
el louza,,32,35.0297222,11.0038889
el maamoura,,19,36.4672222,10.8058333
el magazdia,,14,35.9697222,8.8716667
el maia,,29,33.9666667,10.0166667
el mai,,28,33.8,10.8833333
el maita,,29,33.8666667,10.0666667
el makhzene,,19,36.8666667,10.7333333
el maknassi,,33,34.6166667,9.6
el makrzene,,19,36.8666667,10.7333333
el malka,,36,36.8666667,10.3166667
el mamoura,,19,36.4672222,10.8058333
el mansouraa,,31,33.7261111,8.9386111
el marsa,,19,36.8333333,11.1
el marsa,,28,33.2,11.2166667
el marsa,,36,36.8833333,10.3333333
el marsal,,19,36.8333333,11.1
el may,,28,33.8,10.8833333
el mdou,,29,33.8,10.0833333
el mechref,,14,35.9102778,9.1225
el medjahed,,32,34.7783333,11.2261111
el medjless,,17,36.9438889,8.9838889
el medou,,29,33.8,10.0833333
el meghmouma,,31,33.5672222,8.8841667
el mejabra,,03,35.5447222,9.9441667
el mejless,,17,36.9438889,8.9838889
el menara,,29,33.85,10.1
el mennzel,,14,35.9594444,9.0852778
el menstir,,16,35.7833333,10.8333333
el menzel,,14,35.9594444,9.0852778
el merhmouma,,31,33.5672222,8.8841667
el metline,,18,37.25,10.05
el mgarsa,,28,33.8166667,11.0
el mhedba,,23,36.025,10.4613889
el mida,,19,36.7255556,10.8552778
el midda,,19,36.7255556,10.8552778
el m'khalif,,03,36.0333333,10.1833333
el mkralif,,03,36.0333333,10.1833333
el m'nagha,,26,36.5527778,9.945
el mouadjene,,06,36.4994444,8.265
el mouagene,,06,36.4994444,8.265
el mouajene,,06,36.4994444,8.265
el mourstane,,03,35.6797222,10.0877778
el mstiri,,36,36.6922222,10.0825
el omrane,,26,36.8166667,10.1666667
el oudiane,,19,36.7919444,10.8513889
el ouesfane,,03,36.1,10.1
el qantara,,28,33.6852778,10.9225
el redir,,06,36.7830556,8.7813889
el regueb,,33,34.8666667,9.7833333
el rhazalia,,14,36.0005556,8.8127778
el rhobena,,03,35.4883333,9.6475
el skhirra,,32,34.2833333,10.1
el toufik,,26,36.8,10.1666667
enfida,,23,36.1352778,10.3808333
enfidarille,,23,36.1352778,10.3808333
enfidaville,,23,36.1352778,10.3808333
en merhamcha,,06,36.5330556,8.7922222
en naffatiyah,,28,33.2397222,10.8702778
en nekhila,,03,35.6258333,9.6563889
en nekrila,,03,35.6258333,9.6563889
en nemlet,,35,33.9952778,8.1561111
en nerhamcha,,06,36.5330556,8.7922222
envidaville,,23,36.1352778,10.3808333
er rahmat,,31,33.6441667,8.9963889
er rainine,,19,36.8519444,10.9052778
er redjal el aroua,,16,35.5166667,10.9
er regueb,,33,34.8666667,9.7833333
er rejdane,,17,36.9333333,8.9666667
er remel,,15,35.5166667,11.05
er-remla,,32,34.7108333,11.1944444
erriadh,,28,33.8208333,10.8552778
er rmep,,06,36.9497222,8.7080556
er rouda,,15,35.5,11.05
erruda,,15,35.5,11.05
es sabra,,32,34.555,10.3061111
es safet,,23,36.0222222,10.3961111
es sakket,,30,34.3833333,9.2333333
es segala,,28,33.8,10.9166667
es send,,30,34.4666667,9.2666667
es sened,,30,34.4666667,9.2666667
es sid,,32,34.6202778,10.3619444
es snam,,28,33.3191667,10.6491667
es somaa,,19,36.5452778,10.7805556
es souda,,33,35.1,9.5366667
et tahma,,06,36.5177778,8.5166667
et taoufik,,26,36.8,10.1666667
et trabelsia,,03,35.9602778,10.1936111
et trabelsia,,23,35.9613889,10.2780556
ezgana,,15,35.4891667,11.045
ezouara,,03,36.1166667,10.1166667
ez zahra,,36,36.7461111,10.3083333
ez zaouaoudi,,23,36.0441667,10.3341667
ez zaouaouine,,18,37.1333333,10.05
ez zeguana,,15,35.4891667,11.045
ez zgadna,,32,34.73,10.3672222
ez zgana,,15,35.4891667,11.045
ez zghana,,15,35.4891667,11.045
ez zouaouine,,18,37.1333333,10.05
ez zouitina,,18,36.85,9.8833333
ez zriba,,29,33.4833333,10.0333333
faddan al baqar,,03,35.5363889,9.9675
fafou,,28,33.8666667,10.8833333
fahmine,,28,33.7166667,10.8666667
fahs,,26,36.3669444,9.905
fa'id,,33,35.0569444,9.6530556
fajj at tamir,,14,35.8833333,8.7166667
faoumt,,28,33.8666667,10.8666667
fath allah,,36,36.7680556,10.2094444
fatnassa,,31,33.7833333,8.75
faubourg bab souika,,26,36.8166667,10.1833333
feddane el begar,,03,35.5363889,9.9675
fedj et tameur,,14,35.8833333,8.7166667
feriana,,02,34.95,8.5666667
ferme lovy,,33,34.5666667,9.5833333
fernana,,06,36.6547222,8.6975
fernara,,06,36.6547222,8.6975
ferryville,,18,37.1558333,9.7936111
fertouna,,18,37.1547222,9.9025
fitnasah,,31,33.7833333,8.75
fochville,,36,36.7583333,10.2238889
foganine,,28,33.8,10.9
fondouck el oqbi,,03,35.5666667,9.75
fondouk choucha,,36,36.7577778,10.2480556
fondouk debbiche,,22,35.6822222,9.1080556
fondouk-djedid,,19,36.6705556,10.4475
fondouk-djedid-mesrayta,,19,36.6705556,10.4475
fondouk el aouareb,,03,35.5666667,9.75
fondouk el djedid,,19,36.6705556,10.4475
fondouk el okbi,,03,35.5666667,9.75
fondouk,,36,36.7577778,10.2480556
fondouk jedid,,19,36.6705556,10.4475
fonndouk bou el haneche,,02,35.7119444,8.6641667
fonndouk choucha,,36,36.7577778,10.2480556
fonndouk djedid,,19,36.6705556,10.4475
fonndouk el okbi,,03,35.5666667,9.75
fort-saint,,19,36.4333333,10.5833333
fortuna,,19,36.7522222,10.7808333
fouchana,,36,36.6988889,10.1705556
fouk ahmed el aifa,,14,35.7930556,9.0086111
foum tatahouine,,34,32.9333333,10.45
foum tataouine,,34,32.9333333,10.45
fraia,,23,35.7569444,10.6544444
franceville,,26,36.8161111,10.1661111
fremdj,,26,36.7,9.8144444
fumm tattauin,,34,32.9333333,10.45
fum tatawin,,34,32.9333333,10.45
funduq al `uqbi,,03,35.5666667,9.75
funduq ash shushah,,36,36.7577778,10.2480556
funduq dabbish,,22,35.6822222,9.1080556
furna,,26,36.7058333,9.8416667
furnah,,26,36.7058333,9.8416667
furriyanah,,02,34.95,8.5666667
fushanah,,36,36.6988889,10.1705556
gabes,,29,33.8833333,10.1166667
gaffour,,22,36.3333333,9.3166667
gafour,,22,36.3333333,9.3166667
gafsa,,30,34.425,8.7841667
gafso,,30,34.425,8.7841667
galaa,,31,33.4833333,9.0036111
galaat el andeless,,26,37.0666667,10.1166667
galaat el andless,,26,37.0666667,10.1166667
galaat el anndles,,26,37.0666667,10.1166667
galas el andeless,,26,37.0666667,10.1166667
gamart,,36,36.9083333,10.31
gammarth,,36,36.9,10.3166667
gammouda,,33,35.0402778,9.4936111
garnata,,18,37.0986111,9.9997222
gassa,,17,37.1191667,9.0163889
gasseur ed djedid,,34,32.6833333,10.9
gasseur el djedid,,34,32.6833333,10.9
ghaialif,,31,33.6925,8.9816667
ghannush,,29,33.9333333,10.0666667
ghar ad dima',,06,36.4502778,8.4397222
ghar al fahs,,16,35.5736111,11.0194444
ghar al milh,,26,37.1666667,10.1833333
ghardimaou,,06,36.4502778,8.4397222
ghar el fabs,,16,35.5736111,11.0194444
ghar el melah,,26,37.1666667,10.1833333
ghelissia,,31,33.5955556,8.8988889
ghermassa,,34,32.9833333,10.25
ghermessa,,34,32.9833333,10.25
ghidmah,,31,33.4333333,8.8166667
ghlissia,,31,33.4330556,9.0055556
ghomrassen,,34,33.0594444,10.34
ghoumerassen,,34,33.0594444,10.34
ghoumrassene el bled,,34,33.0594444,10.34
ghoumrassene,,34,33.0594444,10.34
ghoumrassen,,34,33.0594444,10.34
ghraiba,,32,34.5,10.2166667
ghulaysiyah,,31,33.4330556,9.0055556
ghumrasin,,34,33.0594444,10.34
golea,,03,35.9166667,9.5833333
golea,,31,33.7747222,8.8525
goletta,,36,36.8180556,10.305
gouarme,,28,33.6480556,10.5647222
goubellat,,26,36.5333333,9.6666667
goulette,,36,36.8180556,10.305
gounifida,,33,34.8666667,9.7833333
gourbis,,26,36.7280556,10.0358333
gourine,,28,33.6480556,10.5647222
gournata,,18,37.0986111,9.9997222
graba,,26,36.8083333,10.0419444
graba,,36,36.8183333,10.0094444
graiba,,32,34.5,10.2166667
gremda,,32,34.75,10.7833333
grenush,,29,33.9333333,10.0666667
greteville,,36,36.6625,10.3280556
grich el oued,,26,36.6833333,9.6666667
grich el qued,,26,36.6833333,9.6666667
grombalia,,19,36.5997222,10.4997222
grombalic,,19,36.5997222,10.4997222
guallala,,28,33.7275,10.8516667
guechaine,,28,33.8358333,10.9147222
guelaat el andeless,,26,37.0666667,10.1166667
guelaat-el-andless,,26,37.0666667,10.1166667
guelib es sebt,,03,35.95,9.9666667
guellala,,28,33.7275,10.8516667
guermessa,,34,32.9833333,10.25
guetaia,,31,33.6769444,8.8783333
guetoufa,,34,32.9,10.4833333
guettaia,,31,33.6769444,8.8783333
guettaya,,31,33.6769444,8.8783333
guettoufa,,34,32.9,10.4833333
gumis,,19,36.6963889,10.4916667
hachache-matmata,,29,33.5666667,10.0
hachichina,,32,34.4166667,10.1833333
haddada,,28,33.7833333,11.05
haddada,,34,33.1,10.3166667
haddadah,,34,33.1,10.3166667
haddedj,,29,33.5666667,10.0
haddej,,29,33.5666667,10.0
hadege,,29,33.5666667,10.0
hadjeb el aioune,,03,35.3969444,9.5455556
hadjeb el aioun,,03,35.3969444,9.5455556
hadj mohammed ben hamid,,19,36.9261111,10.9961111
hadrumete,,23,35.8588889,10.5938889
hadrumetum,,16,35.7833333,10.8333333
hadrumetum,,23,35.8255556,10.6411111
haf djerdjer,,34,32.7333333,10.3
haffouz,,03,35.635,9.6769444
haffuz,,03,35.635,9.6769444
hafi rassa,,29,33.5166667,10.0166667
haf jirjir,,34,32.7333333,10.3
hafret amaid,,03,35.6280556,9.5258333
haidra,,02,35.5672222,8.4597222
hajeb el aioun,,03,35.3969444,9.5455556
haj mohammed ben hamid,,19,36.9261111,10.9961111
halk el oued,,36,36.8180556,10.305
halq al wadi,,36,36.8180556,10.305
halq el oued,,36,36.8180556,10.305
hamadat al kebalou,,16,35.5,10.8666667
hamadet el kebalou,,16,35.5,10.8666667
hamam-el-guezeze,,19,36.8833333,11.1166667
hammam al anf,,36,36.7330556,10.3361111
hammam al ghazzaz,,19,36.8833333,11.1166667
hammam biada,,14,36.4197222,8.9438889
hammam djedidi,,19,36.395,10.3852778
hammam el fezoua,,06,36.5988889,8.4377778
hammam el rhezeze,,19,36.8833333,11.1166667
hammam el rhezez,,19,36.8833333,11.1166667
hammamet,,19,36.4,10.6166667
hammam jadidi,,19,36.395,10.3852778
hammam jedidi,,19,36.395,10.3852778
hammam lekses,,19,36.8833333,11.1166667
hammam-lif,,36,36.7330556,10.3361111
hammam-plage,,36,36.7202778,10.3716667
hammam sousse,,23,35.8588889,10.5938889
hammam susa,,23,35.8588889,10.5938889
hammam susah,,23,35.8588889,10.5938889
hamman-lif,,36,36.7330556,10.3361111
hamman-sousse,,23,35.8588889,10.5938889
hammat al jarid,,35,34.0,8.15
hanout cheikh,,33,35.0072222,9.9725
hanout seridik,,32,34.6963889,10.3216667
hanshir al fass,,02,35.5666667,8.9166667
hanshir `ali bin rajab,,22,36.1,9.5166667
hanshir al maraziqiyah,,18,37.2,9.5986111
hanshir al qussah,,06,36.7666667,9.0333333
hanshir al raqubah,,32,35.0833333,10.5666667
hanshir al rhiria,,17,36.7166667,9.1
hanshir as sawatir,,30,34.5333333,8.3666667
hanshir bani `umar,,18,37.2608333,9.7113889
hanshir bin khalladiyah,,17,36.6,9.2833333
hanshir qasr ghallab,,19,36.9833333,11.05
hanshir sa`diyah,,03,35.8725,10.1263889
hanshir sidi saadoum,,17,36.7833333,9.0666667
haouadid,,34,32.85,10.4666667
haouita el rhezala,,33,35.0833333,9.4
haouita er rhezat,,33,35.0833333,9.4
hara kbira,,28,33.8666667,10.8666667
hara kebira,,28,33.8666667,10.8666667
haras de sidi tabet,,36,36.9094444,10.0452778
hara-sghira,,28,33.8208333,10.8552778
hara srhira,,28,33.8208333,10.8552778
hara srira,,28,33.8208333,10.8552778
harqalah,6942,23,36.0333333,10.5
hassi amor,,28,33.3633333,10.6175
hassi soltane,,28,33.3241667,10.7786111
hawadid,,34,32.85,10.4666667
hawmat al andalus,,18,37.2830556,9.8741667
hawmat al badawiyin,,28,33.7833333,10.95
hawmat al fawqanin,,28,33.8,10.9
hawmat al hashshan,,28,33.85,10.8333333
hawmat al qibliyin,,28,33.7166667,10.7833333
hawmat as suq,,28,33.8747222,10.8591667
hawsh mahmud bin nasib,,33,34.8,9.55
haydus,,26,36.75,9.6
hazeg,,32,35.0333333,10.9666667
hechichina,,32,34.4166667,10.1833333
heidous,,26,36.75,9.6
heidouss,,26,36.75,9.6
hencha,,32,35.1333333,10.75
henchir abd el kader,,33,35.2230556,9.3227778
henchir ben ameur,,18,37.2608333,9.7113889
henchir ben saidane,,37,36.2566667,9.9572222
henchir bou djerida,,19,36.6044444,10.7577778
henchir bou jerida,,19,36.6044444,10.7577778
henchir djeradou,,06,36.2580556,8.4419444
henchir el haouachi,,33,35.3172222,9.3191667
henchir el merazguia,,18,37.2,9.5986111
henchir hadj ali bou hamouda,,33,35.0638889,9.4827778
henchir haj ali bou hamouda,,33,35.0638889,9.4827778
henchir jeradou,,06,36.2580556,8.4419444
henchir mejles,,17,36.9438889,8.9838889
henchir saadia,,03,35.8725,10.1263889
henchir sidi khalifa,,06,36.2841667,8.3988889
henchir-souatir,,30,34.5333333,8.3666667
henchir zarouane,,14,35.8922222,8.2905556
hennchir ali ben rejeb,,22,36.1,9.5166667
hennchir ben ameur,,18,37.2608333,9.7113889
hennchir ben khalladia,,17,36.6,9.2833333
hennchir bir bou zouita,,19,36.6513889,10.8555556
hennchir el fass,,02,35.5666667,8.9166667
hennchir el gounifida,,33,34.8666667,9.7833333
hennchir el merazguia,,18,37.2,9.5986111
hennchir er regouba,,32,35.0833333,10.5666667
hennchir goussa,,06,36.7666667,9.0333333
hennchir haidra,,02,35.5672222,8.4597222
hennchir ksar rhaleb,,19,36.9833333,11.05
hennchir saadia,,03,35.8725,10.1263889
hennchir sidi saadoum,,17,36.7833333,9.0666667
hennchir souatir,,30,34.5333333,8.3666667
henndi ech chiab,,23,35.9252778,10.3669444
henndi el alouj,,23,35.9616667,10.3533333
henndi el hadj brahim,,23,35.94,10.4397222
henndi el haj brahim,,23,35.94,10.4397222
henndi el menzel,,23,36.0055556,10.3794444
henndi es saada,,23,35.9594444,10.4444444
henndi es setta,,23,35.9594444,10.4311111
henndi et teggaz,,23,35.9325,10.4447222
henndi knana,,23,35.9538889,10.4041667
henndi oulad said,,23,35.9258333,10.3616667
henndi salmoun,,23,35.9805556,10.4102778
hergla,,23,36.0333333,10.5
herkla,,23,36.0333333,10.5
hessi amor,,28,33.3633333,10.6175
hiboun,,15,35.5147222,11.0413889
hibune,,15,35.5147222,11.0413889
hibun,,15,35.5147222,11.0413889
hippo diarrhytus,,18,37.2744444,9.8738889
hippou aksa,,18,37.2744444,9.8738889
houch mahmoud ben necib,,33,34.8,9.55
houmet el jerbou,,15,35.5194444,11.0452778
houmet essouk,,28,33.8747222,10.8591667
houmet es souk,,28,33.8747222,10.8591667
houmt andeless,,18,37.2830556,9.8741667
houmt bedouin,,28,33.7833333,10.95
houmt guebliine,,28,33.7166667,10.7833333
houmt souk,,28,33.8747222,10.8591667
houmt souq,,28,33.8747222,10.8591667
humk-suk,,28,33.8747222,10.8591667
humt-ajim,,28,33.7247222,10.7519444
humt-seduiksh,,28,33.7477778,10.9230556
humt-suk,,28,33.8747222,10.8591667
huwaytat al ghazalah,,33,35.0833333,9.4
`ilwat al qunnah,,28,33.15,11.4666667
jaafar,,26,36.9144444,10.1433333
jabal al jallud,,36,36.7763889,10.205
jabal al madilah,,30,34.2866667,8.7505556
jabal trozza,,03,35.5433333,9.5825
jabinyanah,7349,32,35.0333333,10.9166667
jafar,,26,36.8875,10.1952778
jalidat,,34,32.9,10.45
jama er rih,,14,36.41,8.9191667
jama,,22,36.1166667,9.2833333
jami` al guelloufi,,28,33.6166667,11.0333333
jammal,39990,16,35.6333333,10.7666667
jamnah,6254,31,33.5777778,9.0147222
jaradu,,19,36.2719444,10.3286111
jarah,,29,33.9,10.1
jarjis,79334,28,33.5,11.1166667
jarsine,,31,33.5391667,8.8233333
jawabir,,32,34.7666667,11.25
jawawilah,,29,33.8666667,10.0666667
jebarna,,32,34.8166667,10.4727778
jebel jelloud,,36,36.7763889,10.205
jebel m'dhilla,,30,34.2866667,8.7505556
jebel trozza,,03,35.5433333,9.5825
jedaida,,03,35.555,9.9836111
jedaid,,31,33.6852778,8.9547222
jedak ali,,32,34.9777778,10.5897222
jedeida,,18,36.8311111,9.9241667
jedida,,31,33.7236111,8.9330556
jehim,,35,33.9061111,8.1247222
jemna,,31,33.5777778,9.0147222
jenaien,,34,31.7330556,10.1505556
jendouba,,06,36.5011111,8.7794444
jeradou,,19,36.2719444,10.3286111
jerbna,,06,36.7575,8.9558333
jerissa,,14,35.845,8.6375
jilmah,5647,33,35.2741667,9.4252778
jilma,,33,35.2741667,9.4252778
jouaoula,,29,33.8666667,10.0666667
jougar,,37,36.2605556,9.9363889
jraida,,32,34.8119444,10.2780556
jundubah,51419,06,36.5011111,8.7794444
jurf al qantarah,,28,33.6333333,10.95
justiniania,,30,34.425,8.7841667
justiniapolis,,23,35.8588889,10.5938889
kabis,,29,33.8833333,10.1166667
kaf al marir,,14,36.1166667,9.2166667
kaf ar rayat,,33,35.1,9.95
kafsa,,30,34.425,8.7841667
kahoua ad douadji,,36,36.85,9.9833333
kahoua ed douadji,,36,36.85,9.9833333
kairouan,,03,35.6744444,10.1016667
kairwan,,03,35.6744444,10.1016667
kalaa djerda,,02,35.6608333,8.5888889
kalaa-es-senam,,14,35.765,8.3452778
kalaa k'bira,,23,35.8727778,10.5372222
kalaa kebira,,23,35.8727778,10.5372222
kalaa kebma,,23,35.8727778,10.5372222
kalaa matmata,,29,33.55,9.9666667
kalaa-sghira,,23,35.8255556,10.5580556
kalaa srira,,23,35.8255556,10.5580556
kalaat djerda,,02,35.6608333,8.5888889
kalaat-el-andaleus,,26,37.0666667,10.1166667
kalaat-el-andleus,,26,37.0666667,10.1166667
kalaat es senam,,14,35.765,8.3452778
kalaat khasba,,02,35.6608333,8.5888889
kantara,,28,33.6333333,10.95
kariz,,35,34.0072222,8.2505556
karsouline,,19,36.8811111,10.9355556
kasba bou nemcha,,34,32.8833333,10.65
kasba drina,,34,33.0,10.6166667
kasba es saboun,,34,32.8833333,10.9333333
kasbah drina,,34,33.0,10.6166667
kasbah,,26,36.8,10.1675
kasbah leguine,,34,32.8666667,10.9
kasba leguine,,34,32.8666667,10.9
kasba zamaz,,34,32.9666667,10.6
kasbet ammar,,34,32.9833333,10.65
kasbet dafnia,,34,32.8166667,10.7666667
kasbet el agoum,,34,32.75,10.2166667
kasbet el rherdegui,,34,32.9166667,10.65
kasbet ez zourgane,,34,32.8166667,10.7833333
kasbet oulad saidane,,34,32.7,10.2333333
kasbet tannfoura,,34,32.7833333,10.6833333
kasbet zamaz,,34,32.9666667,10.6
kasnadar,,26,36.8052778,10.1297222
kasra,2598,22,35.8119444,9.3644444
kasr moenza,,28,33.5,11.0833333
kasr said,,28,33.5166667,11.1166667
kasr zaouia,,28,33.5166667,11.1166667
kasr zauia,,28,33.5166667,11.1166667
kassar el hal,,16,35.65,10.9
kassar said,,26,36.8130556,10.1238889
kasserine,,02,35.1672222,8.8288889
kasserin,,02,35.1672222,8.8288889
kattanah,,29,33.7666667,10.2
kchaicha,,32,34.665,10.3608333
kebeur el djaheli,,26,36.9558333,10.1152778
kebeur el jaheli,,26,36.9558333,10.1152778
kebili el ouati,,31,33.6858333,8.9694444
kebili,,31,33.7019444,8.9736111
kef el mechta,,19,36.7877778,10.8405556
kef el mrir,,14,36.1166667,9.2166667
kef er rayat,,33,35.1,9.95
kef,,14,36.1822222,8.7147222
kelaa kebira,,23,35.8727778,10.5372222
kelibia,,19,36.85,11.1
kellabine,,32,34.7086111,11.2188889
kelouamene,,31,33.5888889,8.9091667
kelouamen,,31,33.5888889,8.9091667
keredine,,36,36.8263889,10.3180556
keriba,,32,34.9836111,10.8980556
kesra,,22,35.8119444,9.3644444
kessera,,22,35.8119444,9.3644444
kesser el hal,,16,35.65,10.9
ketena,,29,33.7666667,10.2
kettana,,29,33.7666667,10.2
khalouet bou haslaya,,02,35.2905556,8.5766667
khanguet el hadjadj,,19,36.6138889,10.4061111
khannguet el hadjadj,,19,36.6138889,10.4061111
khannguet el hajaj,,19,36.6138889,10.4061111
khanqat al hajjaj,,19,36.6138889,10.4061111
khayr ad din,,36,36.8263889,10.3180556
khelouet rebah,,14,35.8241667,8.4475
khenis,,16,35.7166667,10.8166667
kheraib,,32,34.7786111,11.255
kheredine,,36,36.8263889,10.3180556
khlaifa,,32,34.7058333,10.3716667
khledia,,27,36.6455556,10.1927778
khnis,,16,35.7166667,10.8166667
khorfa,,19,36.9833333,10.9666667
khoussiah,,23,35.7536111,10.3502778
khunays,,16,35.7166667,10.8166667
kirchaoui,,34,33.0313889,10.7980556
kirchaou,,34,33.0313889,10.7980556
kirshaw,,34,33.0313889,10.7980556
kisrah,,22,35.8119444,9.3644444
kledia,,27,36.6455556,10.1927778
kmamsa,,14,35.9627778,8.765
knais,,16,35.7166667,10.8166667
knais,,23,35.6833333,10.5166667
knaiss,,23,35.6833333,10.5166667
kneis,,16,35.7166667,10.8166667
kneis,,23,35.6833333,10.5166667
kobtine awlad `umar,,03,35.6411111,9.5202778
kobtine oled amor,,03,35.6411111,9.5202778
kobtine ouled amor,,03,35.6411111,9.5202778
korba,,19,36.5786111,10.8586111
korbous dar el oudiane,,19,36.8166667,10.5666667
korbous,,19,36.8166667,10.5666667
koudiat ech chouicha,,03,35.4766667,9.6425
koudiat,,18,37.2827778,9.8638889
kourba,,19,36.5786111,10.8586111
kourchine,,19,36.6777778,10.8669444
krachoua,,28,33.7666667,10.8833333
krachoua,,34,32.8166667,10.5666667
kram,,36,36.8333333,10.3166667
kraoui,,28,33.7333333,10.85
kreddache,,28,33.25,10.2
krerachfa,,28,33.1833333,10.3
kriba,,32,34.9836111,10.8980556
kriz,,35,34.0072222,8.2505556
krnis,,16,35.7166667,10.8166667
krorfa,,19,36.9833333,10.9666667
krouibia,,19,36.6341667,10.8202778
kroussia ferme,,23,35.7536111,10.3502778
kroussiah ferne,,23,35.7536111,10.3502778
kroussiah,,23,35.7536111,10.3502778
kroussia,,23,35.7536111,10.3502778
ksar aaiat,,34,32.8333333,10.3
ksar aissa,,34,32.85,10.2166667
ksar azzedine,,33,34.7333333,9.6666667
ksar beni kheddache,,28,33.1833333,10.3
ksar ben khedache,,28,33.1833333,10.3
ksar ben khradache,,28,33.1833333,10.3
ksar bou zid,,02,35.3666667,8.8666667
ksar bou ziri,,34,32.8166667,10.45
ksar cherchara,,34,32.9,10.95
ksar chitana,,34,32.8,10.3
ksar chouline,,34,33.0333333,10.4333333
ksar darhariet,,34,32.7666667,10.2833333
ksar de lala,,30,34.3933333,8.8247222
ksar djedid,,28,33.3,10.3
ksar djedid,,34,32.6833333,10.9
ksar djelidat,,34,32.9,10.5333333
ksar ech chehbane,,34,32.9833333,10.3833333
ksar el ababsa,,34,33.1166667,10.3833333
ksar el djedid,,34,32.6833333,10.9
ksar el djouama,,28,33.25,10.2666667
ksar el djouamea,,28,33.25,10.2666667
ksar el guennara,,22,35.9711111,9.2527778
ksar el hadid,,06,36.65,9.1
ksar el hallouf,,28,33.3,10.1666667
ksar el kebrit,,03,35.3944444,9.6391667
ksar el kradem,,02,35.3927778,9.1297222
ksar el kredem,,02,35.3927778,9.1297222
ksar el krerachefa,,28,33.1833333,10.3
ksar el rouima,,14,35.95,8.5333333
ksar et turki,,34,33.0241667,10.3291667
ksar ghilane,,31,33.0,9.6333333
ksar hallouf,,28,33.3,10.1666667
ksar hellal,,16,35.65,10.9
ksar kebrita,,03,35.3944444,9.6391667
ksar kherachefa,,28,33.1833333,10.3
ksar kheracheta,,28,33.1833333,10.3
ksar kourikria,,28,33.25,10.3333333
ksar krachoua,,34,32.8166667,10.5666667
ksar krerachefa,,28,33.1833333,10.3
ksar maned,,34,32.8333333,10.5166667
ksar mdoudja,,22,35.9311111,9.2241667
ksar mdouja,,22,35.9311111,9.2241667
ksar mehira,,34,32.8666667,10.8333333
ksar mehiri,,34,32.8666667,10.8333333
ksar metrioua,,34,32.8833333,10.3166667
ksar mezouar,,17,36.7833333,9.3333333
ksar mgassa,,34,32.7333333,10.2833333
ksar mguebla,,34,32.9166667,10.4333333
ksar mhiri,,34,32.8666667,10.8333333
ksar mihel,,34,32.8666667,10.2166667
ksar mihil,,34,32.8666667,10.2166667
ksar mora,,34,32.8166667,11.1
ksar morra,,34,32.8166667,11.1
ksar mouansa,,28,33.5,11.0833333
ksar mrabtine,,34,33.0311111,10.3780556
ksar nekrif,,34,32.8333333,10.25
ksar oulad aoun,,34,32.8666667,10.4833333
ksar oulad bou abid,,28,33.2333333,10.1833333
ksar oulad debbab,,34,32.8666667,10.3833333
