names,population,state_code,lat,lon
aaron,,07,-10.2333333,31.2166667
abdulla bin selemani,,07,-8.9333333,29.9333333
abdulla bin sulliman,,07,-8.9333333,29.9333333
abdullah bin selemani,,07,-8.9333333,29.9333333
abdullah bin sulliman,,07,-8.9333333,29.9333333
abel,,07,-10.2166667,32.7833333
abele maba,,06,-14.4833333,30.8833333
abel muwanda,,06,-14.0,31.5
abel muwandya,,07,-9.9,33.25
abelo,,05,-12.7166667,30.45
abercorn,,07,-8.8333333,31.3833333
aboylo,,07,-10.1,32.2833333
achitende,,07,-10.15,31.2333333
acitende,,07,-10.15,31.2333333
ackson,,06,-13.4666667,32.6833333
adams,,01,-13.3,23.2
adamson chibuye,,05,-12.7833333,30.7333333
adamson kulubale,,05,-12.5833333,30.45
adamson siame,,07,-10.0833333,32.6833333
adamson siyame,,07,-10.0833333,32.6833333
adonibizeka,,06,-14.0333333,31.6833333
adonsi,,03,-17.2333333,25.0333333
adrias,,06,-14.1833333,32.6333333
afumba,,03,-15.6333333,24.9333333
agripa,,06,-14.3833333,31.35
aibelilwe,,03,-17.3666667,24.8
aikelile,,03,-16.8333333,24.8833333
aikondo,,03,-15.2666667,22.8833333
ailola,,03,-15.55,23.1
ajungajunga,,03,-16.7,24.7666667
akaaiwa,,03,-15.6,23.1
akabiti,,03,-15.6166667,23.3666667
akakamba,,03,-17.35,24.7666667
akamonwa,,03,-17.4166667,24.8833333
akashambatwa,,03,-15.1,22.8166667
akawi,,03,-15.4666667,23.0666667
akazebi,,06,-13.55,31.9333333
akim kosoma,,05,-12.8,30.3333333
akim makosa,,05,-12.6166667,30.4333333
akokwa,,03,-15.4666667,23.05
akson,,06,-13.4666667,32.6833333
alan chibuya,,05,-12.7833333,30.3833333
alason cholafula,,05,-12.6333333,30.4166667
alec chimponda,,05,-12.9166667,30.5833333
aleluba,,03,-17.35,24.8
aleshi chisenda,,05,-12.8666667,30.2833333
aleshi flaichangwe,,05,-12.85,30.2666667
alexander mununka,,05,-12.8333333,30.5833333
alfred,,05,-14.4833333,28.4
alifeyo ngambe,,07,-10.35,33.35
alik chilembo,,07,-10.6,33.3833333
alikikoya,,06,-14.0166667,31.9833333
alimoni mambwe,,05,-12.9666667,30.5666667
aliomba,,03,-15.55,22.9666667
ali sakalani,,07,-9.1,29.7166667
aliyuda,,06,-13.2833333,31.9166667
alloleya,,07,-9.45,31.05
alon,,07,-10.3833333,33.4833333
aloni,,05,-13.15,30.6166667
amatende,,03,-15.35,22.85
ambanga,,03,-16.0833333,23.4833333
ambanwa,,03,-17.4833333,24.9
amoka,,03,-14.9666667,22.9833333
amon epahim,,06,-13.3166667,31.9333333
amoni,,06,-13.4333333,32.8
amoni,,08,-9.2833333,28.4333333
amoni kapansula,,05,-13.1833333,30.9666667
amoni mukando,,05,-12.5333333,30.3833333
amos,,06,-14.4333333,31.3333333
amos kalunga,,05,-12.8833333,30.2666667
amos kapeta,,05,-13.0666667,30.8666667
amos mwelwa,,05,-12.9333333,30.4
amukusana,,03,-15.4,23.3833333
amukuteile,,03,-17.3833333,24.7166667
amwalana,,03,-15.85,23.9333333
analilwa,,03,-15.0333333,23.1166667
analiwa,,03,-15.0833333,22.9333333
anamaa,,03,-15.0,23.5
anambulu,,03,-15.3,22.9166667
anandala,,03,-15.1166667,23.3166667
anasambata,,03,-17.2666667,24.6833333
anawana,,03,-15.5666667,23.1833333
andala sonchalwe,,05,-12.7166667,30.35
andeleya,,07,-9.5666667,31.2166667
anderson,,06,-13.5333333,32.4333333
andersoni,,05,-13.2166667,30.8666667
anderson mulawa,,03,-17.0,23.9833333
andirea,,06,-13.6,31.7666667
andiseni,,06,-14.3833333,31.7166667
andrea,,06,-13.6,31.7666667
andrea mwanje,,05,-12.9,30.6333333
andrew,,07,-10.05,32.75
andrew sinkala,,07,-9.5666667,32.6166667
andreya,,07,-9.3,31.9166667
anduu,,03,-14.85,23.25
anock chikwaba,,05,-14.4,27.2
anteu,,05,-12.55,33.3333333
anueli luawa,,05,-12.9333333,30.4333333
anwelo kalunga,,05,-12.85,30.55
anzeli,,03,-14.5,25.1
aongola,,03,-15.1833333,22.85
aran,,06,-13.1166667,31.8333333
aron,,06,-11.9833333,33.2166667
aron,,07,-8.95,31.6666667
aroni,,06,-14.3166667,31.3166667
aroni chilongo,,06,-13.1166667,31.8166667
aron kunda,,05,-13.05,30.6833333
asafu,,06,-13.6333333,32.25
asikuli,,03,-17.3333333,24.7666667
asiyenye,,03,-15.6333333,23.1
aslas,,06,-14.1333333,31.2666667
assumani,,07,-8.8666667,31.5
atanga,,03,-15.2833333,23.0333333
ausiku,,03,-15.4333333,22.8
awabelili,,03,-16.1,22.9
awata,,03,-14.9666667,22.6833333
axon chintu,,05,-13.2166667,30.8833333
azele,,06,-14.1,31.8833333
azere,,06,-14.1,31.8833333
bachundu,,06,-14.0333333,31.9
bagasa,,04,-16.3333333,28.8
bahati,,08,-11.05,28.8333333
baila,,06,-13.3,31.9333333
baimbai,,03,-14.6833333,23.2
bakenga,,04,-17.6666667,25.5833333
balanbeen,,02,-13.4166667,28.7666667
balazi,,07,-8.95,31.5833333
balmoral,,05,-15.5333333,28.1833333
balnabeen,,02,-13.4166667,28.7666667
balovale,,01,-13.55,23.1166667
balumika,,05,-14.4666667,29.4166667
bambwe,,04,-15.7666667,26.5166667
bambwe township,,04,-15.7666667,26.5166667
banachewembwe,,04,-15.7333333,27.3166667
banakachele,,04,-15.7166667,27.2
banamwaze,,04,-15.6333333,26.6
bancroft,,02,-12.3666667,27.8333333
banga,,04,-15.6666667,26.5
bangabanga,,02,-12.8333333,28.6666667
bangwe,,07,-9.4,30.15
banji,,04,-16.2833333,27.45
banji myanda,,04,-16.2833333,27.45
banojabo,,04,-15.6833333,27.5833333
barton,,07,-9.4,32.6166667
barua,,06,-13.1666667,31.8666667
barva,,06,-13.1666667,31.8666667
basanga,,04,-15.8666667,26.0833333
basebani,,03,-17.4,24.6833333
bashiluma,,05,-13.0666667,30.8166667
basilio,,07,-9.6666667,30.8
baskolo,,05,-13.2333333,30.6
basubila,,03,-16.4666667,24.5166667
batoka,,04,-16.7833333,27.2666667
batuke,,03,-14.4333333,23.2166667
batunda,,03,-14.7666667,23.0333333
batunga,,04,-15.5333333,26.1333333
batwelo,,06,-14.1,31.2833333
bayangwe,,04,-15.5666667,26.65
bayeka,,05,-14.8833333,26.1833333
bayeko,,05,-14.8833333,26.1833333
bedi,,06,-14.0666667,31.2833333
bedi mnkuni,,06,-14.0666667,31.2833333
belama,,05,-14.6333333,26.4
belemu,,04,-17.3166667,25.9166667
belleview,,02,-12.9,28.6333333
belview,,02,-12.9,28.6333333
bembu,,01,-13.8,23.2
benda,,03,-14.6833333,23.95
beneya,,07,-10.2666667,32.75
beni,,05,-13.2,30.6
beni maposo,,06,-14.3666667,31.2666667
benjamin,,07,-9.1166667,32.0666667
benjamin ngambe,,07,-10.3166667,33.5
benjamin ngombe,,07,-10.3166667,33.5
benjamin nyambi,,07,-10.35,33.5333333
benjamin silwelwa,,07,-10.3333333,32.6666667
benjamin siwila,,07,-10.1333333,32.5166667
benjimani chisanga,,05,-12.8833333,30.5833333
benjimani chisasa,,05,-12.8833333,30.5833333
ben kashiya,,05,-15.1,29.5333333
benson,,07,-8.8333333,31.5
benson katemene,,05,-12.7833333,30.75
berekiya musonte,,06,-14.3333333,31.4166667
beza,,06,-13.8666667,32.3666667
bichakana,,03,-14.3666667,23.7
bidima,,05,-12.8833333,30.0
bielu,,03,-15.0166667,24.0333333
biemba,,03,-16.8833333,24.5666667
bikilionde,,05,-13.1833333,30.6833333
bilili,,04,-16.75,26.2333333
bimaele,,06,-14.2666667,31.25
bina,,06,-14.3,31.9166667
bindinda,,03,-14.4,23.25
binga,,06,-14.0666667,32.3
bingashano,,03,-15.3,24.05
bingwe,,02,-13.0666667,27.9166667
bira,,06,-11.7333333,33.1166667
bisamendwe,,06,-14.2833333,31.7166667
bisesa,,03,-14.9333333,24.3
bizeke,,06,-14.5666667,31.4666667
bizeki,,06,-14.4,31.75
bizi,,04,-16.2333333,27.1666667
black kamsembe,,05,-12.7166667,30.4833333
black lyansa,,05,-12.5333333,30.4833333
bokama,,03,-14.1666667,24.9333333
bokola,,01,-13.3333333,23.2666667
bokolo,,01,-13.3333333,23.2666667
bokolu,,01,-13.3333333,23.2666667
bokoshi kalunga,,05,-12.9,30.4666667
bokosi,,05,-12.9,30.4666667
bokoya,,05,-13.8833333,28.25
bongondwe,,06,-11.1666667,32.9666667
bonomali,,06,-14.0166667,30.9666667
bopo,,04,-16.1166667,27.35
boston chisenga,,05,-12.8833333,30.65
bota,,06,-12.3333333,33.3
botunga,,04,-15.7666667,26.1333333
bovu,,04,-17.7,25.55
bowwood,,04,-17.15,26.1833333
boyani,,03,-14.5666667,24.7
bread kasungulika,,05,-12.8666667,30.3833333
broken hill,,05,-14.4333333,28.45
brown konkola,,05,-12.75,30.45
buchi and kamitondo,,02,-12.7833333,28.2166667
buckleys,,09,-15.5166667,28.2333333
buckleys township,,09,-15.5166667,28.2333333
budula siliya,,06,-13.75,31.95
bukala,,03,-16.85,24.8333333
bukaliwanshima,,05,-14.6,29.0666667
bukoya,,05,-13.8833333,28.25
bulamitata,,01,-13.1166667,23.7333333
bulamuti,,06,-12.4333333,32.9333333
bulaya,,07,-10.9166667,32.0333333
bulelele,,01,-13.3166667,25.8333333
buleya,,03,-15.1333333,22.7
buli,,06,-11.3666667,33.0833333
bulubi,,03,-15.7,25.0833333
bulunga,,05,-14.7333333,27.8333333
bulungu,,05,-14.7333333,27.8333333
bulunje,,07,-10.2,32.7333333
buluwaleza,,01,-12.7666667,25.4666667
bulwe,,06,-11.9166667,33.2
bunga,,05,-15.6166667,28.6833333
bungama,,03,-13.95,24.55
bungana,,03,-14.0,24.6
bungula,,04,-16.9666667,27.7
bungulu,,04,-16.9666667,27.7
bungwe nkomwa,,05,-13.4166667,30.1666667
bunonge,,03,-14.8,24.9166667
busonge,,02,-13.1,27.7
busonge,,03,-14.1,24.65
butabila,,07,-10.2666667,33.35
butabira,,07,-10.2666667,33.35
butangala,,05,-14.7,27.7833333
butele,,04,-16.0,26.9333333
butoia,,03,-15.3666667,23.1166667
butondo,,02,-12.5166667,28.2166667
butoya,,03,-15.3666667,23.1166667
butumbo,,03,-15.2333333,23.7166667
buyongwe,,04,-15.5666667,26.65
bwacha,,01,-13.8333333,25.7833333
bwale,,05,-13.05,30.0166667
bwale nyambesha,,05,-12.9833333,30.45
bwalo,,06,-13.25,32.9
bwalya,,07,-10.45,31.4666667
bwalya mponda,,08,-11.6666667,30.0666667
bwalya mponde,,08,-11.6666667,30.0666667
bwamba,,08,-11.65,29.7166667
bwambo,,03,-16.2166667,25.0166667
bwambwa,,08,-11.65,29.7166667
bwana mkubwa,,02,-13.0333333,28.7
bwantu,,04,-16.3166667,27.9
bwato,,03,-16.2,24.1
bwebe,,07,-10.3166667,31.85
bwembya,,07,-10.25,31.2
bweupe,,05,-14.15,27.5166667
bweupe chilimboyi,,05,-14.15,27.5166667
bwezani,,06,-13.4166667,32.1
bwilo,,03,-14.8333333,24.3833333
bwina,,03,-16.45,24.9666667
bwino chibamba,,05,-12.9166667,30.5333333
cabalanda,,04,-17.4166667,25.5166667
caenby,,01,-11.3666667,25.25
cafwa,,07,-10.1166667,31.1166667
caipakata,,05,-14.3666667,28.6333333
cakaka,,06,-14.4833333,31.6166667
campani,,06,-13.8166667,31.95
canda kasonde,,07,-10.3,31.3666667
carimba,,01,-11.85,27.1166667
carinda,,06,-14.45,31.8833333
catchya,,05,-15.2,28.9
cekani,,06,-14.45,31.6833333
cementi chibuye,,05,-12.9666667,30.4833333
cementi luanshika,,05,-12.95,30.45
chaba,,05,-15.3166667,27.1833333
chaba,,07,-10.9666667,30.0833333
chaba,,08,-11.2166667,29.4166667
chabanga,,07,-11.1333333,31.9666667
chabembwa,,05,-14.7,27.9833333
chabenge,,03,-16.7666667,24.9666667
chabilikila,,07,-9.5333333,29.7333333
chabilikila,,08,-9.5333333,28.7333333
chabindwa,,07,-9.6666667,30.8833333
chabisa,,06,-14.3,31.3333333
chaboboma,,04,-16.7666667,27.8
chabuka,,06,-14.2,31.9666667
chabwe,,08,-10.7833333,28.9666667
chacha,,03,-14.85,24.3833333
cha-chi,,05,-13.2166667,30.6666667
chachi mpika,,05,-13.2166667,30.6666667
chadiza,3690,06,-14.0666667,32.4333333
chadwa,,06,-12.1333333,32.5666667
chadwala,,06,-14.1666667,32.5333333
chafia,,06,-14.3833333,30.0833333
chafilwa,,07,-11.2166667,31.8833333
chafiwa,,07,-10.2833333,33.0166667
chafomera,,06,-13.5166667,32.7666667
chafumbata,,06,-14.0,31.2833333
chafumbwa,,06,-14.0833333,31.6833333
chafung,,05,-14.9,29.4166667
chafungo,,05,-14.9,29.4166667
chafwa,,07,-10.1166667,31.1166667
chagamba,,06,-13.45,32.8833333
chagambo,,06,-13.45,32.8833333
chagamuka,,06,-12.3833333,33.25
chagoma,,07,-10.5833333,33.5333333
chagonda,,06,-14.1833333,32.6
chagumuka,,06,-12.3333333,33.3
chagwa,,06,-14.0833333,31.7
chai bela,,05,-13.0833333,30.9166667
chaila,,07,-10.55,33.5333333
chaima,,06,-12.2,33.2833333
chaiwila,,07,-10.1,31.4833333
chakaba,,07,-10.6,29.6166667
chakaka,,06,-14.3,31.8833333
chakala,,03,-14.45,23.6833333
chakama,,03,-15.4,24.8833333
chakamba,,07,-9.2666667,31.8
chakanga,,01,-13.0666667,22.25
chakanga,,06,-14.1666667,31.5833333
chakansa,,05,-13.1333333,30.3833333
chakesemuka,,01,-12.0166667,24.0833333
chakobana,,07,-10.7833333,29.2
chakoma,,07,-10.5833333,33.5333333
chakoswe,,05,-15.7333333,28.5
chakowana,,07,-10.7833333,29.2
chakufola,,05,-15.1166667,29.6833333
chakumana,,05,-12.8666667,30.7166667
chakunduka,,05,-12.4666667,29.8666667
chakuta,,06,-14.3,31.8333333
chakwasa,,06,-14.35,31.3
chakwe,,06,-14.4833333,31.4166667
chakwenga,,06,-15.45,29.6166667
chalabesa,,07,-11.3833333,31.0166667
chala,,01,-13.9166667,23.2166667
chala,,06,-14.0666667,31.1666667
chalakano,,03,-15.3666667,24.7166667
chalaleto,,09,-15.1666667,29.2666667
chalapuka,,06,-14.2333333,31.6
chale,,07,-10.3333333,32.2666667
chaledzela,,09,-15.9,28.8166667
chalesi chalwe,,05,-12.8166667,30.55
chalikosa,,07,-9.4833333,31.6833333
chalimanza,,04,-16.45,28.1166667
chalimbana,,09,-15.3666667,28.4333333
chalinda,,06,-14.3333333,32.1166667
chaliwa,,06,-12.1833333,32.6166667
chalochasowa,,07,-10.6833333,33.5333333
chalokwa,,06,-14.55,31.5166667
chalomba,,07,-9.0666667,31.6166667
chalubingu,,02,-13.1666667,28.6
chalula,,07,-10.5166667,30.5333333
chalumba,,07,-9.0833333,31.45
chalwe,,06,-12.15,32.5833333
chalwe,,07,-9.35,32.6833333
chalwe kalungu,,07,-12.5333333,31.0333333
chalwe katima,,08,-11.3666667,29.55
chalwe musaka,,05,-12.9833333,30.45
chama,4061,06,-11.2,33.1666667
chama,,08,-11.1833333,29.4166667
chamakalela,,03,-14.9833333,24.9
chamakondi,,02,-13.2666667,28.7
chamanga,,05,-14.1333333,27.1833333
chamanika,,06,-14.3,31.4
chamankondi,,02,-13.2666667,28.7
chamapula,,04,-16.0166667,26.05
chamato,,06,-13.45,32.65
chamatwa,,06,-13.2666667,31.9666667
chamazambi,,07,-9.4166667,31.35
chamba,,03,-14.9166667,22.35
chamba,,06,-13.7,32.0
chambala,,06,-14.4,31.9166667
chambala,,07,-8.8666667,30.8666667
chambana,,07,-9.3666667,31.9
chambanenge,,07,-8.9333333,31.7166667
chambara,,06,-14.4,31.9166667
chambata,,06,-14.0166667,31.1833333
chambero,,06,-12.85,32.0166667
chambeshi,,07,-10.95,31.0666667
chambezi,,02,-12.65,28.0833333
chambezi,,07,-10.2666667,33.0166667
chambianguzu,,03,-16.4833333,24.9666667
chambi,,01,-13.0666667,22.65
chambishi,11073,02,-12.65,28.0833333
chamboka,,05,-14.7,27.8833333
chamboko,,06,-14.1833333,31.4333333
chambula,,05,-13.5166667,28.95
chambula,,06,-14.6333333,30.7833333
chambuleni,,07,-9.6,31.1666667
chambunduka,,03,-15.0833333,24.4833333
chambwa,,04,-16.7166667,26.3166667
chambwe,,06,-14.6166667,30.8333333
chamdamkulu,,07,-9.8,31.6666667
chameshi,,07,-12.25,30.3833333
chami,,03,-14.7333333,23.85
chaminuka,,01,-13.2833333,24.1
chamota,,06,-14.2,31.5166667
chamoto,,06,-13.35,32.6166667
chamuela,,02,-12.5833333,27.6333333
chamuka,,05,-14.8833333,28.6166667
chamunkama,,07,-10.0666667,33.0666667
chamwe,,04,-16.45,28.1166667
chamwela,,02,-12.5833333,27.6333333
chamzukdoyo,,06,-14.3666667,31.5833333
chanama,,07,-10.0166667,33.2833333
chanamo,,01,-12.3833333,25.95
chanda,,03,-16.0666667,23.7
chanda,,07,-11.35,32.1166667
chanda-kasonde,,07,-10.3,31.3666667
chanda katoba,,05,-12.9,30.75
chandawesendama,,07,-12.3166667,31.7
chandaweyaya,,07,-9.8,31.6666667
chande,,04,-17.0833333,27.5166667
chande,,07,-10.7,30.7166667
chandema,,06,-14.2333333,31.3833333
chande-mukonge,,07,-10.7,30.7166667
chande-munkonge,,07,-10.7,30.7166667
chandenda,,01,-11.6666667,24.7166667
chandeshi,,07,-10.95,31.0666667
chandesi,,07,-10.95,31.0666667
chanduka,,03,-14.4333333,23.6833333
chandwa,,06,-12.3,32.45
changa,,04,-16.3,28.4166667
changa,,06,-13.45,32.8333333
changachanga,,03,-14.7666667,23.8166667
changachanga,,06,-12.7333333,32.2166667
changala,,05,-14.8,27.9
changala,,06,-14.25,32.45
changala,,07,-9.3333333,31.2833333
changa muzizi,,06,-14.3,31.25
changata,,06,-13.4,32.85
changato,,06,-13.5166667,32.5833333
changeta,,06,-13.4,32.85
chango,,07,-10.05,32.5166667
changololo,,06,-14.4666667,31.6666667
changwa,,07,-9.5166667,31.4666667
changwe,,06,-14.05,30.9833333
changwe lisamona,,05,-13.4,30.2333333
chanika,,01,-11.8833333,25.7
chanje,,06,-13.3833333,32.85
chanka,,07,-9.7,32.9666667
chankalamu,,06,-11.7833333,32.75
chankosa,,05,-14.1833333,28.2166667
chanona,,07,-9.1333333,31.55
chansa,,05,-12.9666667,30.65
chansa,,07,-8.4,29.9166667
chansa,,08,-11.3,30.0666667
chansamba,,06,-14.2333333,31.7333333
chansamba,,07,-9.7,30.6166667
chansamilando,,07,-11.3833333,31.0
chansato,,05,-14.1,28.2
chansuleni,,02,-13.1166667,27.9166667
chantamaka,,07,-10.3666667,33.25
chanyati,,03,-16.75,23.5333333
chanyonto,,06,-12.25,33.1166667
chanyumbu,,06,-14.5833333,31.5
chanzi,,06,-13.15,32.8833333
chaola,,06,-13.3333333,32.7
chapa,,06,-12.45,33.2666667
chapalabwi,,05,-12.9333333,29.9833333
chapaleza,,05,-15.3,27.3333333
chapa mwendo,,05,-12.8166667,30.2666667
chapanswa,,07,-11.0666667,32.05
chapeluko,,07,-10.5,33.3
chapemba,,07,-10.0166667,32.6833333
chapepwa,,07,-10.0333333,32.65
chapera,,06,-14.3333333,31.2833333
chapindula,,09,-15.45,28.95
chapita,,06,-14.0333333,32.8166667
chapita,,09,-15.1333333,29.7166667
chapola,,03,-14.0666667,23.0
chaponda,,06,-13.3,31.9166667
chaponda mulika,,06,-13.3,31.9166667
chaporonga,,06,-11.9,33.2666667
chaposwa,,04,-16.7333333,27.95
chapoto,,07,-10.2,32.7166667
chapu,,05,-14.7166667,28.05
chapuka,,06,-14.1833333,32.6
chapula,,01,-12.1333333,24.2666667
chapula,,05,-14.3833333,28.1166667
chapvonga,,04,-16.5333333,28.7166667
chapwili,,01,-11.2,24.2333333
charilachila,,07,-9.5333333,29.7333333
charilachila,,08,-9.5333333,28.7333333
charles pambalashi,,07,-10.1333333,32.4
chasangwe,,04,-16.9,27.2166667
chasara,,06,-14.35,31.9833333
chasaya,,07,-8.9166667,30.7
chaseba,,05,-13.7166667,27.6
chasefu,,06,-11.9166667,33.1
chasela,,06,-12.8333333,32.2166667
chasena,,06,-12.8833333,32.1
chasia,,06,-13.9,31.4666667
chasinda,,03,-15.8666667,23.65
chassa,,06,-14.25,31.7666667
chaswata,,07,-9.85,33.35
chasya,,06,-13.1833333,32.6833333
chataika,,06,-14.3833333,31.6833333
chatamaka,,07,-10.3666667,33.25
chatiala,,02,-12.9333333,28.7
chatobeka,,05,-14.1,28.2
chatugwa,,04,-16.1833333,28.7833333
chatuluka,,06,-14.3666667,31.8666667
chatumwa,,04,-16.1833333,28.7833333
chatupuka,,06,-14.4333333,31.8
chatuula,,06,-14.4333333,31.8
chatuwula,,06,-14.4333333,31.8
chauluka chabala,,05,-12.6166667,30.4333333
chausta,,06,-14.2833333,31.9
chavilwa,,07,-10.1333333,33.0833333
chavuma,,01,-13.0666667,22.6833333
chawa,,07,-10.1,32.7833333
chawa,,08,-9.7833333,29.6666667
chawala,,06,-14.2333333,31.05
chawale,,06,-14.4666667,31.7166667
chawana,,03,-15.25,22.8166667
chawe,,08,-9.7,29.6
chawemba,,05,-14.5666667,27.3833333
chawerene,,06,-13.9666667,32.3666667
chayanga,,01,-13.9166667,23.6666667
chayimakana,,01,-12.5333333,25.9666667
chaymakana,,01,-12.5333333,25.9666667
chazanga,,06,-12.5,33.3
chazita,,06,-13.5,32.7166667
chazuwa,,03,-14.2,22.4666667
chebinda,,01,-11.7,24.8833333
checheri,,06,-13.9333333,32.2666667
chechile,,05,-14.8666667,29.2666667
cheka,,06,-13.3166667,31.95
chekompwa,,06,-14.1166667,32.3
chekorwa,,02,-13.3333333,28.4666667
chekwanda,,06,-13.5333333,32.5333333
chela,,05,-15.2,26.9833333
chela,,07,-9.1166667,32.05
chela mbilima,,07,-9.5166667,31.6166667
cheleka,,01,-13.3666667,22.3166667
chelemba,,03,-14.85,23.8833333
chelo,,07,-9.3,30.0833333
chelo nangweluka,,04,-16.2,27.7666667
chelston,,09,-15.3833333,28.3833333
chelu,,07,-9.3,30.0833333
chelwe,,08,-11.8833333,29.55
chemankata,,02,-12.8166667,27.7333333
chembe,,02,-13.0333333,27.7333333
chembe,,05,-14.85,29.3833333
chembe,,06,-13.0,31.9333333
chembe,,08,-11.9666667,28.75
chembi,,05,-14.7,29.25
chemesi,,07,-12.25,30.3833333
chendamakala,,07,-9.2166667,31.15
chendunansehe,,06,-10.4666667,32.7666667
chenga,,07,-9.3,31.5333333
chengaliwa,,06,-13.9333333,32.3833333
chengauwa,,06,-13.9333333,32.3833333
chengirani,,06,-14.2833333,31.3333333
chengo,,08,-10.9333333,28.8833333
chenjerani,,06,-14.2833333,31.3333333
chenyeka,,03,-15.0,24.3833333
chepaleza,,05,-15.3,27.3333333
chera,,05,-15.2,26.9833333
cheseko,,01,-13.6166667,22.8166667
chesenga kasoma,,05,-13.2,30.4333333
chesengkiepate,,05,-13.1,30.2666667
cheso,,06,-14.3333333,31.25
chessia,,06,-11.7166667,32.8166667
chesumpa,,05,-12.7,30.7333333
chewa,,06,-13.5666667,32.4833333
chewe,,08,-9.7,29.6
chewe kaniki,,07,-9.4,31.8
chewerene,,06,-13.9666667,32.3666667
cheya,,02,-13.0333333,27.75
cheyelele,,02,-12.85,27.35
chiaba,,02,-13.2,28.6666667
chiabi,,04,-16.9666667,27.6833333
chiakoma,,05,-14.3833333,27.2
chiakwete,,06,-12.45,33.35
chiambo,,07,-9.9833333,33.1
chianga,,07,-8.7833333,31.3833333
chiasa,,03,-16.4333333,24.9333333
chiasi,,07,-10.8333333,31.85
chiawa,,09,-15.8833333,29.05
chiawa matabo,,09,-15.1666667,29.7666667
chiawa mataka,,09,-15.1666667,29.7666667
chiaze,,01,-14.0333333,23.1833333
chibale,,05,-13.05,30.8833333
chibaleka,,07,-11.8333333,31.6333333
chibambo,,03,-14.8333333,23.7166667
chibamboma,,04,-16.7,26.65
chibanda,,01,-13.0166667,23.2166667
chibanda mukopa,,05,-14.4333333,28.1833333
chibange,,03,-14.9833333,24.3833333
chibaye,,08,-10.8,29.1833333
chibeka,,07,-10.5333333,30.7333333
chibela,,06,-13.8666667,32.15
chibenda,,04,-15.5833333,26.8833333
chibende,,03,-15.0833333,24.0833333
chibende,,05,-12.95,30.7166667
chibendo,,04,-15.5833333,26.8833333
chibenga,,04,-16.4166667,28.0
chibesa,,07,-11.4666667,32.1666667
chibesakunda,,07,-11.05,32.1666667
chibeya,,03,-17.05,24.0
chibila,,04,-16.9,26.05
chibile,,05,-13.5333333,28.9166667
chibisa,,06,-13.95,32.1666667
chibiya,,03,-16.5666667,24.6833333
chibiyo,,06,-12.4833333,32.45
chibiza,,06,-10.85,33.2
chiboboma,,04,-16.7833333,27.8333333
chiboleka,,07,-11.8333333,31.6333333
chiboma,,06,-13.6833333,32.35
chibombe,,01,-12.2333333,25.6
chibombo,4477,05,-14.65,28.0666667
chibomboma,,05,-14.6666667,26.9333333
chibona,,03,-16.75,23.5333333
chibona,,06,-13.6,32.3833333
chibonda,,03,-16.4833333,24.9666667
chibonda,,06,-11.7666667,32.7
chibondo,,08,-10.7166667,28.6666667
chibondu,,05,-14.55,27.4833333
chibosha,,03,-16.8666667,24.7333333
chibote,,08,-9.8666667,29.55
chibowa,,06,-13.1166667,32.1333333
chibowo,,07,-10.1166667,31.35
chibubu,,05,-14.5,27.15
chibuli,,07,-10.3833333,31.2333333
chibuluma,,02,-12.85,28.1333333
chibumbu,,03,-14.65,22.9166667
chibumbu,,05,-14.5,27.15
chibunda,,06,-11.9833333,32.5333333
chibundi,,05,-13.95,27.2833333
chibundula,,03,-14.45,24.0
chibungo,,05,-13.1666667,30.6666667
chibungu,,02,-12.8333333,28.6666667
chibunze,,04,-15.7,26.6
chibunzi,,04,-15.7,26.6
chibutubulu,,07,-10.6166667,31.1666667
chibutubutu,,07,-10.6166667,31.1666667
chibutu,,03,-14.6833333,25.5833333
chibuwbu,,05,-14.5,27.15
chibuye chikwate,,05,-12.8833333,30.4666667
chibuye kashishi,,05,-12.95,30.1666667
chibuye kofi,,05,-12.7833333,30.75
chibuye lisandi,,05,-12.8666667,30.2833333
chibuye machila,,05,-12.7166667,30.4833333
chibuye mali,,05,-12.9166667,30.5166667
chibuye mwando,,05,-12.8666667,30.2666667
chibuye robert,,05,-12.8166667,30.2666667
chibuye saidi,,05,-12.8666667,30.7333333
chibuyu machila,,05,-12.7166667,30.4833333
chibwa,,07,-11.1166667,31.6333333
chibwaulu,,04,-16.0833333,26.0333333
chibwechama,,07,-10.2,29.95
chibweti,,01,-13.35,23.1
chibweya,,06,-14.4,31.6833333
chibwika,,01,-11.9,24.1
chibwiti,,01,-13.35,23.1166667
chicawnaconta,,05,-15.2,27.9333333
chichili,,04,-17.8333333,25.8666667
chidakwa,,04,-16.2166667,26.7333333
chidiamero,,06,-12.0166667,33.1166667
chidolo,,06,-10.5666667,33.2333333
chidonga,,06,-12.9166667,32.95
chidongo,,06,-12.9166667,32.95
chiduka,,06,-13.5833333,32.5
chiduli,,06,-13.5833333,32.5
chidulika,,07,-10.5666667,33.45
chidumayo,,06,-12.05,33.25
chief chimese,,08,-11.1666667,28.8666667
chief mapanza,,04,-16.2666667,26.9166667
chief monze,,04,-16.3166667,27.1833333
chief mukobela,,04,-15.7333333,26.5
chief mukubwe,,05,-13.9166667,27.6833333
chief muwezwa,,04,-15.5333333,26.8833333
chief nkana,,02,-12.9333333,28.0333333
chief nkana's court,,02,-12.9333333,28.0333333
chief sanje,,05,-15.5166667,27.95
chief shimbizi,,04,-15.7,26.3666667
chieke,,01,-13.1833333,22.75
chiela,,04,-16.15,27.75
chielula,,03,-15.1666667,22.55
chiena,,01,-13.0333333,22.6666667
chienga,,01,-13.4333333,23.2166667
chienga,,03,-16.5333333,24.5166667
chiengi,,01,-13.2166667,22.6666667
chiengi,,08,-8.65,29.1666667
chiengo,,01,-13.4333333,23.2166667
chienji,,08,-8.65,29.1666667
chieseko,,01,-13.6166667,22.8166667
chiesu,,01,-13.45,23.0833333
chieze,,01,-13.05,22.6666667
chifaki,,06,-13.4,32.7666667
chifamawe,,07,-9.7166667,32.8166667
chifembe,,07,-9.7166667,32.95
chifi,,03,-15.6666667,23.5833333
chifita,,05,-14.0833333,27.15
chifita joni,,05,-14.0833333,27.15
chifofma,,07,-10.9833333,31.7833333
chifomso,,06,-13.4833333,32.6166667
chifonda,,06,-11.9,32.6333333
chifosa kiyoba,,04,-16.7,26.8166667
chifubu,,02,-12.9333333,28.6166667
chifubwa,,01,-12.2,26.6833333
chifuka,,06,-13.4,32.7666667
chifula,,07,-9.4166667,32.3666667
chifumbula,,07,-10.3333333,32.45
chifumpo,,07,-8.45,29.8333333
chifunda,,06,-11.9,32.6333333
chifundo,,05,-14.6833333,27.5666667
chifundufwe,,06,-11.3666667,33.05
chifunge,,07,-8.8833333,30.7666667
chifungo,,07,-8.8833333,30.7666667
chifungula,,09,-15.0833333,29.3333333
chifungwe,,07,-10.35,33.15
chifunsa,,07,-10.5,32.15
chifutala,,06,-14.15,31.45
chifutwilo,,05,-12.75,30.05
chifwako,,01,-13.5833333,23.1166667
chifwaku,,01,-13.5833333,23.1166667
chifwala,,07,-10.1166667,31.25
chifwalo,,08,-11.6666667,29.1
chifwanakene,,01,-12.2666667,25.5666667
chifwepa,,04,-16.9666667,27.0333333
chifwinda,,01,-13.1666667,24.05
chifwisa,,01,-13.0833333,22.8
chifwisha,,01,-13.0833333,22.8
chifwokesho,,05,-14.6,27.5166667
chifyanka,,07,-12.25,30.3333333
chigali,,04,-16.8333333,26.2333333
chigangeni,,06,-13.5666667,32.5166667
chiganka,,04,-16.3666667,27.5833333
chigawa,,06,-14.0833333,32.5833333
chigo,,04,-15.6166667,27.1333333
chigona,,06,-12.4,33.2833333
chigumbwe,,04,-17.35,27.35
chigunka,,04,-16.35,27.5666667
chiguta,,04,-16.7833333,27.3166667
chiguya,,06,-13.8166667,32.15
chigwere,,06,-14.2833333,32.0833333
chihinga,,03,-15.1666667,24.5833333
chihombo,,01,-13.9833333,23.25
chihumbwe,,01,-13.65,22.7666667
chihuto,,01,-13.25,24.0666667
chihutu,,01,-13.25,24.0666667
chiinga,,07,-11.25,31.95
chijaezo,,06,-13.4,32.5333333
chijiba,,03,-14.2666667,24.9333333
chijilo,,01,-13.0833333,22.6666667
chikade,,06,-14.25,31.3
chikadi,,06,-14.25,31.3
chikagu,,05,-14.55,27.2
chikaka,,09,-15.5,28.7333333
chikakala,,07,-11.4666667,31.25
chikaku,,03,-14.7833333,22.7666667
chikala,,05,-15.65,27.6666667
chikalakasa,,05,-14.8,27.6833333
chikalakosa,,05,-14.8,27.6833333
chikalalila,,05,-14.8833333,28.2666667
chikalalira,,05,-14.8833333,28.2666667
chikalanga,,06,-11.2166667,33.0333333
chikalawa,,06,-13.2333333,31.9666667
chikalema,,06,-12.5833333,33.1666667
chikalonga,,06,-12.0166667,33.0833333
chikambwa,,04,-16.1333333,26.9166667
chikampama,,05,-14.05,28.35
chikampuma,,05,-14.3,28.75
chikana,,05,-14.8166667,27.65
chikanda,,05,-14.7666667,27.8
chikanda,,06,-13.4666667,32.3166667
chikanda,,07,-12.7166667,30.8833333
chikandamanpo,,07,-10.3333333,32.55
chikandamasalo,,06,-14.3,31.95
chikandamasoro,,06,-14.3,31.95
chikandamatipa,,07,-10.3333333,32.55
chikanda muchili,,04,-16.25,27.9833333
chikanda munchili,,04,-16.25,27.9833333
chikandula,,06,-14.2,31.4
chikanga,,01,-13.35,23.0333333
chikanga,,03,-15.9333333,23.6833333
chikankala,,06,-14.5333333,31.4666667
chikankata,,04,-16.25,28.1333333
chikankeni,,06,-13.5666667,32.5166667
chikankhala,,06,-14.5333333,31.4666667
chikanta,,04,-16.3833333,26.6166667
chikanza,,06,-14.25,32.0833333
chikasa,,07,-8.5333333,30.15
chikawala,,07,-9.7,32.8166667
chikazi,,06,-13.2166667,31.9333333
chikele,,07,-11.5333333,31.9
chikenge,,01,-13.4,23.8166667
chikenze,,01,-13.4833333,22.45
chikeso,,03,-13.9833333,22.2
chikeza,,01,-11.25,24.2
chikiamoni,,02,-12.9166667,28.7
chikile,,07,-11.5333333,31.9
chikimba,,01,-11.2333333,24.1833333
chikinina,,03,-14.8166667,23.8
chikitunda,,08,-10.0666667,29.2666667
chikobula,,05,-13.4,30.3333333
chikoka,,03,-15.5833333,24.75
chikoki,,03,-14.45,24.0
chikoko,,09,-15.5,28.7333333
chikola,,01,-11.9333333,27.2
chikola,,05,-14.6166667,29.3333333
chikola,,07,-8.7333333,31.15
chikole,,07,-11.4,31.9666667
chikoleni,,06,-14.3666667,31.3166667
chikolo,,01,-13.9333333,23.0833333
chikolo,,03,-14.0666667,23.2166667
chikolola,,06,-13.5666667,32.55
chikololo,,03,-14.7833333,24.1833333
chikoloma,,05,-13.9666667,29.5666667
chikoloma mpundi,,05,-14.1666667,28.2
chikolomo,,05,-14.8,28.6
chikolwe,,06,-13.4166667,32.9166667
chikoma,,06,-14.0333333,32.8666667
chikomangana,,06,-13.15,31.9333333
chikomania,,04,-15.7166667,27.3666667
chikomanya,,04,-15.7166667,27.3666667
chikomba,,06,-13.55,31.4166667
chikombe,,07,-9.6666667,31.3333333
chikombi,,02,-12.8833333,28.6666667
chikomena,,07,-9.9,30.75
chikomene,,06,-12.6833333,32.8833333
chikomeni,,06,-12.6833333,32.8833333
chikomeshu,,05,-15.5,28.8333333
chikomo,,01,-13.6,23.25
chikonde,,07,-12.3166667,31.55
chikondombolo,,03,-15.75,23.4666667
chikonga,,04,-16.3666667,27.5833333
chikonga,,05,-15.4833333,27.7833333
chikonika,,05,-12.5333333,30.1
chikonkota,,05,-15.1833333,28.3166667
chikonkoto,,05,-14.9833333,28.5666667
chikonkwelo,,01,-13.3,24.1
chikonta,,06,-10.5833333,33.1
chikonte,,06,-10.5833333,33.1
chikontwe,,08,-10.05,29.7666667
chikontwi,,08,-10.05,29.7666667
chikonwakonwa,,01,-13.5333333,25.2833333
chikope,,07,-11.15,32.1833333
chikopela,,07,-9.1,31.0333333
chikopiya,,07,-11.15,32.1833333
chikoroma,,05,-14.5666667,28.6333333
chikoroma mpundi,,05,-14.1666667,28.2
chikosheni,,02,-12.6666667,27.5333333
chikota,,01,-13.7833333,22.5833333
chikote,,03,-14.9833333,22.45
chikote,,07,-9.4666667,31.15
chikoti,,02,-13.2333333,28.6333333
chikoti,,07,-10.25,30.05
chikowula,,05,-13.4,30.3333333
chikoya,,06,-12.0833333,33.1166667
chikubi,,06,-12.25,32.3666667
chikuleni,,06,-14.3666667,31.3166667
chikuloni,,06,-11.5166667,33.0166667
chikulu,,06,-14.0166667,31.95
chikulu,,07,-10.05,32.0333333
chikululu,,02,-13.1333333,28.7666667
chikumba,,01,-12.5333333,26.5
chikumba,,06,-13.1666667,31.9166667
chikumbe,,05,-14.95,27.7833333
chikumbe,,06,-13.4833333,32.3833333
chikumbeta,,05,-13.7166667,30.0333333
chikumbi,,01,-12.5333333,26.5
chikumbi,,02,-12.8833333,28.6666667
chikumbi,,06,-12.4166667,33.25
chikumbi,,07,-12.8833333,30.8666667
chikumbi,,09,-15.25,28.35
chikunda,,06,-14.0333333,31.25
chikunda,,07,-10.55,33.55
chikundu,,06,-14.0166667,31.1833333
chikundula,,03,-15.2666667,22.6
chikunga,,03,-14.7833333,24.8833333
chikungu,,06,-14.1833333,31.4666667
chikungulu,,03,-13.9666667,22.85
chikungwa,,06,-14.2166667,31.2666667
chikuni,,04,-16.4333333,27.55
chikuni,,06,-12.4166667,33.2666667
chikunjika,,01,-13.6,23.4
chikunjiko,,01,-13.6,23.4
chikunka,,04,-16.35,27.5666667
chikunka,,05,-15.65,27.7666667
chikunku,,07,-10.35,32.9333333
chikunkuluka,,05,-14.5333333,28.0833333
chikunta,,07,-9.3333333,31.7166667
chikupili,,05,-14.05,29.2166667
chikurgu,,06,-13.75,32.2666667
chikusela,,07,-9.1166667,31.7833333
chikusi,,06,-14.3833333,31.9666667
chikusu,,05,-14.2333333,28.15
chikuta,,06,-14.0,33.0833333
chikute,,06,-13.9166667,31.85
chikutu,,06,-14.0166667,31.95
chikuwe,,06,-13.5166667,32.4333333
chikuwela,,08,-11.5666667,29.8
chikuwelo,,08,-11.5666667,29.8
chikwaba,,01,-12.0166667,25.3666667
chikwaba,,05,-14.4,27.1333333
chikwa,,06,-11.6666667,32.7833333
chikwa,,07,-10.0833333,31.3333333
chikwale,,06,-14.2166667,32.0
chikwama,,03,-15.5833333,22.9833333
chikwanda,,06,-13.25,32.15
chikwanda,,07,-10.0666667,32.7333333
chikwangula,,07,-9.6833333,32.8166667
chikwashia,,05,-14.0666667,30.2333333
chikwata,,03,-14.8833333,23.8666667
chikwatula,,06,-14.1166667,32.6
chikwawana,,06,-12.85,32.1833333
chikwawe,,06,-13.2333333,32.2333333
chikwe,,07,-11.2833333,32.25
chikweke,,07,-10.0833333,30.45
chikwekwe,,03,-14.7166667,24.9333333
chikwekwe,,07,-11.1333333,32.05
chikwele,,04,-15.8666667,28.2166667
chikwenda,,06,-13.1666667,32.55
chikwende,,06,-13.1666667,32.55
chikweta,,06,-13.4333333,32.8666667
chikwinda,,06,-12.85,32.0166667
chilabombwe,,02,-12.3666667,27.8333333
chila,,05,-14.7666667,29.1
chila,,06,-13.1833333,32.7
chilala,,04,-16.3666667,26.9
chilalwa,,07,-9.6166667,32.6666667
chilama,,04,-16.6,26.8333333
chilambalamba,,05,-15.0,27.9166667
chilambi,,05,-13.7,28.7333333
chilambula,,06,-12.3666667,33.1833333
chilambwe,,06,-14.5,31.5166667
chilambwe,,07,-8.9166667,30.0666667
chilambweshi,,07,-9.0666667,32.0833333
chilamo,,07,-11.3333333,31.95
chilanda,,01,-14.0333333,23.1666667
chilanda,,03,-14.2,23.3166667
chilande,,01,-14.0333333,23.1666667
chilando,,06,-14.0333333,31.3
chilandu,,06,-14.0333333,31.2666667
chilanga,,07,-10.0333333,32.7
chilangwa,,07,-9.6166667,31.2666667
chilantali,,02,-13.1833333,28.6
chilao,,06,-12.6166667,32.9666667
chilapi,,04,-16.4666667,28.0666667
chilapuchila,,05,-14.0833333,28.2333333
chilapukila,,05,-13.9166667,28.6
chilawila,,06,-14.25,31.4666667
chilawira,,06,-14.4666667,31.5666667
chilazi,,06,-12.3833333,33.2166667
chilekata,,06,-14.4,31.5
chilekwa,,06,-13.65,31.5833333
chilele,,06,-13.1333333,31.8333333
chileleka,,01,-14.0333333,23.3
chilelemba,,06,-13.1,31.9
chilelere,,06,-13.1333333,31.8333333
chileli,,01,-12.9833333,24.7166667
chilemba,,04,-16.3666667,27.9333333
chilemba,,06,-13.1333333,31.8333333
chilembe,,06,-14.2,30.2833333
chilembo,,07,-10.2833333,32.6166667
chilembwe,,06,-13.4333333,32.4166667
chilembwi,,06,-13.9833333,31.7833333
chilemu,,03,-15.3,22.8333333
chilende,,07,-9.1333333,29.7166667
chilenga,,05,-14.5166667,28.1166667
chilenga,,06,-13.5166667,32.7166667
chilengo,,06,-14.0,33.15
chilenje,,09,-15.45,28.3333333
chilepa,,06,-13.3,31.95
chileshye,,07,-9.8666667,31.0
chileta,,06,-11.5333333,32.8166667
chileya,,01,-11.7333333,25.3
chileya,,04,-17.4166667,25.65
chileya,,06,-14.0833333,31.1666667
chileya kwalata,,04,-17.4166667,25.65
chiliabombwe,,02,-12.3666667,27.8333333
chiliadomewe,,02,-12.3666667,27.8333333
chiliama,,07,-11.3833333,31.9333333
chiliango,,04,-15.8666667,27.5666667
chili,,06,-11.0666667,33.1
chiligwa,,03,-16.95,23.9333333
chilika,,06,-14.55,30.8
chilikama,,03,-14.1166667,22.9666667
chilikila,,07,-10.4166667,33.05
chilikita,,01,-13.85,23.6833333
chilikwa,,06,-13.65,31.5833333
chilikwalo,,05,-14.9,27.7333333
chilikwela,,05,-14.9,27.7333333
chililabombwe,57335,02,-12.3666667,27.8333333
chilila,,03,-14.05,23.0166667
chilima,,06,-14.3,31.0833333
chilima,,07,-8.7,30.6166667
chilimanzi,,04,-16.5,28.3666667
chilimbana,,04,-17.7666667,25.5
chilimbika,,06,-13.35,32.7
chilimboyi,,05,-14.4166667,28.2666667
chilimina,,02,-12.2666667,27.6
chilinde,,07,-9.2833333,31.6833333
chilindira,,06,-13.3166667,32.6833333
chilingo,,01,-13.25,22.65
chilingwa,,07,-9.3333333,32.1
chilinkuni,,07,-10.0166667,31.6166667
chilmkuhi,,07,-10.0166667,31.6166667
chilmkuni,,07,-10.0166667,31.6166667
chiloa,,06,-11.9166667,33.2666667
chilobia,,02,-13.3,28.8333333
chilokotwe,,06,-11.1833333,32.9
chilole,,06,-14.4,31.6666667
chilole,,07,-11.4,31.9666667
chilolo,,07,-9.0166667,30.9
chilolwa,,07,-9.6166667,32.6666667
chilomba,,05,-14.95,28.55
chilonde,,04,-16.7166667,27.9833333
chilondo,,01,-12.25,25.6833333
chilonga,,03,-15.3166667,22.7666667
chilonga,,07,-10.15,32.85
chilongo,,03,-14.6833333,23.95
chilongo,,07,-10.15,32.85
chilongoshi,,05,-12.9,30.65
chilongoshi,,07,-9.95,30.8
chilongosi,,06,-13.4666667,31.45
chilongosi,,07,-10.1833333,33.4
chilongozi,,06,-13.4666667,31.45
chilono,,05,-12.35,30.3
chilopi,,04,-16.4666667,28.0666667
chilopo,,07,-9.2,32.3666667
chilosha,,02,-13.2166667,28.6
chilowa,,06,-12.15,33.1
chilowe,,06,-14.3333333,32.0833333
chilowe,,07,-9.5333333,32.5833333
chilubio,,06,-12.5333333,32.3666667
chilubula,,07,-10.15,30.95
chilufya,,07,-10.75,30.8
chilukuta,,01,-13.0833333,22.6666667
chilukutu,,05,-14.5333333,28.1833333
chilumba-kotuli,,07,-10.5666667,30.9333333
chilumbe-kotuli,,07,-10.5666667,30.9333333
chilumbeni,,06,-11.9333333,33.0833333
chilumbi,,04,-16.55,26.8333333
chilumbu,,01,-13.1166667,23.75
chilumbulwa,,02,-12.3333333,27.1333333
chilume,,04,-16.6,26.8333333
chilunda,,01,-13.5666667,22.3833333
chilunda,,03,-14.4,23.2833333
chilunda,,06,-14.2833333,31.35
chilundu,,06,-14.3166667,31.4333333
chilundumuzi,,07,-9.2,32.05
chilunduwe,,06,-11.5166667,33.0
chilupe,,06,-14.0166667,31.2
chilusi,,06,-14.1666667,31.7833333
chiluwaluwa,,06,-11.5,33.0333333
chiluwe,,06,-14.0,32.5666667
chiluzi,,06,-14.1666667,31.7833333
chilwabube,,05,-15.1666667,26.3333333
chilwa,,06,-13.9666667,30.2833333
chilwana,,05,-14.9666667,27.8
chilwawube,,05,-15.1666667,26.3333333
chilyaba,,07,-11.3833333,31.9333333
chilyabufu,,04,-15.6333333,26.5333333
chilyango,,04,-15.8666667,27.5666667
chilye,,06,-14.5,31.05
chimafu singwendi,,06,-14.5166667,30.2666667
chimakula,,06,-14.2666667,31.4833333
chimamba,,06,-13.6333333,32.45
chimanda,,01,-13.0,23.5
chimangeni,,06,-14.1166667,31.0333333
chimango,,06,-12.4333333,33.3
chimankata,,02,-12.8166667,27.7333333
chimansa,,06,-13.9833333,31.45
chimanya,,03,-15.0333333,22.6166667
chimasa kanyanda,,05,-12.9333333,30.75
chimasula,,06,-13.9833333,31.9166667
chimata,,05,-14.5833333,28.2
chimata,,06,-13.5666667,32.45
chimate,,06,-14.25,31.3333333
chimati,,06,-14.25,31.3333333
chimbabantu,,06,-10.8333333,33.1833333
chimba,,06,-14.0166667,31.45
chimba,,07,-9.9,31.4666667
chimbafe,,06,-11.6,33.1166667
chimbala,,02,-13.2166667,28.6
chimbalanga,,02,-12.9833333,28.7666667
chimbalanganji,,01,-13.5,22.45
chimbalanganyi,,01,-13.5,22.45
chimbala sepa,,02,-13.2166667,28.6
chimbali,,04,-16.6,27.8166667
chimbalonge,,05,-14.7666667,29.2833333
chimbalu,,06,-14.0333333,31.9833333
chimbamabwe,,07,-8.5333333,30.15
chimbamambwe,,07,-8.5333333,30.15
chimbambwe,,07,-8.5333333,30.15
chimbangala,,01,-13.45,22.7333333
chimbangu,,07,-11.8,31.6666667
chimbavi,,06,-11.6666667,33.05
chimbele,,07,-10.7833333,32.05
chimberere,,06,-12.45,33.3
chimbewa,,06,-13.3833333,32.0833333
chimbila,,01,-11.2333333,24.2833333
chimbinga,,03,-14.75,23.9166667
chimbola,,07,-9.6833333,31.4666667
chimbolo,,06,-11.7333333,33.1666667
chimbolo,,07,-10.1166667,33.0333333
chimbonda,,03,-14.4,23.2666667
chimboni,,06,-13.1833333,32.7333333
chimboro,,07,-10.1166667,33.0333333
chimbovo,,07,-10.1166667,33.0333333
chimbukuma,,05,-13.6,29.5
chimbulula,,05,-14.1166667,27.2
chimbululu,,05,-14.1166667,27.2
chimbumba,,01,-13.4666667,23.5333333
chimbuna,,06,-14.2166667,32.05
chimbundu,,01,-13.0333333,23.4833333
chimbutu,,06,-14.4,31.7833333
chimbuwa,,06,-14.0833333,31.8333333
chimbwa,,06,-13.3833333,31.6166667
chimbwala,,06,-13.1666667,32.55
chimbwe,,05,-14.95,27.7333333
chimbwe,,06,-13.6666667,31.65
chimbwe,,07,-9.3,31.1
chimbwende,,01,-14.0833333,23.4166667
chimbwende,,03,-15.1666667,24.1666667
chimbweta,,03,-14.7833333,23.7833333
chimbwi,,06,-14.2,31.25
chimbwi,,07,-10.7,29.6166667
chimchera,,06,-14.35,31.3333333
chimena,,05,-15.2166667,27.4166667
chimesa,,05,-13.9333333,29.8
chimese,,07,-12.25,30.3833333
chimese,,08,-11.1666667,28.8666667
chimetu,,06,-11.7166667,32.8333333
chimfesa,,06,-13.95,31.6833333
chimfwaku,,01,-13.5833333,23.1166667
chimfwemba,,07,-9.7166667,32.95
chimfwembe,,07,-10.2833333,30.8666667
chimguwilo,,06,-13.5833333,32.45
chimiamoni,,02,-12.9166667,28.7
chimika,,03,-14.9833333,24.4333333
chimika,,05,-14.7833333,29.15
chimimba,,06,-12.4166667,32.3166667
chimimbe,,06,-12.3666667,33.4666667
chiminya,,06,-13.5666667,32.5
chimisi,,05,-13.55,30.0333333
chimiti,,07,-10.1333333,33.0666667
chimkanda,,06,-14.55,31.4
chimkule,,06,-14.0666667,31.9833333
chimnyonto,,06,-12.1833333,33.1333333
chimola,,07,-12.55,31.05
chimomba,,05,-12.8166667,30.05
chimomba,,06,-13.6333333,32.4166667
chimombo,,06,-13.45,32.6666667
chimota,,06,-14.2,31.5166667
chimoto,,02,-12.4333333,27.8333333
chimoto,,05,-15.0333333,27.1
chimoto,,06,-14.5833333,31.1666667
chimpaka,,06,-14.3,32.05
chimpalanya,,05,-14.0666667,27.6
chimpali,,05,-12.9,30.7333333
chimpamba,,06,-11.5333333,32.8166667
chimpampera,,06,-14.1833333,31.25
chimpanama,,05,-14.0833333,27.15
chimpanga,,06,-14.25,31.2
chimpeche,,05,-14.8,28.5333333
chimpekete,,09,-15.2,29.9
chimpembe,,08,-9.55,29.4333333
chimpesia,,06,-12.1833333,33.1166667
chimpeta,,06,-14.4166667,31.75
chimphanamba,,06,-14.5,31.0666667
chimphanga,,06,-13.9,31.9
chimphutya,,06,-14.5666667,31.4833333
chimpolombwe,,04,-16.0333333,26.0333333
chimpompela,,05,-14.0166667,27.3166667
chimponda,,05,-12.9,30.65
chimponga,,06,-14.25,31.2
chimpunga,,06,-12.3666667,33.3833333
chimputi,,06,-14.2333333,31.8333333
chimsa,,06,-14.4166667,31.8833333
chimsakasa,,06,-14.3666667,31.15
chimsali,,06,-14.4166667,31.8833333
chimsanya,,09,-15.0833333,29.5666667
chimsenga,,07,-10.8333333,31.65
chimseo,,06,-12.3833333,33.4833333
chimsitu,,06,-14.0666667,32.5333333
chimtanda,,06,-14.2166667,31.4666667
chimtangati,,06,-13.5666667,32.4166667
chimtenda,,06,-14.5,31.6666667
chimtenga,,06,-14.4833333,31.3166667
chimtenje,,06,-13.4333333,32.8666667
chimtondo,,06,-14.3333333,31.3333333
chimtowa,,06,-13.6333333,31.5666667
chimtowe,,06,-13.6333333,31.5666667
chimtukulo,,06,-14.05,31.6833333
chimtuta,,06,-12.3666667,33.15
chimudeke,,07,-10.2166667,33.45
chimufu,,05,-15.0333333,27.1
chimuga,,04,-16.5333333,27.9666667
chimuka,,06,-13.9333333,31.6166667
chimukuzi,,09,-15.2333333,29.5833333
chimula,,06,-14.1666667,30.8333333
chimula,,07,-9.1,31.7
chimuli,,01,-13.5333333,22.2666667
chimumba,,06,-12.1666667,32.6166667
chimunka,,06,-13.5666667,32.5166667
chimunphundu,,06,-14.35,31.6
chimunsi,,06,-14.2333333,31.5666667
chimupati,,05,-13.2833333,30.1333333
chimupi,,03,-15.0166667,22.6
chimusale,,06,-14.4333333,31.8833333
chimusali,,06,-14.4333333,31.8833333
chimusania,,09,-15.0833333,29.5666667
chimusanya,,09,-15.0833333,29.5666667
chimutanda,,07,-12.6833333,31.0166667
chimuti,,06,-13.4833333,32.7666667
chimutonda,,07,-12.6166667,30.7833333
chimutu,,05,-15.0333333,27.1
chimutukulu,,06,-14.0666667,31.9833333
chimutwi,,03,-14.6166667,24.6666667
chimuzimu,,06,-14.0833333,32.8166667
chimvila,,06,-14.3666667,31.9666667
chimvula,,01,-12.1666667,24.25
chimwaijila,,04,-15.7166667,27.5166667
chimwala,,06,-13.1666667,32.8
chimwamtowao,,06,-12.1,33.2166667
chimwanga,,01,-13.7166667,24.15
chimwara,,06,-12.4333333,33.45
chimwasu,,01,-13.1833333,23.3666667
chimwele,,07,-9.1,30.7833333
chimwendo,,06,-13.2,31.8333333
chimwere,,06,-14.35,31.4666667
chimwishi,,01,-11.75,24.55
chimyamauni,,02,-12.9166667,28.7
chimzimu,,06,-13.4833333,32.8
chimzinga,,06,-11.6666667,32.6666667
china,,01,-11.1833333,24.2166667
china,,05,-12.8666667,30.4
chinakila,,07,-9.2833333,31.0166667
chinama,,02,-13.0166667,28.7833333
chinanga,,06,-13.6333333,32.45
chinango,,08,-8.55,29.1
chinangwa,,05,-13.7666667,29.8
chinda,,06,-13.7166667,31.7833333
chinda,,07,-9.3,31.5333333
chindai,,01,-13.5,22.2
chindalo,,04,-16.1166667,26.0333333
chindalo,,05,-14.4666667,28.2166667
chindamba,,03,-15.25,22.6666667
chindamba,,06,-13.65,31.1333333
chindambu,,06,-12.7166667,32.0833333
chindele,,03,-14.0,23.8833333
chindele,,05,-14.0833333,28.3166667
chindende,,07,-9.4666667,30.1
chindewere,,05,-15.0333333,29.9333333
chindeya,,06,-13.3666667,32.6666667
chindiamera,,06,-11.9666667,33.1666667
chindiboyi,,07,-9.4,31.4666667
chindilo,,06,-14.3,31.8166667
chindimba,,04,-16.6333333,27.5166667
chindime,,06,-13.4166667,32.85
chinditu,,06,-14.0,31.45
chindo,,06,-13.7166667,31.7833333
chindo,,07,-9.3,31.5333333
chindola,,06,-13.5833333,32.4
chindora,,06,-13.4833333,32.4666667
chindra,,06,-13.4833333,32.4666667
chindube,,06,-12.1166667,32.5833333
chindumba,,01,-13.3333333,23.5833333
chindumbu,,03,-16.6,24.7833333
chinduye,,06,-12.2666667,32.4666667
chindwali,,06,-14.3,32.0333333
chindwari,,06,-14.3,32.0333333
chinemba,,01,-12.3166667,25.15
chinenga,,05,-14.3833333,28.6666667
chinenge,,03,-14.9,22.6666667
chinengo,,08,-8.55,29.1
chinengu,,03,-16.5833333,24.6666667
chingabe,,04,-16.95,27.4
chingabo,,07,-8.65,31.3333333
chinga,,07,-11.25,31.95
chingalaba,,07,-9.5666667,31.2333333
chingala,,09,-15.8,28.3
chingalawa,,07,-9.5666667,31.2333333
chingali,,07,-10.15,31.0166667
chingaliwa,,06,-13.8333333,32.3333333
chingambo,,07,-8.65,31.3333333
chingambu,,01,-12.7833333,24.2
chingambu,,03,-14.3166667,23.25
chinganda,,03,-15.6333333,22.6166667
chingangu,,01,-13.8,23.25
chingangu,,03,-14.6333333,24.7
chinganyama,,06,-12.2666667,33.2666667
chinganze,,06,-13.2666667,31.9166667
chinganzi,,06,-13.2666667,31.9166667
chingara,,06,-12.4833333,33.2666667
chingavata,,03,-13.9833333,22.2
chingela,,09,-15.2666667,29.1833333
chingi,,01,-13.0166667,22.7333333
chinginele,,07,-12.7,30.9833333
chingo,,06,-12.8833333,32.1
chingola,148583,02,-12.5333333,27.85
chingolo,,06,-12.8333333,32.2166667
chingolola,,03,-15.8833333,24.9833333
chingoma,,06,-12.3,33.1166667
chingombe,,05,-14.4166667,29.9666667
chingombe,,07,-9.4,32.4166667
chingomo,,06,-12.3833333,33.35
chingonde,,06,-13.6,32.4333333
chingongolingo,,06,-13.45,32.8166667
chingula,,02,-13.5166667,28.0166667
chingulo,,02,-13.5166667,28.0166667
chingumbe,,01,-13.65,23.8833333
chingumbe,,03,-15.6833333,25.0166667
chingumbwe,,04,-17.35,27.35
chingwali,,03,-13.95,22.8166667
chingwengwe,,06,-12.5833333,33.0
chiniala,,06,-13.6,32.4833333
chininasa,,06,-13.2,32.9
chininuku,,06,-12.0333333,33.1666667
chinjala,,06,-13.6,32.4833333
chinjamba,,01,-13.7833333,23.7
chinjamba,,03,-15.6666667,24.9666667
chinjanga,,01,-13.6833333,22.2833333
chinjenge,,03,-14.9666667,22.6166667
chinjila,,04,-16.3333333,27.4833333
chinjili,,06,-14.05,31.05
chinka,,02,-12.8166667,27.05
chinkalamu,,06,-11.9,33.2333333
chinkalanga,,07,-11.1333333,31.7333333
chinkankala,,06,-14.5333333,31.4666667
chinkatasha,,05,-14.05,28.0333333
chinkatashya,,05,-14.05,28.0333333
chinke,,02,-12.8166667,27.05
chinkhango,,06,-14.5166667,31.2666667
chinkohomo,,06,-14.45,31.8666667
chinkoko,,06,-14.45,31.8666667
chinkokoto,,05,-14.2666667,28.2
chinkomo,,06,-14.45,31.8666667
chinkosa,,05,-14.1833333,28.2166667
chinkowa,,07,-10.4166667,31.0666667
chinkoyo,,05,-12.85,30.35
chinkuku,,06,-11.9666667,33.1833333
chinkuli,,04,-15.4166667,26.4166667
chinkulu,,05,-12.6833333,29.9666667
chinkumba,,06,-14.2666667,31.8
chinkumba,,07,-10.85,32.0333333
chinkumbe,,03,-14.8166667,23.85
chinkumbe,,04,-17.05,27.5333333
chinkumbe,,05,-14.95,27.7833333
chinkumbi,,04,-17.05,27.5333333
chinkumbi-mukangwa,,05,-14.7333333,27.8166667
chinkumbwi mukongwa,,05,-14.7333333,27.8166667
chinkuni,,06,-13.9,31.55
chinkuri,,04,-15.4166667,26.4166667
chinkwamba,,06,-12.55,32.35
chinkwazara,,06,-13.5,32.8333333
chinkwenda,,06,-13.1666667,32.5333333
chinofu,,07,-11.05,32.0833333
chinokotwe,,06,-11.4166667,32.4
chinomba,,06,-12.4333333,33.3
chinonge,,01,-13.2833333,23.0666667
chinoya,,01,-13.9166667,23.2666667
chinsala,,07,-10.55,32.0666667
chinsali,14016,07,-10.55,32.0666667
chinsamba,,06,-14.2333333,31.7333333
chinsamba,,08,-9.2333333,28.4666667
chinsambwe,,07,-9.5833333,32.7833333
chinsambwi,,07,-9.5833333,32.7833333
chinsangu,,06,-12.2333333,33.25
chinsatu,,06,-14.35,31.9666667
chinsene,,06,-14.2333333,31.6666667
chinsensela,,07,-10.6333333,29.7
chinsimba,,06,-13.9333333,32.1666667
chinsungwe,,05,-14.0166667,27.3
chintankwa,,05,-13.3666667,30.4666667
chintankwa,,07,-10.3666667,32.1166667
chintelele,,01,-11.85,24.35
chinthengu,,06,-14.4666667,31.2666667
chinthu,,06,-13.45,32.8333333
chintimba,,02,-12.35,27.9333333
chintona,,06,-13.55,32.4833333
chintunzi,,06,-13.1666667,31.9166667
chinuma,,01,-11.9166667,25.1
chinumbwa,,04,-16.3666667,27.9
chinunda,,06,-12.4833333,33.1
chinunde,,06,-13.1833333,32.6166667
chinunga,,03,-15.1333333,22.6333333
chinungi,,07,-11.0333333,32.1166667
chinungu,,04,-16.3166667,28.2833333
chinunka,,06,-12.3,32.3333333
chinunko,,06,-14.15,31.3833333
chinyako,,06,-13.6,32.45
chinyaku,,06,-13.45,32.6666667
chinyama,,01,-13.45,22.3833333
chinyama,,03,-14.4666667,23.5833333
chinyama imasiku,,01,-13.2666667,24.2166667
chinyama litapi,,01,-13.4833333,22.3166667
chinyamba,,06,-12.3,33.2
chinyamuka,,05,-14.8166667,27.6166667
chinyana,,09,-15.8,28.3
chinyangwa,,01,-13.6833333,23.25
chinyanku,,06,-13.7166667,32.5833333
chinyans,,07,-10.1333333,32.7
chinyanshi,,07,-10.1333333,32.7
chinyanta,,05,-12.3166667,30.0333333
chinyawa,,03,-14.0333333,22.9833333
chinyeka,,03,-15.15,24.2333333
chinyemba,,03,-14.4666667,23.7666667
chinyenge,,03,-15.4333333,23.7166667
chinyengele,,07,-9.3666667,30.7333333
chinyeno,,05,-13.3166667,30.1666667
chinyeta,,01,-12.7666667,24.2333333
chinyima,,01,-13.8666667,23.2166667
chinyimba,,06,-14.45,31.7833333
chinyimba,,07,-10.65,31.0166667
chinyingi,,01,-13.35,22.9833333
chinyombe,,07,-10.2666667,33.3166667
chinyondo,,06,-12.15,32.6166667
chinzali,,06,-14.3,31.9333333
chinzete,,09,-15.2166667,29.55
chinzewe,,06,-13.65,31.9
chinzule,,06,-14.3,31.9333333
chiogoma,,05,-15.4333333,28.55
chiole,,06,-13.65,31.5666667
chiolola,,03,-17.2333333,23.8333333
chiololo,,03,-17.2333333,23.8333333
chioma,,04,-16.2333333,27.7333333
chiombo,,01,-12.0166667,25.7333333
chiombo,,03,-16.5,24.9666667
chiombo,,07,-10.5166667,33.2666667
chiona,,06,-12.1833333,33.1833333
chiongo,,03,-13.9833333,24.0166667
chiota,,04,-16.1333333,28.5333333
chiota,,09,-15.2333333,28.85
chioza,,03,-14.7,22.7666667
chipakata,,05,-14.3666667,28.6333333
chipako,,04,-16.1,26.0666667
chipako,,06,-13.4166667,31.9333333
chipalabantu,,05,-14.25,28.0666667
chipala,,03,-15.0666667,22.6333333
chipalala,,06,-14.2333333,31.55
chipalashi,,05,-13.2333333,30.85
chipale,,07,-8.8666667,31.5166667
chipali,,05,-14.5666667,27.45
chipalo,,07,-10.2,29.9
chipamba,,06,-11.5333333,32.8166667
chipanama,,05,-14.0833333,27.15
chipanama,,09,-15.2333333,28.5166667
chipanda,,06,-12.5,32.4333333
chipandakano,,01,-13.2666667,24.0833333
chipande,,05,-14.7833333,28.5333333
chipande,,07,-10.2833333,31.05
chipandwe,,06,-12.55,32.3666667
chipanema,,09,-15.2333333,28.5166667
chipanga,,05,-13.85,29.75
chipanga,,07,-10.7166667,33.45
chipangu,,06,-10.6333333,32.8833333
chipangula,,04,-16.1666667,28.6666667
chipanta,,07,-8.8,31.15
chipanta,,08,-8.4333333,29.3666667
chipantangela,,04,-17.35,27.35
chipantangeli,,04,-17.35,27.35
chipanzawe,,06,-13.9833333,31.5166667
chipapa,,07,-8.35,30.05
chipapaila,,06,-14.3,31.95
chipapika,,06,-13.9833333,31.8833333
chipapilo,,06,-13.95,31.7166667
chiparamba,,06,-13.5666667,32.4833333
chipasamuka,,07,-9.3166667,30.7
chipasanse,,07,-8.65,30.7333333
chipase,,07,-9.9166667,33.0833333
chipasu,,05,-15.05,26.6333333
chipasula,,06,-12.35,33.4
chipata,,05,-12.85,30.75
chipata,85973,06,-13.6333333,32.65
chipata,,07,-11.5,31.9333333
chipatala,,06,-14.2333333,31.55
chipatalo,,06,-14.2333333,31.55
chipata mukai,,07,-10.4666667,33.45
chipatela,,03,-14.9833333,22.4333333
chipawpaw,,07,-8.35,30.05
chipaya,,01,-11.15,24.25
chipazu,,06,-13.3833333,31.9666667
chipebete,,09,-15.2,29.95
chipele,,07,-10.2666667,32.6
chipelembe,,03,-14.2333333,25.0
chipelembe,,07,-11.95,31.55
chipemba,,04,-15.7333333,27.35
chipembe,,06,-14.5166667,30.9666667
chipembe,,08,-9.7,29.6833333
chipembele,,01,-12.8833333,26.4833333
chipembere,,02,-12.9833333,28.7333333
chipembere,,06,-13.9833333,31.35
chipembi,,05,-14.9333333,28.5833333
chipembwa,,07,-9.9,32.6666667
chipepeya,,07,-10.2,32.7833333
chipepo,,04,-16.8166667,27.8333333
chipepo,,05,-14.2,28.2166667
chiperembe,,06,-12.7,32.8833333
chipete,,07,-9.2666667,32.5
chipeteni,,02,-13.2166667,28.5333333
chipetuka,,06,-12.3833333,33.2166667
chipeukeni,,06,-14.5833333,31.0166667
chipezeyami,,06,-14.0833333,32.6
chipezeyani,,06,-14.0833333,32.6
chipia,,07,-10.0166667,31.3666667
chipi chiposa,,05,-12.75,30.45
chipiei,,06,-11.95,33.2333333
chipierelo,,06,-11.95,33.2333333
chipilichankulimwe,,05,-14.9666667,29.4
chipili,,06,-14.1166667,32.3833333
chipili,,08,-10.7333333,29.0833333
chipilipili,,07,-9.45,30.1166667
chipilunga,,06,-12.2666667,32.3833333
chipimo,,07,-8.9,30.9166667
chipindai,,09,-15.0833333,29.6333333
chipindani,,09,-15.0833333,29.6333333
chipindo,,06,-14.4333333,31.7666667
chipipeya,,07,-10.2,32.7833333
chipiripiri,,07,-9.45,30.1166667
chipito,,05,-14.1333333,28.0666667
chipiya,,07,-9.0333333,31.7
chipokosa,,06,-13.4833333,32.8166667
chipokoso,,06,-13.4833333,32.8166667
chipokoso,,07,-9.4166667,32.6
chipola,,07,-12.8166667,31.4
chipolo,,07,-12.8166667,31.4
chipompela,,05,-14.0166667,27.3166667
chiponde,,04,-16.75,27.05
chiponde,,06,-12.1,33.0833333
chipondo,,01,-13.3,23.15
chipondo,,06,-11.6833333,32.7833333
chipondu,,05,-14.55,27.4833333
chipongolo,,07,-9.8,31.4166667
chipongwe,,09,-15.65,28.2666667
chipongwe west,,09,-15.65,28.2666667
chipopa,,01,-11.9333333,24.2666667
chipopera,,06,-13.9,32.1833333
chipopo,,01,-11.3,25.2666667
chiporokoto,,06,-12.4666667,33.3333333
chiporopoto,,06,-12.4666667,33.3333333
chipota,,06,-14.7166667,30.8666667
chipota,,08,-10.9666667,28.8833333
chipote,,07,-10.0833333,32.6333333
chipoto,,01,-11.3,25.2666667
chipoya,,03,-14.4,23.6833333
chippia,,03,-14.8333333,22.1833333
chiprichankulimwe,,05,-14.9666667,29.4
chipubu,,06,-14.2333333,32.55
chipuka,,06,-12.4333333,32.2333333
chipulia,,07,-9.6666667,30.6166667
chipulu,,03,-14.2166667,23.25
chipulwe,,08,-9.3,28.4666667
chipumba,,05,-14.5666667,27.3333333
chipumbu,,06,-12.4166667,33.3666667
chipumpula,,01,-13.6333333,26.3666667
chipundu,,07,-8.85,31.5333333
chipundu,,08,-11.6,29.7333333
chipungo,,05,-13.1833333,30.6833333
chipungu,,06,-14.0833333,31.2666667
chipungu,,07,-10.5666667,33.4833333
chipungu,,08,-11.4666667,28.8166667
chipungu,,09,-15.3666667,29.05
chipupa,,07,-10.1166667,32.3166667
chipupu,,05,-13.2,30.9
chipushi,,07,-9.25,32.0333333
chiputa,,03,-14.2833333,23.05
chiputa,,08,-10.9666667,28.8833333
chiputi,,06,-14.25,31.8166667
chiputu,,05,-14.2833333,29.0833333
chiputula,,06,-14.1333333,31.4333333
chiputwa,,05,-13.1333333,30.8166667
chipuzi,,07,-9.25,32.0333333
chipwafu,,06,-13.9333333,31.9166667
chipwaila,,06,-12.0,32.55
chipwalu,,09,-15.0833333,29.55
chipwaly,,04,-16.15,27.95
chipwendi,,05,-14.8666667,29.0
chipwenuka,,05,-15.1833333,26.9833333
chipwenupwenu,,09,-15.4666667,28.2666667
chipya,,07,-10.0166667,31.3666667
chipyaila,,05,-14.1333333,28.2166667
chipyeni,,05,-13.8,29.7166667
chirambwezi,,07,-9.0666667,32.0833333
chiramina,,02,-12.2666667,27.6
chiranga,,07,-9.2333333,32.45
chirekate,,06,-14.35,31.4666667
chirembe,,03,-14.2,22.0333333
chirenda,,06,-14.0333333,31.2666667
chirima,,06,-14.3,31.0833333
chirimunganda,,06,-11.65,32.8333333
chiritindi,,06,-13.2,31.8833333
chirombe,,04,-16.6333333,27.4833333
chironga,,06,-13.9,31.55
chiropo,,07,-9.2,32.3666667
chirowe,,06,-14.3333333,32.0833333
chirumbeni,,06,-11.8833333,30.15
chirumburwa,,02,-12.35,27.15
chirunda,,06,-12.9,32.1
chirunda,,07,-10.7833333,31.8666667
chirundu,,04,-16.05,28.8333333
chirupe,,06,-14.0166667,31.2
chisabuka,,04,-16.65,27.95
chisaeta,,07,-8.55,30.1
chisaka,,05,-13.2,31.0
chisaka,,06,-13.4666667,32.15
chisakasaka,,01,-13.55,23.4166667
chisakila,,05,-15.9,28.6833333
chisako,,01,-14.3166667,26.9
chisako,,06,-14.3333333,31.9833333
chisakula,,05,-13.8,30.0833333
chisakula,,07,-10.2666667,32.7
chisala chimutela,,05,-12.8833333,30.7333333
chisala,,05,-12.6666667,30.6833333
chisala,,06,-13.2166667,32.7
chisala,,07,-11.4166667,31.8833333
chisalandao,,06,-12.1833333,32.6
chisama,,03,-14.7333333,24.2
chisamba,,01,-13.0833333,22.75
chisamba,,05,-14.9833333,28.3833333
chisamba,,06,-11.3833333,33.1
chisambi,,07,-9.0666667,30.6
chisambo,,06,-13.3666667,32.8833333
chisamo,,05,-13.5833333,30.6666667
chisampa,,07,-11.0833333,32.3
chisampala,,02,-12.7833333,27.3
chisampara,,02,-12.7833333,27.3
chisanga,,05,-13.8333333,27.8333333
chisanga,,08,-11.05,28.9
chisangaponde,,07,-9.8166667,31.35
chisanguka,,07,-10.4,33.1
chisankani,,06,-13.5166667,32.0
chisankhu,,06,-13.3666667,32.9
chisanku,,06,-13.3666667,32.9
chisansela,,07,-10.6333333,29.7
chisanya,,07,-9.45,31.2166667
chisapwa,,02,-13.2166667,28.3833333
chisasa,,01,-12.1,25.5
chisato,,07,-9.9333333,32.7
chisawakona,,02,-12.9666667,28.5666667
chiseba,,07,-11.4666667,32.1666667
chisebuka,,04,-16.65,27.95
chisebwa,,05,-13.2166667,29.9166667
chiseka,,06,-13.1,31.8833333
chiseke,,07,-9.15,32.45
chisekesi,,04,-16.45,27.4833333
chiseko,,06,-13.5333333,32.45
chisela,,07,-10.4166667,33.0833333
chiselele,,03,-14.95,24.4833333
chisembe,,07,-8.9,31.0
chisembe,,08,-11.0833333,28.9
chisembele,,07,-8.4833333,29.7166667
chisemberi,,07,-8.4833333,29.7166667
chisembo,,07,-9.4166667,32.15
chisempere,,06,-12.4,33.3
chisenda mambwe,,05,-12.9666667,30.5
chisenga,,05,-12.7166667,30.5833333
chisenga,,06,-13.3166667,31.9166667
chisenga kaipate,,05,-13.1,30.2666667
chisengo,,06,-13.8833333,31.0666667
chisengu,,06,-13.8833333,31.0666667
chisengwa,,05,-14.0333333,27.3166667
chisense,,08,-11.65,29.7166667
chisensera,,05,-14.75,29.2
chisenya,,03,-14.2666667,23.1333333
chisesa,,07,-9.35,31.95
chiseta,,01,-13.75,22.65
chisha,,07,-9.3333333,31.9666667
chishala,,07,-11.55,32.1166667
chisheta,,07,-8.55,30.1
chishinga,,03,-15.3333333,25.25
chishinga,,05,-14.6666667,27.5833333
chishita,,03,-13.7333333,22.15
chishita,,05,-15.2,26.7333333
chishoka,,07,-9.75,32.6333333
chishya,,07,-9.3333333,31.9666667
chisiba,,06,-13.9333333,32.1666667
chisi,,04,-15.6833333,27.1833333
chisimba,,06,-11.2,33.1333333
chisimba,,07,-10.2833333,33.4333333
chisindi,,04,-15.65,27.1666667
chisindili,,06,-13.55,32.4
chisinga,,05,-14.6666667,27.5833333
chisinga,,06,-14.35,31.45
chisinga,,07,-10.7166667,29.4833333
chisita,,03,-14.1166667,22.8666667
chisoka,,01,-14.35,26.9
chisoka,,05,-14.65,27.1833333
chisoka,,07,-8.6333333,30.75
chisoke,,07,-10.6333333,31.0166667
chisoko,,05,-14.65,27.1833333
chisole,,07,-10.0333333,33.25
chisolo,,06,-13.9666667,31.8666667
chisolo mwendo,,07,-9.9333333,32.7
chisolwe,,05,-14.85,29.1
chisomo,,05,-13.5833333,30.6666667
chisomona,,05,-14.8166667,27.8166667
chisompola,,05,-14.0666667,27.8833333
chisonda,,03,-15.6166667,23.5666667
chisonda,,07,-10.55,33.5666667
chisondi,,06,-11.2666667,33.1166667
chisongo,,07,-9.0333333,30.5833333
chisonso,,06,-14.3833333,31.2833333
chisonso,,07,-9.55,29.7333333
chisopa,,07,-11.0833333,32.3
chisoru mwendo,,07,-9.9333333,32.7
chisoso,,07,-11.2833333,31.9333333
chisotaka,,09,-15.65,28.7333333
chisotoka,,09,-15.65,28.7333333
chisotu,,07,-9.9333333,32.7
chisua,,06,-11.9166667,33.3
chisukulu,,08,-9.2333333,28.4
chisule,,05,-14.8166667,27.6666667
chisulo,,06,-13.2333333,32.2
chisulo,,07,-9.0166667,31.15
chisulubi,,05,-14.5166667,28.1
chisuluwe,,06,-13.9666667,32.0
chisulwa,,07,-9.3666667,30.75
chisulwe,,06,-13.9666667,32.0
chisumpa,,04,-16.15,26.9666667
chisumpa,,05,-12.85,30.6666667
chisunga,,07,-9.2833333,31.2666667
chisunka,,08,-10.7666667,28.85
chisunka luongo,,08,-10.7,28.9333333
chisunku,,01,-12.3833333,25.35
chisunta,,05,-14.25,28.1333333
chisura,,06,-12.8166667,32.05
chiswala,,06,-14.5833333,31.15
chiswaminina,,01,-13.4833333,22.4
chiswaswa,,06,-13.7666667,32.1666667
chisyaeta,,07,-8.55,30.1
chisyala,,07,-11.55,32.1166667
chisyoka,,07,-9.75,32.6333333
chitachi,,03,-15.8833333,23.55
chitala,,05,-14.2666667,29.8666667
chitali,,06,-12.1166667,33.1833333
chitamaia,,06,-12.0,33.25
chitamawe,,07,-9.7166667,32.8166667
chitambala,,07,-11.85,30.7333333
chitambela,,07,-9.4666667,32.95
chitambi,,07,-10.25,31.1666667
chitambo,,04,-16.4333333,26.6666667
chitambo,,05,-12.9166667,30.6333333
chitambo,,06,-13.6,32.45
chitampira,,05,-14.5833333,27.1666667
chitanda,,02,-12.3833333,27.95
chitanda,,05,-14.6333333,27.6
chitandika,,06,-13.3333333,32.65
chitanga,,05,-15.0333333,29.9333333
chitangati,,06,-13.5666667,32.4166667
chitangu,,03,-14.6166667,24.4166667
chitanta,,05,-14.6166667,28.5166667
chitanyika,,01,-12.7333333,25.5833333
chitanza,,06,-13.95,32.65
chitaoni,,01,-12.1166667,26.1666667
chitapa,,07,-10.3666667,33.3166667
chitapo,,07,-10.35,33.3
chitapu,,05,-15.2166667,26.9666667
chitashya,,05,-13.85,29.6833333
chitau,,01,-13.0833333,22.7166667
chiteba,,06,-11.3666667,32.9
chitekesia,,06,-12.3333333,33.25
chitekwe,,07,-9.3,32.6166667
chitele,,06,-13.9166667,31.7333333
chitembe,,06,-11.3666667,32.9166667
chitembo,,06,-13.1666667,31.8333333
chitembo,,07,-11.45,31.75
chitembo,,08,-11.15,29.5833333
chitende,,06,-14.0666667,32.9666667
chitengo,,06,-14.4833333,31.3166667
chitente,,07,-10.1333333,33.3666667
chitete,,06,-12.2666667,32.5166667
chiteula,,03,-14.9666667,22.65
chiteve,,01,-13.3,24.3833333
chitewe,,09,-15.7666667,28.1166667
chithambo,,06,-13.4166667,32.4
chithumba,,06,-14.4666667,31.8
chitibwa,,07,-8.85,30.8666667
chiti,,05,-14.0333333,29.85
chitikafula,,07,-9.9666667,31.7166667
chitimba,,06,-12.0833333,33.25
chitimbe,,06,-11.3666667,32.9166667
chitimbi,,06,-11.3666667,32.9166667
chitimbwa,,07,-8.85,30.8666667
chitimpa,,05,-13.2,30.6166667
chitimukulu,,07,-10.0166667,31.6166667
chitimvula,,07,-9.2,31.05
chitindi,,06,-13.2,31.8833333
chitingi,,06,-13.9166667,31.5333333
chitingulu,,06,-12.4166667,32.2666667
chitiwa,,05,-13.6833333,29.1
chitiwe,,09,-15.7666667,28.1166667
chitizauwe,,06,-14.65,30.8
chito,,01,-11.5333333,24.9333333
chitoka,,01,-13.2,23.0333333
chitoka,,03,-15.3833333,22.8666667
chitoko,,01,-13.2,23.0333333
chitokoloki,,01,-13.8333333,23.2166667
chitokwani,,07,-10.0166667,32.7166667
chitole,,03,-13.9,22.4666667
chitole,,07,-11.4,31.9666667
chitolwe,,08,-9.95,28.7166667
chitoma,,01,-13.6666667,23.1333333
chitombo,,03,-14.1333333,23.05
chitongobesa,,02,-13.5,28.45
chitongo,,01,-13.75,23.45
chitongo,,04,-16.0666667,26.9333333
chitope,,09,-15.2,30.2
chitoro,,06,-10.5666667,33.2333333
chitoshi,,07,-10.1166667,30.2
chitoto,,06,-12.7166667,32.8333333
chitowa,,06,-10.5666667,33.1
chitsime,,06,-13.5166667,32.6333333
chitsulo,,06,-13.9666667,31.8666667
chitubula,,05,-14.2333333,30.1833333
chitukula,,06,-11.6166667,32.9833333
chitukulu,,06,-11.45,33.05
chitulika,,07,-10.6,33.45
chitulikwa,,07,-9.0166667,31.8833333
chitumbi,,06,-14.2666667,30.4666667
chitumbo,,05,-14.7333333,28.0333333
chitumbwa,,07,-10.7166667,31.8
chitunami,,05,-14.4,27.2
chitunawe,,06,-14.2166667,31.0166667
chitundu,,02,-12.95,28.7166667
chitundu,,06,-13.3666667,32.0666667
chitungu,,01,-13.0833333,22.9666667
chitungu,,06,-12.5,32.1666667
chitungulu,,06,-12.4166667,32.2666667
chitungwi,,06,-14.1166667,31.15
chituno,,05,-13.15,30.6833333
chitunta,,03,-15.5833333,24.9
chitupa,,07,-10.35,33.3
chitupira,,05,-13.0666667,31.0333333
chituta,,03,-15.25,24.6166667
chituta,,07,-8.4666667,30.2
chitutubula,,05,-14.8666667,27.8
chituvi,,06,-13.85,31.6833333
chituzi,,06,-14.1166667,31.15
chitwa,,07,-11.1166667,31.6333333
chitwe,,05,-15.6666667,27.6666667
chitwe,,07,-11.3,31.7
chiuabufu,,04,-15.6333333,26.5333333
chiulo,,06,-11.8,32.7333333
chiulu,,03,-17.35,24.1666667
chiumbe,,04,-16.9166667,26.55
chiumpe,,04,-16.9166667,26.55
chiunda,,06,-14.3833333,31.7333333
chiundaponde,,07,-12.2833333,30.5833333
chiunde,,03,-14.2833333,24.9666667
chiuru,,07,-9.6333333,29.55
chiuta,,05,-14.6,28.1166667
chiuta,,06,-14.4,31.7166667
chiutika,,06,-13.4666667,32.6333333
chiuukula,,06,-14.5333333,31.2333333
chiuuli,,06,-14.6333333,31.2166667
chiuye,,06,-14.0666667,31.6833333
chiuyikasisi,,05,-12.95,30.1666667
chiuysaidi,,05,-12.8666667,30.7333333
chivimba,,06,-13.1833333,31.8666667
chivinda,,01,-13.45,22.05
chivingo,,07,-10.2,32.1833333
chivueta,,03,-15.7333333,23.55
chivulu,,01,-13.5666667,22.15
chivumba,,04,-16.3666667,27.9
chivuna,,04,-16.2,27.8166667
chivunda,,01,-13.3333333,22.7833333
chivunga,,06,-14.3333333,31.3333333
chivuta,,07,-10.9666667,32.2333333
chivweta,,03,-15.6,23.5666667
chivweti,,03,-14.7833333,24.6833333
chivyikasisi,,05,-12.95,30.1666667
chiwa,,06,-14.1833333,31.25
chiwafwa,,01,-13.1666667,24.0666667
chiwalabi,,05,-12.4833333,29.9333333
chiwala,,01,-12.45,25.8
chiwala,,02,-13.0,28.7333333
chiwala,,05,-14.5166667,28.3833333
chiwala,,06,-12.75,32.2166667
chiwalawi,,05,-12.4833333,29.9333333
chiwale,,06,-10.55,32.7833333
chiwale,,07,-9.9,32.55
chiwali,,06,-11.9833333,32.5166667
chiwama,,06,-13.25,32.8833333
chiwamba,,03,-15.2666667,22.8166667
chiwamba,,06,-13.4666667,32.3166667
chiwambo,,06,-14.1833333,31.2333333
chiwanana,,06,-12.85,32.1833333
chiwanangala,,07,-11.15,30.05
chiwanda,,06,-13.4166667,31.6166667
chiwanda,,07,-10.1166667,32.6666667
chiwande,,06,-12.8333333,32.2
chiwanga,,06,-13.45,32.8333333
chiwangu,,06,-11.7833333,33.2166667
chiwangu ndhlovu,,06,-11.8333333,33.2833333
chiwangwe,,06,-11.6,33.0333333
chiwanja,,06,-14.3666667,31.3
chiwano,,03,-14.45,24.0333333
chiwashia,,07,-10.4833333,32.1166667
chiwaula,,06,-13.2166667,32.0166667
chiwawa,,03,-14.55,24.2166667
chiwawa,,06,-13.2833333,32.8833333
chiwawamtawa,,06,-12.05,33.2166667
chiwawatala,,06,-13.1666667,31.9
chiwaya,,06,-13.45,32.4666667
chiwayo,,06,-13.3,32.6166667
chiwayu,,06,-13.4,32.75
chiwefwe,,05,-13.6333333,29.45
chiwekwe,,06,-14.0666667,31.35
chiwela,,06,-14.4666667,31.7166667
chiwele,,05,-12.7166667,30.4666667
chiwelewele,,07,-9.5833333,32.7
chiwelwa,,08,-9.6833333,29.7833333
chiwembe,,06,-12.2833333,32.4833333
chiwembe,,07,-10.2833333,30.8833333
chiwempala,,02,-12.55,27.8333333
chiweta,,06,-13.3,32.7833333
chiweteka,,06,-13.55,32.4666667
chiwewane,,06,-12.85,32.25
chiweza,,06,-13.5833333,32.5166667
chiwimba,,07,-9.8333333,30.6666667
chiwishi,,03,-14.4166667,23.25
chiwoko,,01,-12.7166667,25.9833333
chiwoko,,06,-13.9333333,32.2
chiwole,,06,-13.65,31.5666667
chiwoleka,,07,-11.8333333,31.6333333
chiwolela,,06,-14.3333333,31.7333333
chiwoma,,01,-12.35,24.2333333
chiwosa,,06,-14.25,32.2
chiwoula,,06,-12.1666667,33.1333333
chiwowa,,06,-14.5833333,30.95
chiwowua,,06,-12.1666667,33.1333333
chiwuli,,07,-10.15,32.2333333
chiwunoki,,07,-11.0333333,32.1166667
chiwuta,,05,-14.6,28.1166667
chiwutuwutu,,07,-10.6166667,31.1666667
chiwuye,,05,-12.9666667,30.0166667
chiyaba,,02,-13.2,28.6666667
chiyaba,,05,-15.0833333,27.8166667
chiyaze,,01,-13.05,22.6666667
chiyeke,,01,-13.1833333,22.75
chiyeke,,03,-15.2666667,22.6
chiyena,,01,-13.0333333,22.6666667
chiyengele,,01,-13.15,24.15
chiyengi,,01,-13.2166667,22.6666667
chiyesu,,01,-13.45,23.0833333
chiyobola,,04,-16.4,27.6
chiyokoma,,05,-14.3833333,27.2
chiyoma,,04,-16.2333333,27.7333333
chiyombo,,07,-10.5166667,33.2666667
chiyose,,03,-16.95,24.9
chiyumpe,,04,-16.9166667,26.55
chiyuta,,05,-14.6,28.1166667
chizandilo,,06,-14.2,31.2666667
chizau,,01,-13.05,24.0666667
chizaza,,03,-14.4,23.2833333
chizela,,01,-13.1333333,25.0
chizelu,,03,-14.8666667,23.9333333
chizera,,01,-13.1333333,25.0
chizhimo,,03,-14.6,24.35
chizika,,03,-14.0333333,22.9166667
chiziko,,03,-14.7,23.9166667
chizikwe,,06,-14.0833333,31.0333333
chizila,,06,-12.8166667,32.05
chizimu,,03,-15.5333333,24.1833333
chizindilo,,06,-13.55,32.4
chizindiri,,06,-13.55,32.4
chizira,,06,-12.8166667,32.05
chiziwa,,06,-13.4,32.8833333
chizizi,,06,-11.7666667,32.85
chizonde,,06,-14.3333333,31.3333333
chizonga,,06,-12.3166667,33.1333333
chizongwe,,06,-14.5166667,31.0666667
chizowe,,06,-14.2,31.2666667
chizsu,,01,-13.45,23.0833333
chizuma,,06,-13.3666667,32.7166667
chizungu,,07,-8.95,30.95
chizuwe,,06,-11.9166667,33.3
chkungu,,06,-14.1833333,31.4666667
choambana,,04,-16.3333333,27.6833333
chobana,,04,-16.2166667,27.3166667
chobananga,,04,-16.65,17.1
chobe,,07,-9.8,31.6
chobembwa,,05,-14.5666667,27.3833333
chobemwa,,05,-14.5666667,27.3833333
chobolo,,04,-15.4333333,26.9166667
chobu,,05,-15.0666667,26.1833333
chocha,,07,-8.4,29.8166667
chochi,,07,-8.4,29.8166667
choinja,,06,-14.2,31.1833333
choka,,01,-11.8666667,24.6333333
chokampingo,,09,-15.95,28.8166667
choko choko,,03,-14.6666667,23.3
chola,,03,-14.2333333,23.4333333
chola philipo,,05,-13.05,30.0333333
chole,,07,-8.9333333,31.65
cholola,,03,-17.2333333,23.8333333
choma,,03,-15.1166667,22.5833333
choma,46751,04,-16.8166667,26.9833333
choma,,06,-10.6333333,33.1
choma,,07,-10.3833333,33.4333333
chomatwa,,06,-12.3,33.25
chomba,,04,-16.2666667,28.5
chomba,,07,-9.1166667,30.9
chombaika,,05,-14.6333333,27.5833333
chombanenge,,07,-8.9333333,31.7166667
chombe,,04,-16.2666667,28.5
chombela,,05,-15.1833333,28.35
chombela,,07,-11.2166667,30.7333333
chombera,,07,-11.2166667,30.7333333
chombo,,01,-13.0833333,23.4166667
chombo,,03,-14.1333333,22.9833333
chombo,,04,-16.8,27.75
chombwa,,04,-15.7,26.4666667
chomo,,06,-11.3833333,33.1166667
chomo,,07,-8.4666667,29.6833333
chona,,04,-16.3333333,27.6833333
chondela,,01,-13.8666667,23.0833333
chondela,,06,-14.3333333,31.9666667
chondi,,06,-13.7833333,31.5666667
chondwe,,02,-13.2166667,28.75
chonga,,07,-12.7666667,30.7333333
chonga,,09,-15.3333333,27.8666667
chongo,,04,-15.95,27.3
chongo,,06,-13.7833333,32.2833333
chongola,,05,-12.15,29.8333333
chongololo,,06,-13.5166667,32.7
chongwe,,06,-13.8,32.65
chongwe,6057,09,-15.35,28.7
chonjo,,06,-14.2,31.1833333
chonongela,,06,-14.1333333,32.05
chonta,,05,-14.9333333,27.4666667
chonta lupobe,,05,-14.9333333,27.4666667
chonya,,07,-10.2666667,31.3833333
chonzola,,06,-13.3833333,31.9333333
chopa,,06,-14.4333333,31.9333333
chopera,,06,-14.3666667,31.2666667
chota,,01,-11.7,24.0166667
chota,,06,-13.2833333,31.8166667
chotela,,03,-14.4333333,23.3666667
chovwe,,01,-12.4,25.05
chowa,,07,-10.4,33.4
chowela,,06,-12.2333333,32.35
choza,,03,-15.6666667,23.5
chozi,,07,-9.3,32.35
chuaula,,06,-13.2166667,32.0166667
chuavla,,06,-12.1833333,33.1333333
chuba,,02,-13.4666667,28.8166667
chubi,,04,-15.5833333,26.9833333
chuha,,01,-11.8666667,24.6333333
chuka,,01,-11.8666667,24.6333333
chuka,,07,-10.8,33.3666667
chula,,04,-16.15,27.75
chule,,06,-13.9666667,31.7833333
chulu,,01,-12.4833333,24.8666667
chulu,,07,-9.3833333,32.7333333
chuluka,,04,-16.1333333,26.95
chuma,,03,-14.7,25.55
chumanembo,,07,-10.2666667,32.7333333
chumanganga,,06,-11.7166667,32.8833333
chumba,,06,-14.6666667,31.0666667
chumbaika,,05,-14.6333333,27.5833333
chumbi,,06,-14.5166667,31.4
chumbu,,07,-10.05,33.0833333
chumbula,,03,-15.25,22.25
chumikile,,06,-12.3333333,32.2833333
chumpe,,04,-16.1,26.05
chundeponde,,07,-12.2833333,30.5833333
chundu,,06,-13.2833333,31.8333333
chundu,,07,-9.4666667,31.2833333
chune,,06,-13.25,31.8
chunga,,05,-15.05,26.0
chunga,,06,-10.5666667,33.1
chunga,,07,-11.4166667,32.1166667
chunga farm,,07,-9.8166667,32.5166667
chungu,,07,-10.55,29.65
chungwe,,07,-9.4833333,32.2666667
chuni,,05,-14.65,28.55
chuni,,06,-12.7333333,32.15
chunimutobola,,05,-14.55,27.4333333
chunzingo,,06,-11.6666667,32.6666667
chuolera,,06,-14.3333333,31.7333333
chupa,,06,-14.3666667,31.3666667
chupemba,,07,-10.0166667,32.6833333
churiashi,,07,-10.8833333,31.6833333
churu,,01,-12.5333333,24.8833333
chuse,,06,-12.8333333,32.1333333
chusi,,06,-12.8333333,32.1333333
chutawalenga,,06,-11.8333333,32.5833333
chutika,,06,-13.4666667,32.6333333
chuulu,,03,-17.4,24.2333333
chuulunga,,06,-11.8333333,32.55
chuwaka,,07,-10.2833333,32.3166667
chuwi,,07,-10.1833333,32.6833333
chuwoma,,07,-10.1166667,31.35
chuwye mondo,,05,-12.8833333,30.3333333
chwangu ndhlovu,,06,-11.8333333,33.2833333
chyawa,,07,-10.9666667,30.0833333
cibeka,,07,-10.5333333,30.7333333
cibisa,,06,-14.1,31.6833333
cigwe,,06,-14.0,32.9833333
cilifia,,07,-10.75,30.8
cilufia,,07,-10.75,30.8
cimfwembe,,07,-10.2833333,30.8666667
cimwala,,06,-13.4166667,32.6833333
cingali,,07,-10.15,31.0166667
cinyimba,,07,-10.65,31.0166667
cipande,,07,-10.2833333,31.05
cisoke,,07,-10.6333333,31.0166667
citseka,,06,-13.4666667,32.45
citseko,,06,-13.4666667,32.45
conundula,,01,-12.5666667,26.2666667
conya,,07,-10.2666667,31.3833333
coundula,,01,-12.5666667,26.2666667
ctha,,06,-14.2,31.5833333
cule,,06,-13.9666667,31.7833333
cumwicumwi,,04,-17.35,25.9
cuni,,06,-13.55,32.4333333
daliyo,,06,-14.3666667,31.5333333
dambo,,06,-14.3333333,31.8
dambwa,,04,-17.85,25.85
damiano,,06,-14.35,31.2666667
dandaule,,03,-14.2333333,22.0333333
daniel,,06,-13.1166667,31.8333333
daniel,,07,-10.2166667,32.8166667
daniel kufuna,,03,-15.05,22.85
daniel mugala,,07,-10.1333333,33.4
daniel mugara,,07,-10.1333333,33.4
daniel mutambo,,07,-10.2333333,32.7666667
danyele mulila,,05,-13.2166667,30.9166667
daudi buyoka,,07,-10.1833333,31.2833333
dauseni,,07,-9.5,31.65
dauti chikubula,,05,-12.8,30.3333333
dauti,,05,-14.8333333,27.8833333
dauti kafinda,,05,-12.6333333,30.4333333
dauti mumba,,05,-12.9833333,30.4333333
dauti sindano,,07,-9.6,30.9
david chipowe,,07,-9.2,31.5333333
david chito,,07,-9.3333333,31.2166667
david,,07,-8.9833333,31.5833333
davide,,06,-14.6333333,30.8833333
david kasuba,,05,-12.8666667,30.3
david kayila,,07,-10.3,33.5166667
david mufakala,,05,-13.0166667,30.95
david mumba,,05,-12.85,30.4
david mwase,,06,-14.2666667,31.3
david sinkala,,07,-9.9166667,32.8666667
delaya tindi,,05,-13.1833333,30.9333333
dembera,,04,-16.8,27.3166667
deresi,,06,-13.6333333,32.15
dezo,,03,-14.2166667,23.3666667
diabwa,,04,-16.5666667,26.7666667
dibwe,,04,-16.4,28.4
dibwi,,04,-16.4,28.4
dick mtunda,,06,-14.2333333,31.2666667
dick mumba,,06,-14.2833333,31.3666667
dima,,06,-13.3166667,32.7
dimas kalaba,,07,-8.4333333,29.8666667
dimbwe,,04,-17.2833333,26.9833333
diomu,,05,-13.6666667,29.55
dipalata,,01,-13.3166667,23.2333333
dishipa,,01,-13.5,23.2
dixon kapinda,,05,-13.0166667,30.8333333
dixon mabeti,,07,-12.6166667,30.7833333
dixon malwita,,05,-13.1333333,30.8166667
dixon mutono,,07,-8.4666667,30.1833333
diyambo,,05,-14.8,27.3333333
dolochi,,07,-8.45,30.1
dombe,,06,-12.4666667,33.1166667
domfwe,,07,-12.6833333,30.8833333
dominiko,,07,-8.9833333,31.6666667
donala,,07,-9.5833333,32.9333333
donald mutambo,,07,-10.2,32.8166667
donald ngashi,,05,-12.8333333,30.4333333
donald silungwe,,07,-10.2166667,33.0333333
donati,,07,-10.1666667,33.05
dotoba,,06,-11.7833333,32.6833333
dulu,,03,-14.1833333,23.0833333
dumbe,,06,-12.55,32.3666667
dunda,,06,-12.25,33.1666667
durili,,06,-11.9666667,33.1666667
duta,,07,-10.8333333,31.1
dutchman machende,,05,-12.3166667,30.05
duwulu,,06,-12.3833333,33.25
dzoole,,06,-13.4166667,32.8666667
edward,,05,-13.1166667,30.5
edward manta,,05,-12.6333333,30.4166667
edward sikombe,,07,-9.35,32.5333333
efloni yandwa,,05,-12.9,30.65
efraim,,07,-8.8,31.55
efraim silungwe,,07,-10.2166667,32.6
egesi chimanisha,,05,-12.85,30.35
elias sanga,,05,-12.9833333,30.7166667
elimya malikebo,,05,-13.0,30.45
elisa mwape,,05,-12.8666667,30.2833333
elisha,,03,-15.05,24.4333333
eliya,,06,-14.5666667,30.85
eliya kasonde,,05,-13.0666667,30.85
eliya mwanje,,05,-12.8666667,30.6666667
elombwe,,03,-15.1,24.15
emily zombe,,07,-8.6666667,31.2
emmasdale,,09,-15.3833333,28.2666667
enala kasakila,,05,-12.8833333,30.3833333
eneya kapika,,05,-12.9166667,30.7
engine chiwala,,05,-12.75,30.3166667
enoch chikwaba,,05,-14.4,27.2
enoch kunda,,05,-12.8666667,30.3833333
enoch mambwe,,05,-12.85,30.7
enock chikwaba,,05,-14.4,27.2
enoki,,06,-13.85,32.3333333
enos chisenga,,05,-12.85,30.3666667
enos,,06,-14.0666667,31.85
enosi,,06,-14.0666667,31.85
enyantiweni,,06,-11.95,33.1166667
ephraim,,06,-12.4,33.2333333
ephraim,,07,-9.9,32.8666667
eprule,,07,-9.0,31.6833333
ernesto,,06,-14.35,31.3166667
esau chipena,,05,-13.0833333,30.9833333
esau,,05,-13.2,30.6333333
esau kabambanshipwa,,05,-12.8166667,30.5666667
esau mofia,,05,-12.9166667,30.4166667
esau musala,,05,-12.6,30.4166667
esau mwape,,05,-12.5666667,30.3833333
esaya,,07,-8.85,31.0
eseliya chikumbi,,07,-12.7,30.9833333
esther-ntalasha,,07,-10.3833333,30.85
esther-ntolasha,,07,-10.3833333,30.85
ezekiya nkamfwa,,05,-12.8833333,30.7
falls view,,04,-17.85,25.85
faron peteka,,07,-10.3666667,33.4833333
feira,,05,-15.6166667,30.4166667
felesia,,07,-8.4833333,30.1
felesi,,07,-8.4833333,30.1
felo,,03,-15.75,22.5666667
feni,,06,-13.7833333,32.75
feros katembo,,06,-14.2333333,31.25
fhumba,,04,-15.4666667,26.4833333
fianpanga,,07,-8.4333333,30.15
fife,,07,-9.3166667,32.8
fikumbwa,,05,-13.15,30.5
filamba,,07,-11.4666667,31.9166667
filimba,,07,-11.4666667,31.9166667
filimoni,,06,-13.25,32.1666667
filimoni matambo,,05,-12.8833333,30.65
filimoni mwape,,05,-12.9,30.35
filipi,,03,-14.6166667,23.9
filipo,,06,-14.1,31.6833333
filishi,,07,-8.4833333,30.1
filisi,,07,-8.4833333,30.1
findiche,,07,-10.3666667,32.95
findolo,,06,-14.4,31.6833333
finisha matesa,,05,-13.1666667,30.5833333
finish mumbwaila,,05,-12.8,30.5
fise chisenga,,05,-13.4333333,30.2666667
fise,,05,-13.4333333,30.2666667
fisenge,,02,-13.0666667,28.4666667
fisonga,,05,-14.2,28.15
fisonge township,,02,-13.0666667,28.4666667
fitaliano,,07,-10.35,31.25
fiwale,,02,-13.2,28.7166667
fiwila,,05,-13.9833333,29.6166667
foloma,,01,-13.5333333,23.7166667
fort jameson,,06,-13.6333333,32.65
fort rosebery,,08,-11.2,28.8833333
fowo,,06,-12.45,33.3333333
foxdale estates,,09,-15.35,28.3166667
foxdale,,09,-15.35,28.3166667
franki chisenga,,05,-12.8666667,30.2833333
fred,,07,-9.0,30.7833333
fube,,07,-11.3,30.4333333
fubera,,02,-13.8333333,28.6666667
fubishe,,05,-14.6833333,27.1833333
fubwe,,05,-14.05,28.2333333
fufutu,,03,-14.4666667,23.8333333
fulabunga,,05,-14.6833333,27.7666667
fulao,,05,-13.2,30.8666667
fulata,,06,-13.7333333,32.5333333
fulati,,05,-13.2333333,30.6833333
fulaza,,06,-11.4833333,32.45
fulbek mulenga,,05,-12.6833333,30.3833333
fulumana,,03,-14.9666667,24.9
fulungwe,,03,-14.4166667,23.6166667
fumba,,04,-15.4666667,26.4833333
fumba,,05,-15.1166667,27.35
fumbeni,,06,-12.2333333,33.2333333
fumbo,,04,-16.6333333,27.7833333
fumwayilolo,,01,-13.5,23.1333333
fumwaylolo,,01,-13.5,23.1333333
funda,,07,-9.3,31.95
fundamukanya,,01,-12.6333333,24.5833333
fundiche,,07,-10.3666667,32.95
fundi,,02,-12.8833333,28.6666667
fundi,,05,-14.2666667,28.1666667
fundi,,06,-13.1666667,31.9166667
fundi,,07,-10.2,33.0666667
fundipoma,,07,-9.9166667,31.25
fundi sichinga,,07,-10.2,33.0333333
fungala,,07,-9.1,31.0
fungo,,07,-9.7666667,31.3666667
fungulani,,06,-13.8,31.9666667
fututu,,03,-14.35,23.7166667
fuvisha,,05,-14.35,27.0166667
fuvya,,07,-9.5666667,33.0
fuwe,,07,-11.3,30.4333333
fwama,,07,-9.9166667,32.1166667
fwambo,,07,-8.8666667,31.5333333
fwanganya,,03,-14.4666667,22.0166667
fwate mabuku,,05,-12.8833333,30.4666667
fwila,,07,-9.5666667,32.6333333
fyesha,,05,-14.1666667,29.4833333
gabriel,,06,-14.2833333,31.3166667
gama,,06,-13.4166667,32.6833333
gamela,,04,-17.4333333,27.1333333
gamera,,04,-17.4333333,27.1333333
gamphani,,06,-13.8166667,31.95
ganduza,,04,-16.1833333,28.8
garampande,,04,-17.6833333,26.2166667
garneton,,02,-12.7333333,28.1833333
geleya,,06,-14.0833333,32.0166667
george,,03,-17.3166667,24.7833333
george,,07,-8.7666667,31.2166667
george mwembe,,07,-9.2,32.1166667
george siame,,07,-10.2,32.5333333
george siyame,,07,-10.2,32.5333333
gereta,,06,-14.0166667,32.5666667
geza,,06,-13.3,32.7
gideon,,05,-15.1166667,29.5333333
gidioni mambwe,,05,-12.75,30.45
gileya,,06,-14.0833333,32.0166667
gilingi,,09,-15.5833333,28.85
gipson chisapa,,05,-12.8,30.5333333
giya,,06,-14.1,32.6166667
glabasefu,,04,-16.05,27.2166667
godfrey kunda,,05,-12.8333333,30.7333333
goliat,,06,-14.2833333,31.3666667
goliati museya,,05,-12.8833333,30.7333333
goliati tabanya,,05,-12.7,30.3833333
gomani,,06,-13.7333333,32.4333333
gongfwe,,04,-16.0833333,27.3333333
gonto,,06,-12.3666667,32.5333333
goodwell mwape,,05,-13.0,30.5666667
gordon,,05,-14.4833333,28.4833333
goro,,06,-13.75,32.1333333
goviana,,06,-14.4,31.45
goviyana,,06,-14.4,31.45
grinini ndashi,,05,-13.0,30.4
guduza,,06,-12.6166667,32.9666667
guma,,06,-14.0333333,32.8333333
gumba,,06,-12.1166667,33.2166667
gumbi,,06,-14.15,31.7
gundu,,06,-12.0833333,33.0333333
gundungu,,03,-15.8333333,23.85
gunduza,,04,-16.1833333,28.8
guni,,06,-13.55,32.4333333
gunzwe,,04,-17.5333333,25.6166667
guze,,06,-14.15,32.0666667
gwaba,,06,-12.45,33.3
gwanda gwanda,,04,-16.5833333,27.45
gwembe,2052,04,-16.5,27.6166667
gwiningi,,06,-11.9333333,32.5833333
habbunya,,04,-16.45,27.8833333
habunya,,04,-16.45,27.8833333
hachile,,09,-15.7166667,28.0166667
hajisa,,04,-16.2333333,26.95
hakale,,04,-16.0833333,27.9333333
hamakalu,,04,-16.4833333,27.7
hangata,,04,-16.05,27.6666667
haniendo,,04,-16.2666667,27.75
hanyendo,,04,-16.2666667,27.75
harlwindi,,04,-16.3833333,26.7333333
helengeze,,01,-13.2,22.5333333
helengsi,,01,-13.2,22.5333333
helengzsi,,01,-13.2,22.5333333
heneya,,03,-15.7333333,25.0333333
henry,,07,-10.1333333,31.25
hereford,,09,-15.4666667,28.1333333
highlands,,04,-17.8333333,25.85
hilangi,,01,-13.0166667,22.8833333
hillcrest,,04,-17.8333333,25.8666667
hillwood,,01,-11.2333333,24.3
hobson jimu,,05,-12.95,30.7
hofmeyer,,06,-14.6833333,30.85
hofmeyr,,06,-14.6833333,30.85
hongolo,,01,-13.4666667,22.3833333
hoya,,06,-12.15,33.15
hoyoka,,03,-13.9666667,24.0333333
humpempe,,08,-9.7,29.6833333
ibenga,,02,-13.3666667,28.4333333
ibhani,,06,-13.4833333,32.75
ibolelo,,03,-16.3,24.25
ibolelo,,05,-13.2333333,30.2666667
ibondo,,05,-14.0333333,27.5333333
ibongu,,01,-13.8,23.2333333
iboolokwa,,03,-14.8833333,22.6166667
ibukwe,,03,-15.1,22.9666667
ibwe munyama,,04,-16.1666667,28.5333333
ichoma,,06,-13.8833333,31.9166667
ifumba,,01,-12.75,24.65
ijamba school,,04,-16.2,28.5833333
ikabako,,03,-15.1166667,23.3
ikakena,,03,-15.4666667,23.15
ikandulu,,03,-14.45,23.8166667
ikanjiwa,,03,-14.4666667,23.8
ikasaya,,03,-15.0833333,22.7166667
ikatu,,01,-11.5,24.4333333
ikatulamwa,,03,-15.0666667,22.9333333
ikelenge,,01,-11.2333333,24.2666667
ikulunga,,03,-14.4666667,23.25
ikungu,,01,-11.4666667,24.55
ikwe,,03,-16.2,24.6333333
ikwinga,,03,-17.3666667,24.1833333
ilake,,05,-13.2,30.5833333
ilake mukomena,,05,-12.8666667,30.6833333
ilake ngosa,,05,-12.9166667,30.5833333
ilawa,,06,-14.0666667,32.6166667
ililonga,,03,-15.7833333,23.1833333
iliombe,,03,-15.7666667,23.7
ilombola,,04,-15.6666667,26.8333333
ilondola,,07,-10.7,31.8166667
ilopu,,03,-14.65,23.1
iluando,,03,-17.15,24.0333333
iluendo,,03,-17.15,24.0333333
ilukala,,03,-15.05,22.5166667
ilukena,,03,-14.6333333,23.6833333
ilunga,,01,-12.0833333,25.7666667
ilungangama,,03,-16.1,22.5666667
ilungunga,,03,-15.45,23.0333333
ilutake,,03,-15.75,23.4666667
iluya,,03,-14.9666667,22.9666667
ilwendo,,03,-17.15,24.0333333
imaiayo,,03,-15.3666667,23.7166667
imakanda,,03,-15.8333333,23.8333333
imakando,,03,-15.5833333,24.1833333
imakumbili,,03,-15.2666667,23.4166667
imakumbiri,,03,-15.3,23.0833333
imalenda,,03,-15.2333333,22.7833333
imalomo,,03,-14.6166667,23.25
imalyo kuta,,03,-15.3833333,23.7166667
imambo,,03,-15.1666667,22.8833333
imamuna,,03,-15.3833333,23.7166667
imanga,,03,-15.4333333,23.0833333
imansa,,05,-14.1833333,28.4166667
imasiku,,03,-14.9,23.8333333
imasikwana,,03,-15.05,22.95
imatina,,03,-16.5833333,23.5166667
imbila,,07,-9.3333333,31.8166667
imbowa,,03,-15.5833333,22.9833333
imbubu,,03,-15.3833333,22.6333333
imbutwama,,03,-15.5666667,22.6333333
imbuwa,,03,-14.3833333,23.2333333
imbwae,,03,-15.0666667,22.9333333
imedi,,06,-13.1833333,31.9166667
imelenda,,03,-16.6833333,24.2833333
imenda,,03,-14.2,23.2
imilemo,,03,-17.2,24.1166667
imilenda,,03,-16.6833333,24.2833333
imilonga,,03,-16.0666667,22.0333333
imonga,,03,-15.7166667,23.15
imonga nifale,,03,-15.7166667,23.15
impasuka,,05,-14.9166667,29.3333333
imukusi,,03,-15.5333333,22.9666667
imusho,,03,-15.95,24.0666667
imushu,,04,-17.7833333,25.7833333
imusunga,,03,-14.45,23.8
imutonga,,03,-15.3166667,22.9166667
imutongo,,03,-15.5833333,22.9833333
imuwana,,03,-14.6333333,22.8666667
imwaka,,03,-17.1833333,24.8
imwangala,,03,-15.4166667,23.0666667
imwiko's kraal,,03,-17.4833333,24.8833333
inambao,,03,-14.9,23.0166667
indala,,03,-15.6333333,23.3666667
indilonga,,03,-15.2333333,22.9666667
indopu,,03,-15.6833333,23.15
indusi,,03,-15.3,22.7833333
ingina,,03,-14.5333333,23.75
ingongolo,,03,-15.9666667,23.05
ingumbwa,,03,-15.3833333,23.1
inguu,,03,-15.1333333,22.7333333
inguwe,,03,-15.2,22.95
ingwe,,01,-13.05,26.4
ingwe,,05,-14.7333333,26.8
inonge,,04,-17.4666667,25.9333333
inubu,,03,-17.4,24.8666667
inyamawina,,03,-15.3166667,22.9166667
ipenge,,01,-11.2,24.1833333
ipila,,05,-13.0666667,30.7333333
ipongo,,05,-14.5666667,27.2833333
ipusukilo,,07,-10.3833333,29.8666667
iputu,,01,-14.0333333,23.4333333
isaac,,07,-10.1,32.7833333
isaac mkunda,,07,-10.2666667,32.5333333
isaac mwanda,,06,-13.1166667,32.1333333
isaac njovu,,06,-13.2333333,31.8166667
isake changwe,,05,-12.75,30.5833333
isake chimbwi,,05,-12.9166667,30.4
isake,,05,-13.1833333,30.65
isake lundu,,05,-12.95,30.5666667
isake mangole,,05,-13.1166667,30.95
isake muyaya,,05,-12.8833333,30.3666667
isambe,,01,-11.5,24.9333333
ishe wambuto,,03,-15.25,22.8833333
ishinde,,01,-13.4,23.0833333
ishindi,,01,-13.4,23.0833333
ishitu,,07,-10.6666667,31.1833333
ishmaele,,06,-14.3333333,31.55
isibaki,,06,-13.9333333,32.1333333
isibebo,,03,-16.3166667,23.25
isikanda,,03,-15.2833333,22.9166667
isilimwe,,03,-16.3166667,23.1666667
isoka,13123,07,-10.1333333,32.6333333
isoko,,07,-8.8,31.2
itanda,,01,-14.0,23.6
itimbwe,,07,-8.9666667,31.4833333
itimpi,,02,-12.7333333,28.1833333
itufa,,03,-15.9333333,23.2833333
itungi,,03,-17.0166667,24.0666667
itwi,,03,-15.35,22.85
ivonge,,04,-17.4666667,25.9333333
iyamba,,03,-16.6,22.7
iyauluka,,03,-15.75,23.1666667
jackson kachimbo,,05,-12.8833333,30.6833333
jackson kalioti,,05,-12.7333333,30.4
jackson mumba,,05,-12.8333333,30.35
jackson mwando,,05,-12.9333333,30.4
jacob chalwe,,05,-12.9833333,30.5833333
jacob chiyombo,,07,-9.9666667,33.0833333
jacobe,,06,-12.3,33.1666667
jacob filingisi,,05,-12.8666667,30.6833333
jacob,,07,-9.4,32.4
jacob matindi,,07,-10.2166667,33.4
jacob mutamba,,07,-9.7166667,33.1
jacob mutambo,,07,-9.7166667,33.1
jacob mutema,,05,-12.9,30.65
jacob sopu,,07,-9.0333333,31.1
jaffwa,,09,-15.1833333,29.4666667
jafunya,,01,-12.35,25.6166667
jakalasi,,07,-8.95,31.6
jakop mvula,,07,-12.8333333,30.8333333
jakopo mumba,,05,-14.7666667,27.9666667
jalabani,,04,-16.45,26.7833333
jalijali,,06,-12.1166667,33.15
jamba,,06,-14.3,31.5666667
jamba school,,04,-16.2,28.5833333
james benwa,,01,-11.1166667,24.0333333
james cementi,,05,-12.9833333,30.7333333
james chabala,,05,-12.9166667,30.5666667
james chisenga,,05,-12.7666667,30.3333333
jameseon,,07,-10.15,33.05
james,,07,-10.1833333,31.35
james machisa,,05,-12.55,30.4833333
james malata,,05,-12.8333333,30.6
james mofia,,05,-13.1166667,30.8
james muhango,,07,-10.55,33.6
james mukobeka,,05,-12.9,30.35
james muntali,,07,-10.5333333,33.5833333
james mupela,,05,-12.9666667,30.6
james mwanga,,09,-15.15,29.8833333
jameson musonda,,05,-12.9166667,30.4333333
james shimulenga,,05,-12.85,30.6166667
jam,,06,-14.3333333,31.3333333
jamse,,05,-13.15,30.3666667
jamu kasamika,,05,-12.8,30.2666667
jamu mkumba,,06,-13.6333333,32.0666667
jamu mumba,,05,-12.8666667,30.6833333
jaoli,,06,-13.4166667,32.8833333
jaravani,,04,-16.45,26.7833333
jasi,,06,-14.2166667,31.5666667
jatukwa,,04,-16.7333333,27.4666667
jekapo,,06,-13.55,31.9166667
jeke chimukupule,,05,-13.1,30.7666667
jeke,,06,-12.9666667,32.3
jeke mabenga,,02,-12.9166667,27.6333333
jeki,,05,-13.1,30.7666667
jeliko chitamba,,05,-12.8666667,30.6666667
jembe,,06,-13.4333333,32.6833333
jemeni,,05,-12.9166667,30.75
jenga jenga,,04,-17.5333333,26.0166667
jeramjira,,06,-14.0,32.3
jere,,06,-14.2,31.3333333
jeremani,,06,-13.6333333,31.75
jeremea,,05,-13.1166667,30.65
jeremiah,,06,-12.4333333,33.4
jeremia,,07,-8.9833333,31.65
jeremia malikebo,,05,-12.9833333,30.45
jerenjira,,06,-14.0,32.3
jeriko kalonga,,05,-12.95,30.5
jesse sambwa,,05,-13.1,30.9333333
jetlo mofia,,05,-12.9833333,30.7333333
jifumbo,,01,-12.4666667,25.7666667
jikundula,,01,-13.7,26.3166667
jikunkula,,01,-13.7,26.3166667
jilombo,,01,-12.75,25.65
jilonga,,01,-11.7,24.0166667
jilowa,,01,-14.0833333,26.3333333
jilowa,,03,-14.2166667,24.95
jimbamba,,01,-11.2666667,25.0833333
jim bango,,06,-14.1,32.6666667
jimboma,,02,-12.85,27.0666667
jim chinakila,,07,-9.0333333,30.9
jim chindo,,07,-9.4,31.5166667
jim kambole,,07,-9.4,30.8333333
jim malesu,,07,-8.65,31.3666667
jim mponde,,05,-12.8833333,30.6
jim mulambya,,07,-9.7666667,33.0833333
jim ngandu,,04,-17.7333333,25.7
jim sichange,,04,-17.45,25.9666667
jimu,,06,-13.7666667,32.1833333
jimwaya,,03,-14.8166667,25.3
jim yombwe,,07,-9.5833333,30.9333333
jinaina,,05,-14.45,26.6666667
jinga,,01,-13.0833333,22.6166667
jinga jinga,,04,-17.4333333,26.1333333
jingo,,06,-13.5,32.75
jito,,03,-14.7,25.55
jitula,,01,-12.5333333,26.15
jivanga,,01,-11.7,24.0166667
jivunda,,01,-12.0833333,24.9166667
jivundu,,01,-13.1166667,24.7
joase suma,,06,-13.4166667,32.7166667
job muwowo,,07,-10.2333333,33.5333333
jobolola,,01,-12.7333333,25.5666667
joel,,06,-14.1,31.8333333
john bonzo,,06,-13.1333333,32.1166667
john chite,,07,-10.1833333,31.2666667
john chitundu,,07,-8.9333333,30.5666667
john chivuta,,07,-9.5,31.7
john,,07,-10.2333333,33.4
john kalandika,,06,-13.3166667,31.6666667
john kapembwa,,07,-9.3,31.05
john katavila,,07,-10.2333333,33.4
john ngambe,,07,-10.1333333,33.2166667
john roberts hill,,04,-17.8333333,25.85
john simukoko,,07,-9.8666667,32.9
john sinkala,,07,-9.4166667,32.4166667
john zombe,,07,-9.1166667,31.0333333
jolosi,,03,-17.2166667,24.9166667
jombe,,07,-10.45,33.2833333
jonam,,05,-13.2166667,30.8666667
jonas chidyowe,,05,-15.1,29.6
jonase chikoma,,06,-13.0833333,32.2
jonas,,05,-13.7666667,29.7333333
jonas,,06,-12.0333333,33.15
jonas phiri,,06,-12.5166667,33.0333333
jonathan,,06,-12.4666667,33.45
jones,,06,-13.4,32.85
jones kaila,,07,-10.2833333,33.5333333
joni bushimbwa,,05,-13.15,31.0
joni bwale,,05,-12.8666667,30.2833333
joni chapa,,05,-13.1,30.9
joni chita,,05,-13.0666667,30.8166667
joni kafwenya,,05,-13.2166667,30.9166667
joni katandika,,06,-13.3166667,31.6666667
joni lubona,,05,-14.1666667,28.0666667
joni mabombo,,05,-12.7833333,30.3333333
joni mulandu,,05,-12.75,30.4666667
joni telesha,,05,-12.5666667,30.4
jonya,,04,-16.2,28.1
jose musaka,,05,-12.7666667,30.3166667
jose mwape,,05,-12.9666667,30.4333333
joseni,,06,-12.3166667,33.2666667
joseph chiluya,,05,-12.9166667,30.6666667
joseph chitupila,,05,-13.0833333,30.85
josephi,,05,-12.85,30.7333333
joseph,,05,-15.0166667,29.8833333
joseph,,06,-14.4833333,31.7
joseph,,07,-10.0666667,32.75
joseph kalikenka,,05,-13.1,30.8666667
joseph kalonga,,05,-13.05,30.8166667
joseph katulusa,,05,-13.1333333,30.6833333
joseph malukutu,,05,-13.0833333,30.9833333
joseph simumba,,07,-9.45,32.6666667
josias,,06,-14.0833333,31.8833333
jowell,,06,-14.1,31.8333333
jowelo,,06,-14.3,32.1166667
joweshi,,05,-14.7333333,29.1333333
joziele mkonka,,06,-14.3,31.4666667
jube,,04,-15.5833333,26.9833333
juga,,06,-14.2333333,31.9166667
julai mwape,,05,-12.9833333,30.3666667
julias malekani,,07,-11.0833333,31.4333333
juliesi,,06,-13.9,31.7333333
juma,,01,-12.5,26.6333333
juma,,06,-13.2666667,32.8666667
juma kawisha,,05,-12.9,30.75
juma mwanza,,06,-13.2166667,31.8166667
jumba,,06,-14.3333333,31.5333333
jumbe,,06,-13.2833333,32.0833333
jumbo,,04,-16.7666667,27.6833333
jumeni,,05,-12.9166667,30.75
jumen mala,,05,-13.05,30.9666667
jumpo,,06,-13.2666667,32.9166667
jumu mumba,,05,-12.8666667,30.6833333
jungujani,,06,-13.9,32.5666667
jungu,,06,-10.8666667,33.2166667
juni sichipeta,,07,-9.3666667,31.1333333
justini,,06,-13.5,32.7333333
justin,,06,-13.4666667,32.6333333
jutila,,01,-12.5333333,26.15
juweka,,06,-12.3333333,33.2
juziele,,06,-14.45,31.3666667
kaaiawika,,05,-12.4666667,29.9
kaambwe,,07,-9.45,32.8666667
kababa,,03,-13.9666667,23.1
kaba hill,,03,-14.8333333,23.6833333
kabaila,,03,-14.95,24.0833333
kabakaba,,07,-10.8833333,30.8
kabalakata,,05,-14.1,28.0833333
kabala shinkwa,,08,-10.9833333,28.8833333
kabale,,03,-17.1166667,24.7166667
kabali,,03,-17.1833333,24.6
kabalube,,03,-16.1,22.8333333
kabamba,,05,-13.1833333,30.3666667
kabambe,,01,-13.25,23.2666667
kabambi,,01,-13.25,23.2666667
kabanda,,03,-15.3333333,24.6833333
kabanda,,06,-11.2,33.15
kabanda,,07,-10.15,32.1166667
kabandula,,05,-14.5,28.8166667
kabanga,,01,-12.45,25.4666667
kabanga,,03,-15.5166667,23.1666667
kabanga,,04,-17.5333333,26.7833333
kabanga,,06,-14.3333333,31.1833333
kabanga,,08,-11.3166667,29.5333333
kabange,,02,-13.0166667,27.3833333
kabango chibuyame,,05,-12.8833333,30.3666667
kabango chibuyam,,05,-12.8833333,30.3666667
kabango,,03,-16.4333333,22.7666667
kabangoza,,05,-14.8,27.3
kabangu,,03,-13.95,24.15
kabangu kuta,,03,-13.95,24.15
kabangula,,02,-12.8833333,28.6833333
kabanje,,03,-14.9166667,24.2666667
kabanje,,04,-15.7833333,27.65
kabanji,,04,-15.7833333,27.65
kabanze,,04,-16.3166667,26.75
kabanzi,,04,-16.3166667,26.75
kabasa,,05,-13.95,27.8
kabata,,03,-16.3333333,25.0
kabeke,,08,-9.25,28.4833333
kabela,,01,-13.65,22.5166667
kabela,,03,-14.9666667,22.6
kabelamwanji,,03,-15.9666667,22.1666667
kabemba,,01,-13.45,23.6666667
kabemba,,06,-14.3166667,31.3
kabende,,02,-12.9166667,28.7
kabendemushi,,08,-11.45,29.6666667
kaben jemushi,,08,-11.45,29.6666667
kabesha,,01,-13.8833333,26.25
kabesha,,05,-14.3833333,28.0666667
kabeshu,,05,-13.7333333,28.7166667
kabeshya,,05,-14.3833333,28.0666667
kabeta,,01,-13.65,22.5166667
kabeu,,03,-14.1166667,22.8666667
kabeza,,06,-14.5833333,31.0666667
kabibi,,06,-13.3666667,32.9
kabila,,03,-14.3166667,23.25
kabila,,07,-10.55,30.6666667
kabila,,08,-10.6166667,28.6833333
kabilamandi,,03,-14.7,24.0
kabilamwandi,,03,-14.7,24.0
kabile,,05,-15.15,27.65
kabiliwili,,06,-14.0833333,31.8333333
kabiliwiri,,06,-14.0833333,31.8333333
kabilo,,07,-10.55,30.6666667
kabimba chilala,,04,-16.2833333,27.9
kabimba,,03,-14.2666667,24.8666667
kabimba,,04,-16.2833333,27.9
kabinga,,07,-11.1833333,30.7833333
kabipo,,06,-12.7666667,32.85
kabiula,,03,-14.8666667,24.7166667
kabiwira,,07,-10.1,31.4833333
kablieni nkole,,05,-12.9333333,30.45
kabobwa,,08,-8.9166667,29.05
kaboma,,03,-15.15,22.75
kabombo,,04,-16.0166667,26.1
kabombo,,07,-10.7,29.7666667
kabompo,6592,01,-13.6,24.2
kabona,,05,-13.95,28.0833333
kabondo,,03,-16.55,24.95
kabonga,,06,-14.3333333,32.15
kabonga,,08,-11.75,29.4666667
kabongoza,,05,-14.8,27.3
kaboro,,06,-14.2333333,32.0833333
kabosha,,05,-14.6166667,27.6666667
kabosha,,07,-10.7833333,30.8
kaboshya,,05,-14.6166667,27.6666667
kabota,,03,-14.7166667,24.0
kabubi,,03,-15.55,23.2833333
kabubwa,,07,-10.3666667,31.3833333
kabubwe,,04,-16.4833333,26.9333333
kabudula,,06,-14.4666667,30.8666667
kabuko,,07,-11.55,31.2833333
kabukulu,,01,-13.1833333,23.6166667
kabukushu,,03,-15.4,22.8833333
kabula chisonpola,,05,-12.75,30.4666667
kabula chisopola,,05,-12.75,30.4666667
kabula,,06,-14.0666667,32.6
kabulamakumba,,03,-15.4333333,22.8833333
kabulamena,,01,-13.85,24.0166667
kabulamwanda,,04,-15.8666667,26.8833333
kabulonga,,05,-15.4166667,28.35
kabulushe,,05,-14.9666667,27.6666667
kabulwebulwa,,03,-14.3166667,23.25
kabulwebulwe,,03,-14.25,23.25
kabulwe,,07,-8.7,30.65
kabumbwe,,04,-16.4833333,26.9333333
kabunda-bwina,,02,-13.25,28.35
kabunda,,05,-14.1666667,28.35
kabunda,,08,-11.2166667,28.8166667
kabundama,,06,-13.8333333,32.2333333
kabunda shichubo,,02,-13.2166667,28.6
kabundemushi,,08,-11.45,29.6666667
kabundi,,07,-8.5,30.05
kabundula,,03,-15.3833333,24.7166667
kabungo,,03,-14.7166667,23.9833333
kabungo,,07,-11.65,32.15
kabungwu,,07,-11.65,32.15
kabuswe,,05,-12.8,30.75
kabutu,,03,-15.2833333,22.6333333
kabuula,,06,-14.1666667,31.8333333
kabwata,,09,-15.4166667,28.7166667
kabwato,,09,-15.9333333,28.9666667
kabwatu,,09,-15.9333333,28.9666667
kabwaya,,01,-12.2,24.25
kabwebwe,,03,-14.1833333,24.8833333
kabwe,,04,-16.3166667,26.6833333
kabwe,189006,05,-14.4333333,28.45
kabwe,,07,-10.65,31.1666667
kabwe,,08,-8.7,29.15
kabwesha,,08,-10.8166667,28.8333333
kabweshya,,08,-10.8166667,28.8333333
kabwibwi,,07,-10.5666667,30.9833333
kabwima,,01,-12.0666667,26.95
kabyanda,,06,-11.05,32.45
kachaba,,03,-15.1666667,22.4166667
kachai,,03,-14.85,23.75
kacha,,05,-14.7166667,27.9
kachaka,,01,-13.4833333,23.1
kachaka,,03,-14.0833333,23.2
kachakana,,03,-14.0,22.25
kachalola,,06,-14.75,30.6166667
kachamisa,,03,-14.95,22.0166667
kachana,,03,-14.5833333,24.2833333
kachanana,,03,-14.8333333,22.6
kachanga,,06,-14.3,31.3166667
kachapa,,06,-14.2333333,31.4
kachapulula,,03,-15.0,22.6
kachasa,,07,-10.4166667,31.1833333
kachega,,02,-13.2833333,28.3666667
kachelela,,06,-14.1666667,31.25
kachembele,,03,-15.3,24.1333333
kachenga,,06,-13.65,31.95
kacherere,,06,-14.1666667,31.25
kachewere,,06,-13.5833333,32.4833333
kachewula,,06,-14.2333333,31.35
kachigamba,,06,-14.05,32.65
kachika,,03,-14.2166667,23.0333333
kachikuwa,,06,-13.4833333,32.8
kachile shanyinde,,05,-14.9333333,27.8166667
kachilika,,07,-10.0833333,32.5166667
kachilikila,,06,-10.4166667,33.0333333
kachili-shanyinde,,05,-14.9333333,27.8166667
kachimba,,01,-12.6,25.55
kachimba,,05,-15.05,26.5166667
kachimbi,,05,-15.05,26.5166667
kachimo,,07,-8.9666667,29.9333333
kachindeka,,06,-12.2333333,33.2333333
kachindira,,06,-12.2333333,33.2833333
kachingama,,06,-14.3,31.4
kachingwa,,06,-13.8333333,31.9333333
kachingwe,,06,-13.5666667,32.5
kachinka,,05,-15.3333333,28.1
kachinkoto,,06,-12.45,33.2833333
kachipapa,,06,-12.1166667,33.2333333
kachirikira,,06,-10.4333333,33.0666667
kachisa,,06,-14.0166667,30.4166667
kachitowi,,06,-14.05,32.1833333
kachoka,,01,-13.65,23.1333333
kachoncho,,03,-14.5666667,24.95
kachosi,,06,-14.3333333,31.25
kachubwa,,06,-14.0166667,32.2166667
kachule,,06,-13.1666667,32.6666667
kachulu,,06,-13.7333333,32.1166667
kachungu,,01,-13.0833333,23.7833333
kachusi,,06,-14.2333333,31.4333333
kacungu,,03,-14.7166667,23.9833333
kada,,06,-14.2333333,32.1666667
kadaleka,,06,-14.0,32.1166667
kadange,,05,-12.5666667,33.3
kadende,,06,-13.4166667,32.4
kadiabanyama,,09,-15.5166667,28.8166667
kadiawika,,05,-12.4666667,29.9
kadjimanga,,01,-11.7,25.35
kadowe,,06,-13.1833333,32.9
kaduka,,06,-14.2166667,31.3666667
kaduku,,06,-14.2166667,31.3666667
kadulu,,06,-13.2833333,32.9
kaembi,,03,-15.75,22.55
kafakoye,,06,-14.0333333,31.9833333
kafaya,,03,-16.9833333,24.7
kafere,,06,-14.05,32.5333333
kafimakina,,06,-14.4666667,31.5
kafimba,,07,-10.4166667,31.2
kafimbwa,,08,-10.7166667,29.0333333
kafinda,,05,-12.6333333,30.4666667
kafokoye,,06,-14.0333333,31.9833333
kafolola,,03,-13.9833333,23.7833333
kafololo,,03,-13.95,23.9
kafota,,06,-13.5,32.65
kafoteka,,06,-13.5,32.65
kafowe,,06,-14.0333333,31.9833333
kafuandbu,,06,-11.5333333,32.8166667
kafuchi,,04,-15.7333333,27.35
kafue,47558,09,-15.7666667,28.1833333
kafukafuka,,03,-14.3333333,22.05
kafukanya,,02,-13.2333333,28.45
kafuko,,03,-16.0,22.25
kafukufuku,,03,-14.05,23.6166667
kafuku,,03,-15.3166667,22.6666667
kafulafuta,,02,-13.2666667,28.35
kafula,,03,-15.0833333,24.0666667
kafulwe,,08,-8.9833333,29.0333333
kafumakachi,,01,-12.3833333,25.2166667
kafumayeke,,03,-14.9833333,23.2166667
kafumbo,,03,-16.25,24.9
kafunda,,07,-9.25,32.0333333
kafunga,,07,-10.5666667,32.0
kafunta,,06,-14.3833333,31.3166667
kafupa,,03,-15.3,22.6833333
kafusa,,06,-14.4166667,31.4
kafutikake,,01,-12.6166667,26.1166667
kafwakanda,,07,-10.65,31.6833333
kafwanka,,07,-10.65,31.6833333
kafwembera,,06,-13.2166667,32.0166667
kafwenku,,06,-13.4333333,32.4166667
kafwila,,05,-14.85,27.9666667
kafwila,,06,-12.8333333,32.1666667
kafwilo,,05,-14.9,27.8333333
kafwimbe,,08,-10.5833333,28.9833333
kafwimbi,,07,-10.15,32.5666667
kafwimbi,,08,-10.5833333,28.9833333
kafyanda,,06,-11.05,32.45
kagona,,06,-14.0833333,31.8333333
kagoro,,06,-14.2333333,32.0833333
kagwamina,,04,-17.2333333,27.3833333
kahale,,05,-14.7833333,27.3333333
kahare,,03,-15.0666667,25.2666667
kahari,,03,-15.0666667,25.2666667
kahema,,03,-14.0666667,22.8166667
kahemba,,03,-14.95,25.2
kahende,,02,-13.0166667,27.9166667
