names,population,state_code,lat,lon
1.0 de maio,,01,-12.6544444,13.4786111
28 de maio,,15,-6.3,15.0833333
28 de maio,,19,-7.95,14.2
31 de janeiro,,15,-6.9,15.3166667
5 de outubro,,05,-9.5166667,17.8166667
abel,,12,-9.4166667,15.4833333
abel carapuchoso,,06,-11.1166667,15.1333333
abilio,,08,-12.9333333,15.95
a. braz,,08,-12.1333333,15.7
abreu,,05,-9.1833333,14.55
abreu,,08,-12.6666667,15.7666667
a. carvalho,,08,-12.8833333,15.4833333
aco,,06,-10.1833333,15.7166667
acucareira,,19,-8.5936111,13.6055556
acumba,,01,-12.2769444,13.8172222
acumba,,06,-11.75,14.5
adelina,,05,-9.25,14.7666667
a. diniz,,12,-9.0333333,15.7333333
a. ferreira,,08,-12.9666667,15.1
afonso calei,,08,-12.2333333,15.3333333
agabia,,05,-8.8166667,15.5
age,,06,-11.0166667,14.9333333
agema,,14,-12.05,21.8166667
a. g. garrido,,08,-12.7166667,15.15
a. goncalves,,06,-11.0666667,14.9166667
a. goncalves magalhaes,,06,-11.0166667,14.8166667
agua clara,,01,-12.9333333,14.8333333
aguema,,14,-12.05,21.8166667
aguerguei,,01,-12.3455556,13.8352778
ahica,,04,-17.1,18.2
aienja,,08,-13.0305556,15.28
ailunga,,04,-17.1,21.4166667
aimbir,,04,-17.55,18.5333333
aiombo,,06,-11.75,14.7
a. j. afonso,,08,-12.7333333,15.0333333
a. lage,,08,-12.9833333,15.2333333
alanda,,02,-11.7333333,17.0
alanganga,,12,-9.5513889,16.1005556
albano vieira,,08,-12.1833333,15.2166667
alberto a. cancela,,06,-11.0833333,15.4166667
alberto,,06,-11.8333333,15.3666667
alberto,,15,-6.8333333,14.6
albuquerque,,08,-12.05,15.2166667
alcides silva,,08,-12.1666667,15.7666667
aldeia,,15,-7.95,15.05
aldeia da matala,,09,-14.7333333,15.0333333
aldeia de freixo,,06,-11.3833333,15.15
aldeia de melo,,06,-11.2666667,15.0166667
aldeia de santa maria,,12,-8.95,16.0166667
aldeia de sao jose,,09,-13.7,15.15
aldeia do biopio,,01,-12.4675,13.7291667
aldeia formosa,,12,-9.4833333,15.9833333
aldeia nova,,05,-8.6166667,15.1166667
aldeia sao jose,,09,-13.7,15.15
aldeia vicosa,,15,-8.1,14.9666667
alegria,,12,-9.85,17.3
aleixo,,12,-9.3833333,15.6
alemao,,08,-12.6333333,15.4833333
alemba,,02,-10.7833333,16.5166667
alem rio,,12,-9.35,16.2
aleta,,19,-10.1833333,14.4666667
aleva,,08,-12.9697222,15.6644444
alfandega,,15,-7.5333333,15.8333333
almeida,,05,-9.1,14.6166667
almeida,,06,-11.0166667,15.0833333
a. lopes,,08,-12.9333333,15.1
alto catumbela,,01,-12.95,14.75
alto cauale,,15,-7.6833333,16.0166667
alto chicapa,,18,-10.9333333,19.15
alto chikapa,,18,-10.9333333,19.15
alto cuanza,,02,-13.2333333,17.4166667
alto cuilo,,14,-13.4333333,18.8666667
alto cuilo,,18,-10.05,19.5166667
alto cuito,,14,-13.4333333,18.8666667
alto da xitatamera,,08,-12.3666667,15.6333333
alto hama,,08,-12.2333333,15.55
alto kwilu,,18,-10.05,19.5166667
alto kwito,,14,-13.4333333,18.8666667
alto lifune,,19,-8.1333333,14.3
alto longa,,04,-14.6,18.4833333
alto shikapa,,18,-10.9333333,19.15
alto-uama,,08,-12.2333333,15.55
alto zaza,,15,-6.6166667,16.9333333
alvarenga,,10,-9.05,13.1
amaanga,,18,-10.3,21.6
a. machado,,08,-12.85,15.3
amaral,,12,-9.2666667,15.95
a. marques,,06,-11.9,14.8166667
amatui,,04,-16.7,21.3166667
amba,,08,-13.2666667,15.05
ambaca,,05,-8.1833333,15.3666667
ambaeta,,14,-11.9166667,22.1
ambaiela,,14,-11.9166667,22.1
ambande,,06,-11.3666667,14.2666667
ambandi,,06,-11.3666667,14.2666667
ambato,,06,-9.9166667,14.7833333
ambiula,,15,-7.4333333,14.65
ambo do catucuna,,06,-11.5,14.25
amboica,,06,-11.5333333,14.7333333
amboim,,06,-10.7333333,13.75
amboiva,,06,-11.5333333,14.7333333
ambondi do lengue,,06,-11.3666667,14.2666667
ambova,,06,-11.5333333,14.7333333
ambovia,,06,-11.55,14.7333333
ambris,,19,-7.85,13.1166667
ambrisette,,16,-7.2333333,12.8666667
ambriz,,19,-7.85,13.1166667
ambrizete,,16,-7.2333333,12.8666667
ambrizette,,16,-7.2333333,12.8666667
ambrosio,,15,-7.3166667,14.95
ambuila,,15,-7.4333333,14.65
ambumba,,08,-12.545,15.7163889
amecanda,,07,-17.1333333,17.3
amegeca,,17,-8.95,19.65
amelia,,08,-12.2166667,15.1
amelia beach,,13,-15.2,12.1
ameliko,,04,-17.7333333,18.8333333
amena,,01,-12.3666667,14.5
amendoa,,01,-12.8522222,13.0133333
a. mendonca,,09,-15.1833333,13.4666667
amengingo,,14,-11.6,19.6
amentenha,,04,-17.6666667,19.1666667
amera,,01,-12.3666667,14.5
ametinhe,,07,-17.3333333,17.15
ametinho,,07,-17.3333333,17.15
a. morais,,12,-9.5194444,16.2666667
ampara,,01,-12.7872222,13.59
a. m. ribeiro,,08,-12.8166667,15.25
amucotocapa,,07,-17.4,16.1166667
amue,,07,-16.65,13.95
amutenha,,04,-17.85,19.4
ana,,08,-11.9833333,15.6
ana bota da silva,,06,-11.1166667,15.4166667
anambua,,05,-9.0666667,14.5833333
anapasso,,19,-8.3166667,13.8333333
ancaneale,,15,-7.85,16.1833333
anchico,,04,-17.8,18.9833333
anda,,06,-11.3833333,14.2
andala,,12,-8.8666667,15.7666667
andala,,15,-7.8,15.3666667
andanga,,08,-11.8333333,15.5166667
andanja,,08,-11.8333333,15.5166667
andengue,,15,-8.1666667,15.85
ando,,15,-7.5666667,15.3
andongo,,08,-12.0333333,15.2
andrada,,17,-7.7,21.3666667
andrade,,12,-9.5366667,16.1191667
andrade,,17,-7.7,21.3666667
andulo,,02,-11.4833333,15.8333333
andulo,,06,-10.75,14.5333333
andunda,,08,-12.05,15.25
andure,,19,-9.2,14.0333333
anduri,,19,-9.2,14.0333333
anga,,15,-8.15,15.8333333
angando,,15,-6.5333333,16.5333333
anganga,,01,-12.2719444,13.8658333
angola,,09,-14.1333333,14.5
anguemba,,15,-7.8166667,15.5666667
anguia,,12,-9.3666667,15.7833333
angumbe,,15,-8.2166667,15.9
angungescapolo,,06,-11.2,13.8333333
anha,,01,-12.245,13.7136111
anha,,06,-11.5166667,14.8166667
anhanca,,07,-16.8,15.8833333
anhanea,,07,-16.8,15.8833333
anhanga,,01,-12.0666667,14.5166667
anhanka,,07,-16.8,15.8833333
anhara,,09,-13.5833333,16.0833333
anhongo,,07,-16.5333333,16.1833333
anibal,,12,-9.7025,16.4075
anjambo,,06,-11.1,14.6666667
anjavelo,,09,-16.1166667,14.1
antigo duque braganca,,12,-8.95,16.0166667
antigo posto do chissa,,12,-9.4666667,16.9166667
antigo posto do luia,,17,-8.5333333,21.7833333
antigo posto do mucari,,12,-9.4666667,16.9166667
antigo posto lumboma,,17,-7.8833333,21.4
antigo posto quissenzel,,15,-7.8166667,14.7
antigo povo ambuila,,15,-7.85,14.9833333
antonio almeida,,08,-12.0666667,15.8666667
antonio,,01,-12.15,14.2166667
antonio bastos e silva,,08,-12.1166667,15.4333333
antonio braz,,08,-12.1333333,15.7
antonio ferreira,,08,-12.0166667,15.6833333
antonio lontrao,,08,-12.0166667,15.7833333
antonio matos,,08,-11.5166667,15.5333333
antonio n. silva,,01,-12.8166667,14.6666667
antonio silva,,06,-11.1,15.4166667
anza,,06,-10.4,14.75
anza,,19,-9.3833333,13.55
a. passos,,12,-9.1166667,15.75
a. pereira,,12,-9.0666667,15.7333333
apupo,,01,-12.6333333,14.0666667
aquepa,,06,-11.4666667,14.4666667
arcos,,19,-9.05,13.65
arihua,,13,-14.55,13.2
aringoma,,04,-16.4666667,18.2
ariomba,,04,-14.8166667,16.8833333
aripucula,,14,-11.6666667,21.75
armando,,01,-12.1833333,14.8
armando coelho,,08,-12.5,15.6833333
armando osorio,,08,-12.25,15.9333333
arnaldo barbedo,,08,-12.25,15.1333333
arnaldo barbela,,08,-12.25,15.1333333
arreeiro,,06,-11.1,14.9333333
artur de paiva,,09,-14.4666667,16.3
a. santos,,08,-12.9166667,15.1
a. silva,,06,-11.1,15.4166667
a. soares,,08,-11.7666667,15.9666667
assango,,06,-10.9833333,14.4166667
assango da quimanga,,06,-11.15,14.5333333
assango secundiro,,06,-11.2833333,14.4666667
assango segundo,,06,-11.2833333,14.4666667
asseiceira,,01,-12.4313889,13.5472222
asseque,,01,-12.5963889,13.4597222
assinha,,08,-11.5666667,16.25
assipi,,08,-12.1,15.3166667
assongo,,08,-12.05,15.75
assoxa,,19,-9.95,14.2833333
assuncao,,13,-14.8666667,13.1
assuvi,,08,-12.7,15.75
ataco,,12,-9.0666667,15.8
atende,,02,-11.6333333,16.45
atome,,06,-11.75,14.5
atuco,,08,-13.1672222,15.605
auchico,,04,-17.9,20.0333333
auchinde,,17,-9.2666667,18.2333333
aufah,,14,-12.65,22.6
aufale,,14,-12.65,22.6
augusto,,08,-11.8333333,15.4333333
auio,,06,-11.0166667,14.3
aula,,01,-12.45,14.1833333
aula,,14,-12.2333333,19.5
aulico,,04,-17.8,18.9833333
auroca,,08,-11.9666667,15.9666667
aurora,,08,-11.9666667,15.9666667
autifare,,05,-8.5666667,14.9
ave maria,,16,-6.7166667,14.1
aviacao,,08,-12.7858333,15.7208333
azevedo,,12,-9.3833333,15.6166667
baba,,05,-9.2833333,14.8333333
baba,,13,-14.8333333,12.25
babaera,,01,-12.9,14.8
babaera,,08,-11.8666667,15.95
babi,,15,-7.5666667,15.1
baca,,03,-5.5333333,12.3666667
baca,,15,-6.7166667,14.6
baca,,16,-6.0333333,12.8
baca cosse,,03,-5.2333333,12.5166667
bacala,,12,-7.6,16.4333333
baca ncoce,,03,-5.2333333,12.5166667
bacca n'cace,,03,-5.2333333,12.5166667
bacula,,12,-7.6,16.4333333
bacuma,,02,-12.6,18.4
bafua,,09,-16.2166667,13.5333333
bagica,,12,-8.2666667,15.8833333
bahia farta,,01,-12.5997222,13.2047222
baho,,08,-12.0666667,15.6666667
baia azul,,01,-12.6283333,13.2372222
baia,,10,-8.9666667,13.65
baia das moscas,,13,-14.8333333,12.25
baia dos tigres,,13,-16.6,11.7333333
baia farta,,01,-12.5997222,13.2047222
bailundo,,08,-12.2,15.8666667
bailundo,,12,-9.5711111,16.0008333
bailundo,,14,-12.4,22.5666667
bailundo fort,,08,-12.2,15.8666667
bairo trinta,,10,-8.7938889,13.475
bairro da vidrul,,10,-8.7583333,13.4013889
baishu longa,,04,-15.6833333,18.6666667
baixo cahala,,12,-9.2,15.85
baixo longa,,04,-15.6833333,18.6666667
baizo longa,,04,-15.6833333,18.6666667
balabaia,,01,-12.0019444,13.9933333
bala,,08,-12.1,15.2
bala,,15,-7.2833333,14.9166667
bala cangamba,,14,-13.7333333,19.8666667
bala cassungo,,19,-8.3,14.5666667
balaca torre,,08,-12.8686111,15.4408333
balacende,,19,-8.2666667,13.9666667
balagando,,05,-9.3166667,14.7166667
bala golungo,,06,-11.4333333,14.75
balanganga,,07,-16.95,15.55
balavande,,08,-13.1619444,15.3666667
bale,,07,-15.1666667,16.65
bale,,09,-15.1166667,16.5333333
baloguinga,,05,-8.7,14.8
balombo,,01,-12.35,14.7666667
balombo,,08,-12.5,15.1166667
baluca,,05,-8.4833333,15.5833333
baluco,,08,-12.7,15.1833333
baluganga,,07,-16.95,15.55
balunganga,,07,-16.95,15.55
balungango,,07,-16.95,15.55
bamaueca,,18,-10.6333333,20.55
bamba,,03,-4.65,12.9166667
bamba,,15,-6.6833333,15.1333333
bamba,,16,-6.0333333,14.6833333
bambaconde,,15,-7.5666667,15.0666667
bambacondo,,15,-7.2333333,15.35
bamba condo e bengo,,15,-7.5666667,15.0666667
bamba do bissonde,,01,-12.4519444,13.6477778
bambaemo,,07,-17.15,13.9833333
bamba-gunga,,09,-14.7,15.3666667
bamba kidongui,,03,-4.65,12.9166667
bambala,,06,-10.85,13.9166667
bamba matamba,,15,-7.9,15.2833333
bambamgandu,,04,-17.1666667,22.0833333
bambangando,,04,-17.1666667,22.0833333
bamba quipongui,,03,-4.6666667,13.0333333
bambe,,04,-16.2333333,19.75
bambe,,19,-9.25,13.4333333
bambere,,09,-14.65,14.7833333
bambi,,01,-12.4833333,15.0166667
bambi,,04,-16.8,19.1666667
bambi,,07,-15.5,16.1
bambi,,09,-14.05,15.5666667
bambi,,12,-9.5111111,16.4463889
bambi,,14,-14.1166667,21.5833333
bambo,,14,-15.0333333,21.4333333
bambuca,,15,-7.85,15.8
bambundo,,08,-12.5161111,15.5422222
banatiere,,14,-15.1833333,21.55
banda,,06,-11.7166667,14.4166667
banda,,08,-12.0833333,15.8
bande,,12,-8.9833333,15.7666667
bandeira,,09,-14.0166667,15.1833333
bandoa,,14,-14.8166667,20.6666667
bando,,04,-15.0,20.5
bando,,12,-8.3333333,15.9833333
bando,,16,-7.1833333,13.5666667
bandoca,,01,-12.75,14.45
bandua,,01,-12.45,14.8
bandua,,06,-11.85,14.9333333
bandua,,14,-15.0333333,21.4333333
bandula,,12,-8.75,15.85
banga,,05,-8.6833333,15.1833333
banga,,06,-10.2833333,14.95
banga,,08,-12.0166667,15.9333333
bangala,,09,-15.2166667,13.4666667
bangalo,,15,-8.2333333,15.8833333
banganga,,08,-12.4166667,15.45
bange angola,,12,-8.4333333,16.6666667
bange,,05,-8.7666667,15.5333333
bange-ia-vuluza,,12,-8.1666667,16.7333333
bange vunge,,12,-8.1666667,16.7333333
bango-ango,,06,-9.9333333,15.3333333
bango azongo,,05,-9.05,14.5333333
bango,,05,-8.6833333,15.1833333
bango,,06,-10.2833333,14.95
bango,,07,-16.3833333,13.6166667
bango,,08,-12.0166667,15.9333333
bango,,12,-8.1166667,17.2
bango,,15,-6.0166667,14.9833333
bango,,16,-5.9,14.1166667
bango,,17,-7.05,19.8666667
bango,,18,-10.4,21.4666667
bango-ia-zenza,,12,-8.5666667,15.9166667
bango-zenza,,12,-8.5666667,15.9166667
banguanga,,06,-9.9333333,15.3333333
bangui,,15,-7.2,15.7166667
banguiteca,,15,-6.5666667,15.9333333
bangulo,,05,-8.1166667,15.5833333
banja,,01,-12.0666667,14.1666667
banja,,06,-11.45,15.7
banje-angola,,12,-8.4333333,16.6666667
banje,,06,-11.7666667,14.7666667
banje,,08,-12.1,15.2333333
banza,,05,-8.75,15.2333333
banza,,06,-10.2833333,14.95
banza,,12,-9.3333333,15.2333333
banza,,15,-6.0166667,15.1666667
banza,,16,-6.2666667,14.2833333
banza,,19,-9.2833333,14.0666667
banza beu,,15,-6.2166667,15.45
banza bongo,,15,-6.0333333,15.1833333
banza bongue,,15,-6.35,15.45
banza buzo,,15,-6.1166667,15.15
banza cabouco,,15,-6.9833333,15.3166667
banza cai,,16,-6.05,14.6666667
banza candumbo quiunza,,06,-10.2333333,15.2
banza cassa,,15,-6.55,15.05
banza cateco,,12,-8.3333333,15.8166667
banza coma,,16,-6.5166667,14.7333333
banza comba,,15,-6.4666667,14.9833333
banza condo,,15,-6.2,15.0666667
banza congo,,15,-7.3333333,15.3666667
banza cuilo,,15,-6.45,15.8833333
banza cuimba,,16,-6.1333333,14.6333333
banza culo,,15,-7.7,15.2166667
banza cungo,,06,-11.4833333,15.2166667
banza cusso,,15,-6.5166667,14.9166667
banza damba,,15,-6.8833333,15.0166667
banza de caculo caenda,,05,-8.7166667,14.6833333
banza de capele,,05,-8.75,15.2333333
banza de dundo,,06,-9.8,14.6833333
banza de mangumbo,,05,-8.6666667,14.8833333
banza de quilombo,,05,-8.9333333,14.7333333
banza de quimbamba,,05,-8.7,14.9666667
banza de quindongo,,06,-9.8666667,14.5333333
banza de songue,,06,-9.9,14.6333333
banza domba,,15,-6.8833333,15.0166667
banza e lunda,,17,-9.45,18.2333333
banza filistrada,,15,-6.3333333,15.0666667
banza gombe,,15,-6.1166667,15.1166667
banza gome,,15,-6.1166667,15.1166667
banza hunga,,06,-9.8333333,15.7
banza lala,,15,-6.5666667,15.0666667
banza landa,,15,-6.4833333,15.0333333
banza lande,,15,-6.0666667,15.35
banza lende,,15,-7.2166667,14.7
banza loanda,,15,-7.65,15.2
banza longa,,15,-6.3833333,15.4666667
banza luai,,15,-6.3,15.45
banza luanda,,15,-7.3833333,15.3166667
banza lucunga,,15,-7.6333333,15.2666667
banza lumbelo,,15,-6.3166667,15.0666667
banza lunda,,15,-7.25,15.0833333
banza lungui,,12,-9.3333333,15.2333333
banza lussenga,,15,-7.25,15.0833333
banza lussenguel maquela,,15,-6.15,15.2333333
banza malungo,,15,-6.4833333,15.0166667
banza minga,,15,-6.1833333,14.9166667
banza minoa,,15,-6.1833333,14.9166667
banza muanga,,15,-6.15,15.25
banza mucongo,,06,-10.0833333,14.8833333
banza mussusso,,05,-8.8666667,15.1
banza palabala,,15,-6.1666667,15.05
banza pango,,16,-6.0833333,14.1833333
banza panza,,16,-6.1,14.3166667
banza peche,,15,-6.5,14.9166667
banza peixe,,15,-6.5,14.9166667
banza pete,,15,-6.3666667,15.05
banza pombo,,15,-6.2833333,15.4833333
banza puto antiga,,16,-6.25,14.3
banza puto,,16,-6.2666667,14.2833333
banza quica,,15,-7.15,15.6833333
banza quicocuto,,06,-11.2,15.1666667
banza quicunga,,15,-6.3333333,15.4333333
banza quidia,,15,-6.0333333,15.35
banza quiende,,16,-6.4166667,14.05
banza quiendi,,16,-6.4166667,14.05
banza quifo,,15,-6.4333333,15.8666667
banza quilombo,,05,-8.9333333,14.7333333
banza quiluango,,15,-6.0333333,15.25
banza quimocondo,,15,-6.05,15.25
banza quina,,15,-7.4833333,14.4333333
banza quinzau,,15,-6.2166667,15.0833333
banza quioa,,16,-6.3,14.8833333
banza quiondo,,15,-7.65,15.0666667
banza quiongo,,15,-7.65,15.0666667
banza quiossa,,15,-6.0333333,15.2833333
banza quipemba,,15,-6.4833333,15.0166667
banza quipete,,05,-8.7166667,15.2833333
banza quissuca,,15,-6.5333333,15.05
banza quitambi,,15,-6.4,15.0333333
banza quitel,,19,-8.9669444,13.6327778
banza quitele,,19,-8.9669444,13.6327778
banza quituia,,15,-7.8333333,15.2333333
banza quizau,,15,-6.6333333,15.1333333
banza quizingo,,15,-7.0,15.4666667
banza quizomba,,15,-6.5166667,15.0166667
banza ruanda,,15,-7.4,15.3833333
banza samba,,15,-6.1166667,15.4
banza sangue,,15,-6.6666667,14.8666667
banza secula,,15,-6.55,15.1
banza soba iango,,05,-8.9833333,14.7166667
banza sosso,,15,-7.0833333,15.6333333
banza tadi,,16,-6.5666667,14.65
banza-tamba,,06,-10.6,15.8833333
banza tamba,,15,-6.4333333,15.05
banza tamba,,16,-6.1666667,14.4
banza tanda,,16,-6.1666667,14.4
banza tange,,15,-7.6333333,15.0666667
banza tari,,06,-10.4833333,15.0666667
banza tava,,15,-6.6666667,15.1166667
banza tende,,15,-6.55,15.05
banza tumba,,15,-6.4666667,14.9833333
banza uau,,15,-6.3,15.4666667
banza uembo,,15,-6.0666667,15.2
banza velele,,16,-6.3833333,14.3
banza vinda,,15,-6.9833333,15.2166667
banza vinde,,15,-6.9833333,15.2166667
banza voge,,15,-6.15,15.5666667
banza zanza,,15,-6.5,15.0166667
banzazoa,,16,-6.2833333,14.8333333
banza zombo,,15,-6.1666667,15.05
banze,,12,-9.6744444,16.3697222
banzo ianga,,15,-6.2,15.1666667
banzu,,15,-8.05,15.5
baquenze,,19,-9.9,13.6833333
barata,,01,-12.4666667,14.0333333
barazende,,19,-8.2666667,13.9666667
barbante,,06,-11.9833333,14.8166667
barqueiro,,12,-9.5833333,15.4166667
barraca,,19,-9.1833333,13.9666667
barra do bengo,,10,-8.7477778,13.4008333
barra do cuanza,,10,-9.3,13.1333333
barra do cuanza,,19,-9.5333333,13.2166667
barra do dande,,19,-8.4666667,13.3666667
bata,,05,-8.6,15.5333333
bata,,15,-6.8333333,14.6333333
bata-bata,,09,-15.25,13.3666667
bata tata,,09,-15.25,13.3666667
bate,,06,-11.3833333,14.8
bate bate,,09,-15.25,13.3666667
bati,,06,-11.3833333,14.8
batista,,08,-11.9666667,15.5
bato,,15,-7.8333333,15.95
batuquita,,17,-9.5166667,19.4833333
bau,,08,-12.0666667,15.6666667
bau,,15,-7.3,14.8166667
bavanganga,,08,-12.4166667,15.45
bazilio,,04,-17.1333333,22.6833333
beca,,05,-8.5,15.0833333
beca monteira,,16,-7.15,13.65
beca monteiro,,16,-7.15,13.65
bege,,05,-8.35,15.2833333
bege,,12,-8.7333333,15.8166667
beira alta,,05,-9.1166667,14.8
beira alta,,06,-11.25,14.2333333
beira-a-nova,,03,-5.05,12.4833333
beira baixa,,19,-8.1833333,14.1333333
beje,,05,-8.35,15.2833333
beje,,18,-9.1833333,21.1333333
beje-cangambo,,12,-9.7833333,16.4166667
bela,,10,-8.9091667,13.1619444
bela-bela,,07,-16.5833333,14.7666667
belania,,08,-11.65,15.5333333
belas,,10,-8.9172222,13.1641667
bela vista,,06,-11.4,15.1
bela vista,,08,-12.5666667,16.2333333
bela vista,,12,-9.4333333,15.7666667
bela vista,,15,-7.0166667,14.3166667
bela vista,,16,-6.2333333,14.2333333
bela vista,,19,-7.8166667,13.8166667
belem,,05,-8.5833333,14.95
belem,,08,-11.6666667,15.95
belem,,16,-6.4333333,14.3166667
belem do ndango,,08,-12.8058333,15.6380556
belenge,,16,-6.7,14.0833333
belengue,,05,-8.5833333,14.95
belize,,03,-4.65,12.7666667
belo horizonte,,02,-11.9166667,16.9
belo horizonte,,12,-8.8166667,16.7833333
belo horizonte,,16,-6.05,14.55
bemba,,08,-12.65,15.9666667
bemba,,15,-6.4166667,15.5
bemba,,19,-8.15,14.15
bembe,,02,-13.9666667,17.1833333
bembe,,04,-16.2333333,19.75
bembe,,12,-10.2333333,16.9166667
bembe,,14,-12.9,18.3833333
bembe,,15,-6.4166667,15.5
bembe,,16,-6.8,13.3
bember,,09,-14.65,14.7833333
bemboa,,08,-12.2666667,15.4833333
bembo,,05,-9.05,15.3666667
bembo,,12,-10.2333333,16.9166667
bembua,,08,-12.2666667,15.4833333
bemfica,,08,-12.8833333,15.8166667
bemfica,,10,-8.9313889,13.16
benda,,14,-15.6666667,21.5666667
bende,,03,-5.2333333,12.4333333
bende,,15,-7.0,14.35
bende,,16,-6.6333333,14.5
bendo,,05,-8.65,15.5333333
bendo,,14,-15.6666667,21.5666667
bene,,16,-6.2333333,13.3
benfica,,08,-12.7422222,15.7469444
benfica,,10,-8.9313889,13.16
benfica jamba,,08,-12.8775,15.3144444
benga,,06,-10.4333333,14.2666667
benga pemba,,15,-7.15,15.6833333
benge novo,,06,-12.15,14.9666667
bengo,,04,-17.8166667,19.3166667
bengo,,10,-8.7769444,13.3716667
bengo,,15,-6.1166667,15.15
bengolombe,,15,-6.8666667,14.55
bengo venzo,,03,-4.95,12.1833333
bengue,,05,-8.4333333,15.2333333
benguela-a-velha,,06,-10.7333333,13.75
benguela,151235,01,-12.5783333,13.4072222
benguela,,08,-12.1,15.2833333
benguela velha,,06,-10.7333333,13.75
benguella,,01,-12.5783333,13.4072222
benguella velha,,06,-10.7333333,13.75
benguilege,,15,-6.5666667,15.9333333
benguir,,09,-16.0333333,14.1333333
benguiteca,,15,-6.5666667,15.9333333
bentiaba,,13,-14.2666667,12.3833333
bento,,05,-8.65,15.5333333
bento,,08,-11.85,15.4666667
bento,,15,-7.7,15.5333333
benza,,05,-8.7166667,14.4333333
benza,,16,-6.2666667,12.95
benza quitel,,19,-8.9669444,13.6327778
beque,,08,-13.0544444,15.7325
berengue,,05,-8.5833333,14.95
besa monteiro,,16,-7.15,13.65
bessa monteiro,,16,-7.15,13.65
bete,,02,-11.9166667,17.7
beu,,02,-12.6,16.7833333
beu,,08,-12.1333333,15.1166667
beu,,15,-6.2166667,15.45
biapio,,01,-12.4675,13.7291667
biavela,,04,-14.7166667,19.7833333
bibala,,13,-14.7666667,13.35
bicando,,01,-12.7547222,13.1425
bichassanha,,03,-5.3,12.2333333
bickman,,08,-12.9666667,15.7166667
bicunga,,09,-13.8,16.45
bie,,02,-12.3833333,16.9333333
bieta,,08,-12.2166667,15.2666667
bige,,18,-9.1833333,21.1333333
bihe,,02,-12.3833333,16.9333333
bihele,,02,-12.3,16.45
bilaiambundo,,09,-15.55,14.05
bilalambundo,,09,-15.55,14.05
bilo,,15,-7.2666667,14.9833333
bimandi,,14,-14.9333333,20.65
bimba,,12,-8.2666667,17.4833333
bimbale,,14,-12.15,18.95
bimbali,,14,-12.15,18.95
bimbas,,01,-12.65,13.485
bimbe,,04,-15.0666667,16.7333333
bimbe,,06,-11.0166667,14.75
bimbe,,08,-11.8166667,15.8333333
bimbe,,12,-8.3333333,15.9833333
bimoe,,04,-15.2,17.6833333
binde,,08,-12.3666667,15.15
bindo,,05,-8.15,15.2166667
binga-abolo,,12,-8.7166667,16.9333333
binga,,01,-12.8433333,13.5336111
binga,,06,-11.0,14.05
binga,,09,-13.9333333,13.4166667
binga,,15,-6.0333333,14.8833333
binga,,16,-6.2666667,12.95
binge,,15,-6.0166667,15.3
binge novo,,06,-12.15,14.9666667
bingue aluera,,12,-8.9333333,16.8333333
bingue alueta,,12,-8.9333333,16.8333333
bingue alueto,,12,-8.9333333,16.8333333
bingue,,12,-8.7166667,16.9333333
bingue-iambolo,,12,-8.7166667,16.9333333
biopio,,01,-12.4675,13.7291667
bipaco,,01,-12.4,13.9666667
bir,,15,-8.0333333,15.55
bire,,15,-8.0333333,15.55
biri,,15,-6.35,15.45
bispo,,19,-8.5905556,13.6455556
bissapa,,09,-13.7,14.8833333
bisska,,14,-11.9333333,21.7333333
bissongue,,01,-12.4519444,13.6477778
bissua,,14,-11.9333333,21.7333333
bisua,,14,-11.9333333,21.7333333
bitangua,,04,-15.4666667,17.5833333
bitina,,03,-4.5833333,12.9833333
bitovo,,02,-12.8833333,17.4
biula,,18,-11.1833333,20.2166667
biungalo,,08,-13.2666667,15.85
biungulo,,08,-13.2666667,15.85
boa entrada,,06,-10.8666667,14.3333333
boanha,,18,-9.6,21.5666667
boanza,,16,-5.9333333,14.2333333
boas aguas,,08,-12.7,16.0333333
boa serra,,08,-12.4,15.45
boa viagem,,06,-10.65,14.3
boa vista,,05,-9.05,14.6
boa vista,,12,-9.7,15.3833333
boa vista,,19,-8.6058333,13.5613889
boca-cosse,,03,-5.2333333,12.5166667
bocato,,06,-11.2833333,15.0833333
boco,,15,-6.0833333,15.1833333
bocoio,,01,-12.0666667,14.4833333
boela,,16,-5.9166667,14.55
boenga,,15,-6.95,15.8666667
boenga sul,,15,-6.95,15.8666667
bohunda,,14,-12.75,18.4333333
boia,,15,-8.1666667,15.8833333
bokoio,,01,-12.4666667,14.1333333
bola,,06,-10.1333333,16.3666667
bolongongo,,05,-8.4666667,15.25
bolonguera,,01,-13.55,13.5833333
bolunda,,06,-10.45,15.25
bolure,,07,-16.4,14.55
boma,,15,-5.8666667,16.4
bomba,,03,-4.6666667,13.0333333
bomba,,09,-13.9833333,14.5833333
bombi,,19,-7.7,13.85
bombo,,02,-11.8166667,16.5166667
bombo,,06,-11.1333333,15.45
bombo,,09,-13.6833333,15.3
bombo,,15,-6.6833333,15.1333333
bombo quimbire,,15,-8.3333333,14.7833333
bome,,07,-16.4,14.6666667
bom jesus,,19,-8.0166667,14.2166667
bonda,,15,-7.9,15.5333333
bonde antigo,,03,-5.2333333,12.4333333
bonde,,03,-5.2333333,12.4333333
bonde,,15,-7.0,14.35
bonde,,16,-5.9833333,14.7833333
bondje,,06,-11.45,14.75
bondo,,04,-17.0333333,18.55
bondo,,05,-8.85,15.2
bondo,,12,-8.4,16.8166667
bonga,,02,-12.7666667,18.1333333
bonga,,06,-10.4333333,14.2666667
bonga,,08,-12.0166667,15.9333333
bonga,,15,-7.5166667,15.2
bongo,,08,-12.9936111,15.3444444
bongo,,12,-8.1166667,17.2
bongo,,17,-8.8,17.8166667
bongo,,18,-10.4,21.4666667
bongola,,15,-5.95,14.9333333
bongo mamanha,,03,-5.35,12.2
bongo nenzo,,03,-4.95,12.1833333
bongo venzo,,03,-4.95,12.1833333
bongue,,15,-6.35,15.45
bongue,,16,-6.05,14.6666667
bongue,,19,-10.2333333,13.6
bongui,,15,-6.0166667,15.3
bonio,,08,-12.7333333,15.1333333
bonje,,04,-15.6333333,18.7833333
bonze,,19,-9.85,14.0
bonze velha,,19,-9.85,14.0
bonze velho,,19,-9.85,14.0
bonzo,,05,-8.5666667,15.2666667
boondangue,,08,-12.4833333,15.2333333
botamona,,19,-9.1333333,13.8
bote,,12,-9.7333333,15.6333333
bote,,17,-8.65,17.65
botera,,06,-11.6166667,14.2666667
botiqui,,14,-14.8166667,20.85
botomona,,19,-9.1333333,13.8
bounda,,14,-12.75,18.4333333
braganca,,12,-9.1,15.95
branca,,01,-12.8863889,13.0047222
branco,,14,-12.5,20.5333333
brancu,,14,-12.5,20.5333333
branku,,14,-12.5,20.5333333
braz,,06,-11.9,15.0166667
brita,,12,-9.45,15.7333333
brito gandins,,12,-8.95,16.5
brito godins,,12,-8.95,16.5
bruco,,13,-15.1166667,13.1833333
b. silva,,06,-11.1166667,15.4166667
buabo,,15,-6.7166667,15.8666667
bua,,16,-7.15,13.2
buainda,,06,-9.9666667,14.55
buala,,12,-8.8166667,17.1333333
buale,,12,-8.8166667,17.1333333
bualo,,12,-8.8166667,17.1333333
buambua,,18,-8.5666667,21.2
buandangue,,06,-11.3666667,15.1333333
buanga,,02,-11.5333333,16.45
buanga,,06,-11.5666667,14.2
buatama,,14,-14.5833333,20.7833333
buaza,,05,-8.4333333,15.3
buca,,03,-5.6666667,12.25
bucaco,,14,-11.4333333,20.1666667
bucco-lau,,03,-4.7666667,12.55
bucita,,18,-10.6333333,21.7333333
bucito,,18,-10.6333333,21.7333333
buco,,03,-5.45,12.2333333
buco,,12,-9.5291667,16.2061111
buco longo,,03,-4.5,12.7666667
bucomasi,,03,-5.45,12.2333333
buco maze,,03,-5.45,12.2333333
bucomazi,,03,-5.45,12.2333333
buco n'vago,,03,-4.5,12.7666667
buco zau,,03,-4.7666667,12.55
bucula,,19,-8.5611111,13.645
buda,,08,-12.5833333,15.05
bueio,,06,-11.8,14.5333333
buela,,05,-9.3666667,14.7833333
buela,,15,-6.6666667,15.0833333
buela,,16,-5.9166667,14.55
buembua,,17,-8.1,21.4166667
buembue,,18,-8.5666667,21.2
buenga,,15,-7.7166667,16.0333333
buengas,,15,-6.7333333,15.9
buenga sul,,15,-6.95,15.8666667
buengo,,08,-12.5688889,15.3466667
bueta,,15,-6.6666667,15.0833333
bueti,,08,-11.8166667,15.7
buila,,18,-11.1833333,20.2166667
buinda,,12,-9.5825,16.4925
bula atumba,,05,-8.6666667,14.8
bula atumba,,15,-8.1166667,14.9666667
bulabando,,19,-8.5333333,14.2
bula,,09,-15.5333333,15.25
bula,,19,-7.9333333,14.0666667
bula malari,,17,-8.0833333,19.0833333
bulanganga,,07,-16.95,15.55
bula-samba,,12,-9.1666667,17.2833333
bulatumba,,12,-8.9666667,15.7833333
bulo,,04,-17.8333333,19.7
bulo,,05,-9.65,14.4166667
bulo,,06,-11.3166667,14.2
bulo,,08,-12.4333333,15.8166667
bulo,,12,-8.9666667,15.7833333
bulo,,19,-9.8333333,14.2333333
bulo-bulo,,01,-12.5041667,13.8772222
bulocochina,,01,-12.7333333,14.1833333
bulomatumbi,,15,-6.6833333,14.85
bulungungo,,15,-7.7666667,15.0166667
bumba,,01,-12.0666667,14.2666667
bumba,,06,-11.3,14.9333333
bumba,,08,-12.1833333,15.0666667
bumba,,12,-8.2666667,17.4833333
bumba,,14,-11.9833333,23.1666667
bumba,,17,-7.3,21.5666667
bumba,,18,-9.1,21.1666667
bumba,,19,-9.4166667,13.9
bumba-calala,,12,-8.9333333,17.4666667
bumba cassambi,,12,-9.2333333,17.3166667
bumbe,,08,-11.8166667,15.8333333
bumbe,,15,-7.8,14.9166667
bumbi,,12,-8.3333333,15.9833333
bumbo,,15,-6.9166667,14.4833333
bumbuge,,16,-6.1666667,14.3833333
bumbugi,,16,-6.1666667,14.3833333
buna,,15,-6.9,14.6666667
bunda,,06,-11.45,14.9166667
bunda,,16,-6.4166667,12.6333333
bundacane,,15,-7.1833333,15.7
bunde,,06,-10.2833333,14.1833333
bundja,,09,-13.5333333,16.0166667
bundjei,,09,-13.5333333,16.0166667
bundo,,08,-12.5161111,15.5422222
bundo,,12,-8.9166667,15.9833333
bundo,,14,-13.35,18.8166667
bundo de baixo,,08,-12.5161111,15.5422222
bundo de cima,,08,-12.5030556,15.5341667
bungala,,12,-9.2166667,16.0166667
bunga pemba,,15,-7.15,15.6833333
bunge,,08,-11.65,15.9166667
bungei,,09,-13.5333333,16.0166667
bungo,,01,-12.6833333,14.15
bungo,,05,-9.6833333,14.6666667
bungo,,06,-9.8166667,14.65
bungo,,15,-7.4333333,15.3833333
bungo de angola,,15,-8.3,14.8
bungulo,,12,-9.2166667,16.0166667
bunja,,04,-17.8166667,19.3166667
bunje,,08,-11.65,15.9166667
bunjei,,09,-13.5333333,16.0166667
bunya,,04,-17.8166667,19.3166667
buque,,17,-7.55,21.3
buri,,06,-9.8666667,16.5
burucuto,,15,-7.1833333,14.5833333
busaso,,14,-11.4333333,20.1666667
bussaco,,14,-11.4333333,20.1666667
buta,,01,-12.55,14.1833333
buta,,05,-8.5333333,15.2666667
buta,,08,-12.0166667,15.6166667
butifar,,05,-8.5666667,14.9
butiqui,,14,-14.8166667,20.85
butje,,07,-16.6833333,13.8
buto,,09,-15.7666667,15.15
butramo,,06,-11.5666667,15.35
butungo,,05,-9.1166667,14.5333333
buvelai,,09,-14.55,14.7833333
buzoalongua,,16,-6.2833333,14.8
buzo,,15,-6.1,15.1666667
buzo,,16,-6.2833333,14.8
caacata,,06,-11.4333333,14.8
caala,,01,-12.4333333,14.7833333
caala,,04,-14.9333333,18.3
caala,21205,08,-12.8525,15.5605556
caala,,12,-9.2333333,15.7666667
caana,,06,-10.4333333,14.95
caanga,,06,-10.4333333,14.95
caar,,02,-12.05,18.2833333
caata,,01,-12.35,14.8166667
cababa,,04,-14.7666667,19.0833333
cababola,,08,-13.1166667,15.1666667
cabaca,,05,-8.8,15.2166667
cabaca,,06,-10.6,16.25
cabaca,,15,-7.8833333,15.2
cabaca muongo,,12,-8.6,15.7
cabalabala,,12,-9.7072222,16.2291667
cabala,,08,-11.5333333,15.5
cabala,,15,-7.75,15.2333333
cabala,,17,-8.3166667,19.3833333
cabamba,,12,-8.35,17.5
cabana,,17,-9.4666667,18.2166667
cabanda,,08,-13.6,15.3833333
cabanda,,15,-7.2833333,15.0666667
cabandangala,,17,-8.65,17.65
cabanga,,04,-17.05,18.15
cabanga,,05,-8.4666667,14.7833333
cabanga,,12,-7.9,16.7333333
cabanga,,19,-9.2166667,14.0
cabanga caposse,,19,-9.2166667,14.0
cabangala,,06,-9.8166667,15.7333333
cabango,,02,-12.5833333,18.0166667
cabango,,05,-9.4666667,14.1666667
cabango,,12,-10.1166667,16.3833333
cabango,,14,-11.55,23.1833333
cabare,,02,-12.5166667,17.5833333
cabari,,12,-9.0833333,17.4
cabari,,15,-7.7333333,15.3666667
cabatoquila,,12,-9.4,17.1333333
cabatuquila,,12,-9.4,17.1333333
cabaua,,04,-14.7666667,19.0833333
cabaza,,05,-9.6833333,14.4166667
cabeba,,06,-10.0833333,14.9833333
cabebe,,05,-9.05,14.7166667
cabeca da cobra,,16,-6.55,12.5333333
cabeca de cao,,01,-12.4166667,14.4
cabeia,,18,-10.25,21.5333333
cabela,,06,-10.85,14.3666667
cabelebele,,01,-12.7,14.5
cabeleira,,10,-8.8333333,13.2
cabelleira,,10,-8.8333333,13.2
cabelombo,,03,-5.7,12.2
cabemba,,15,-7.1166667,15.3333333
cabembo,,05,-9.05,15.3666667
cabembo,,15,-7.1166667,15.3333333
cabembua,,08,-12.9697222,15.4897222
cabengo,,12,-9.45,15.7333333
cabengue,,15,-8.1833333,15.0166667
cabetele,,12,-9.6038889,16.1147222
cabezo,,06,-10.2666667,15.3333333
cabianda,,19,-10.2333333,13.6333333
cabiando,,19,-10.2333333,13.6333333
cabiche-chilele,,01,-12.5833333,14.8666667
cabila,,12,-9.4333333,15.7833333
cabila,,14,-11.6666667,23.1666667
cabila,,17,-8.1666667,19.5666667
cabile,,08,-12.885,15.3391667
cabimbia,,04,-14.15,16.7333333
cabinchia,,01,-12.5833333,14.85
cabinda,66020,03,-5.55,12.2
cabinda,,04,-16.1,17.65
cabinda,,05,-9.15,14.95
cabinda,,06,-11.5333333,14.2
cabinda,,08,-12.0833333,15.5333333
cabinda,,17,-8.1666667,18.1166667
cabinde,,17,-8.1666667,18.1166667
cabindele,,04,-15.8666667,17.5833333
cabindondo,,01,-13.0666667,13.1833333
cabio,,01,-12.87,13.8505556
cabiombo,,01,-13.5833333,13.7
cabir,,08,-11.7166667,16.2833333
cabire,,09,-14.0,14.9833333
cabire,,19,-8.9152778,13.6691667
cabiri,,19,-8.9152778,13.6691667
caboa,,12,-9.6166667,15.6333333
caboach,,12,-9.5233333,16.4325
cabobo,,05,-8.55,15.5166667
cabo,,04,-17.1166667,21.4833333
cabo,,15,-7.7,15.2833333
cabo catanda,,18,-10.0333333,22.1166667
cabocha,,19,-8.5836111,13.6730556
caboco,,05,-8.5166667,15.0666667
caboco,,15,-6.9833333,15.3166667
caboiongo,,08,-12.2333333,15.15
cabola,,17,-8.3166667,19.3833333
cabo ledo,,19,-9.6666667,13.2333333
cabolobolo,,12,-9.6680556,16.0580556
caboloca,,12,-10.2333333,17.0333333
cabo lomba,,03,-5.7,12.2
cabolombo,,03,-5.7,12.2
cabolombo,,10,-8.9313889,13.16
cabo longo,,03,-5.7,12.2
cabomba,,15,-5.9166667,16.4333333
cabombo,,06,-10.2666667,14.6666667
cabombo,,12,-8.2166667,16.65
cabonda,,19,-9.5166667,14.1
cabongo,,01,-12.95,14.05
cabongo,,05,-9.3833333,14.8833333
cabongo,,06,-10.55,14.65
cabongo,,08,-12.3666667,15.4666667
caboulo,,06,-11.0833333,14.3
cabria,,12,-9.4,16.45
cabua,,04,-14.7666667,19.0833333
cabuanga,,08,-11.8166667,15.7
cabuca,,12,-9.3666667,15.7666667
cabucatanda,,18,-10.0333333,22.1166667
cabuco,,12,-9.3666667,15.7666667
cabula,,12,-9.4666667,16.7166667
cabulo,,06,-10.3,16.3666667
cabumba,,19,-9.6666667,14.2666667
cabunda,,05,-9.15,14.8833333
cabungo,,19,-8.5741667,13.5427778
cabuta,,06,-9.8333333,14.8333333
caca,,05,-8.65,15.5833333
caca,,08,-12.3166667,15.1666667
caca,,12,-8.5666667,15.8166667
cacaca,,08,-13.0541667,15.6513889
cacacanga,,14,-16.1,21.9166667
cacaco,,06,-11.7333333,15.1
cacaco,,14,-14.2166667,21.6333333
cacaco,,17,-7.6333333,20.4
cacala,,01,-11.9638889,13.7861111
cacamba,,05,-8.9,14.9666667
cacamba,,15,-7.7666667,15.7333333
cacamba,,19,-8.65,14.2666667
cacanda,,14,-11.1,23.2166667
cacanda,,17,-7.3833333,20.8
cacandala,,01,-12.6833333,14.0166667
cacande,,08,-12.05,15.5
cacande,,14,-12.8666667,22.75
cacanga,,05,-9.0833333,14.7833333
cacanga,,14,-12.2166667,21.8333333
cacanga,,18,-10.35,20.1666667
cacango,,07,-17.3333333,14.05
caca-quibuma,,12,-8.5666667,15.8166667
cacasi,,17,-7.5,20.5333333
cacatula,,08,-12.7611111,15.5997222
cacau,,01,-12.85,14.3833333
cacefo,,19,-9.2833333,13.7833333
cachaca,,08,-12.45,15.75
cachaca,,14,-14.9333333,21.85
cachacha,,04,-15.1166667,16.8166667
cachadila,,12,-9.7333333,15.6166667
cachala,,14,-11.5333333,20.7
cachalonde,,15,-7.4666667,14.95
cachama,,01,-12.6161111,13.1755556
cachama,,18,-10.4,21.5
cachamba,,19,-9.2333333,14.05
cachana,,07,-16.8666667,13.8
cachara,,06,-11.5333333,14.9833333
cacharandanda,,19,-10.2,13.8333333
cachari,,19,-9.1333333,13.8333333
cacharila,,12,-9.7333333,15.6166667
cachata,,18,-10.9447222,20.27
cachat,,06,-11.9833333,15.0166667
cachembi,,08,-12.7833333,15.9666667
cachequel,,04,-14.8166667,19.55
cachequera,,08,-12.6666667,14.85
cachequere,,01,-12.7166667,14.6833333
cachequere,,04,-14.8166667,19.55
cachetiongue,,08,-12.1833333,15.15
cachiachia,,18,-8.8833333,20.6333333
cachiangue,,08,-12.0833333,15.1666667
cachibo,,14,-12.2,22.6833333
cachica,,05,-9.5166667,14.6833333
cachica,,06,-9.9166667,14.9333333
cachica,,15,-7.7666667,15.9333333
cachicala,,08,-12.9833333,14.9833333
cachicala,,09,-14.0333333,15.35
cachicha,,06,-9.9166667,14.9333333
cachicualo,,01,-12.4,14.8166667
cachimbamba,,08,-12.4833333,15.6666667
cachimbango,,04,-16.4666667,18.2
cachimbo,,15,-7.0,16.5833333
cachimboto,,08,-12.1833333,15.0666667
cachimo,,17,-8.35,21.3333333
cachinacage,,04,-14.05,18.5666667
cachinde,,04,-15.55,19.8166667
cachinge,,12,-9.0666667,15.9333333
cachingongo,,14,-11.2666667,23.45
cachingue,,06,-10.3,15.9333333
cachingues,,02,-13.0666667,16.75
cachiombela,,08,-12.3666667,15.9833333
cachiombo,,08,-12.0833333,15.2166667
cachipire,,05,-9.2,14.4
cachipoque,,14,-11.95,19.2
cachiquera,,08,-12.6666667,14.85
cachiriavinha,,14,-12.8333333,22.1833333
cachissapa,,08,-12.95,15.9666667
cachita,,12,-9.5625,16.4608333
cachita,,17,-8.2666667,21.5666667
cachito,,15,-6.65,15.0666667
cachito ima,,12,-8.7833333,15.8666667
cachito-malange,,12,-8.75,15.8
cachiua,,04,-17.6833333,18.7
cachiza,,17,-7.35,21.5166667
cacho,,18,-8.8666667,20.8
cachona,,06,-10.65,15.1
cachucua,,04,-17.6,22.4
cachueca,,07,-15.3333333,16.85
cachumbo,,19,-9.6833333,14.3333333
cachungo,,14,-11.0333333,21.7666667
cachungues,,02,-13.0666667,16.75
caciano alves,,08,-12.6969444,15.71
cacilha,,16,-6.45,14.3166667
cacilhas,,16,-6.1333333,14.6
cacimbas,,13,-14.0666667,13.6
cacinga,,15,-7.8,15.7666667
cacipa,,06,-11.7333333,15.25
cacipo,,06,-11.6333333,15.1
cacique,,06,-11.3666667,15.1333333
cacita,,17,-7.35,21.5166667
cacito,,15,-6.65,15.0666667
caciua,,01,-12.5977778,13.9727778
cacoba,,19,-9.2833333,13.7
caco,,15,-6.4833333,15.0
cacoco,,06,-11.4166667,14.0333333
cacoco,,09,-14.1166667,15.1833333
cacoco,,17,-7.8,21.6166667
cacoio,,08,-12.7369444,15.5319444
cacoio,,09,-14.6333333,14.5666667
cacoio,,14,-14.5166667,21.8
cacola,,02,-13.3666667,17.0166667
cacola,,18,-10.1333333,19.2666667
cacoloca,,12,-9.5586111,16.2947222
cacolo,,04,-16.5166667,17.8166667
cacolo,,05,-9.35,14.75
cacolo,,08,-12.7369444,15.5319444
cacolo,,12,-9.4833333,16.0333333
cacolo,,18,-10.1333333,19.2666667
cacomba,,06,-11.5,14.2333333
cacomba,,17,-8.6166667,17.6
cacombo,,01,-13.15,14.8833333
caconda,,08,-12.8677778,15.5763889
caconda,10551,09,-13.7333333,15.0666667
cacondo,,14,-13.65,21.4333333
caconga,,16,-6.75,12.65
cacongala,,08,-12.6166667,15.5333333
cacongo,,03,-5.2333333,12.1333333
cacongo,,07,-17.3333333,14.05
cacongo,,15,-7.3666667,17.05
cacongo,,16,-6.75,12.65
caconjo,,08,-12.6,15.9333333
cacono,,14,-14.5166667,21.8
cacoso,,12,-9.4166667,15.75
cacosso,,06,-11.4166667,14.0333333
cacota,,02,-13.3666667,17.0166667
cacoto,,07,-16.25,13.55
cacovare,,02,-12.15,17.7166667
cacuaca,,18,-9.8166667,21.7666667
cacua,,07,-17.3,14.3
cacuaco,,06,-10.8166667,14.2333333
cacuaco,,10,-8.7769444,13.3716667
cacuaco,,15,-7.8,14.9166667
cacuado,,15,-7.8,14.9166667
cacualo,,12,-9.95,16.6
cacuanza,,05,-9.6833333,14.3666667
cacuata,,17,-8.05,18.2
cacuic,,07,-16.6833333,13.8833333
cacuio,,07,-16.6833333,13.8833333
cacula,,01,-12.095,13.9386111
cacula,,06,-9.9833333,14.9
cacula,,08,-12.3666667,15.5666667
cacula,,09,-14.5,14.1166667
cacula,,19,-9.7333333,13.5333333
caculama,,12,-9.4833333,16.85
caculi,,08,-12.9411111,15.4136111
caculo caango,,19,-9.2833333,14.0666667
caculo cabaca,,05,-8.7333333,15.1666667
caculo cabaco,,05,-8.7333333,15.1666667
caculo,,05,-8.8,15.2166667
caculo,,09,-14.5,14.1166667
caculo,,12,-9.05,15.85
caculo,,19,-9.75,14.4
caculo caenda,,05,-8.7166667,14.6833333
caculo cahango,,19,-9.2833333,14.0666667
caculo cahoje,,05,-9.2833333,14.9833333
caculo cahui,,15,-8.2666667,15.0833333
caculo cassoche,,05,-9.6333333,14.7833333
caculo catemo,,17,-8.8,19.3833333
caculuma,,12,-9.4833333,16.85
caculuvar,,09,-14.9166667,13.75
cacumba,,01,-12.3166667,14.7666667
cacumba,,06,-11.5,14.2333333
cacumba,,12,-9.05,15.8333333
cacumba,,19,-9.5333333,14.0333333
cacumba luis,,06,-11.65,14.2333333
cacumba luiz,,06,-11.65,14.2333333
cacumbe,,12,-9.4666667,15.5
cacumbi,,05,-9.25,15.0833333
cacumbi,,12,-9.05,15.8333333
cacumbi,,18,-10.2666667,19.05
cacunda,,17,-8.2833333,21.6833333
cacunde,,14,-11.2166667,23.4833333
cacunhe,,04,-17.1833333,22.2833333
cacunra,,17,-7.7,20.1333333
cacupa,,08,-12.2166667,15.0666667
cacupa,,14,-12.1666667,21.8666667
cacuri,,17,-8.2333333,18.3333333
cacuso,,05,-8.2333333,15.35
cacuso,,12,-9.4166667,15.75
cacute,,08,-11.9333333,15.8333333
cacuti,,08,-11.9333333,15.8333333
cacuto,,08,-13.2833333,15.5833333
cacuto,,15,-7.6833333,15.5666667
cacuto cassoche,,05,-9.6333333,14.7833333
cacuzo,,05,-8.2333333,15.35
cadimania,,17,-7.75,20.8666667
cadiongo,,19,-8.5738889,13.6797222
cadjengulia,,06,-11.3833333,15.45
cadueia,,07,-17.15,16.1
cadungo,,01,-12.5333333,14.1
caembe,,14,-11.2333333,22.8
caenda,,08,-12.5727778,15.5763889
caenda,,15,-7.6666667,15.65
caende,,07,-16.7833333,13.5166667
caendiundiu,,08,-12.6833333,14.8833333
caenge,,01,-12.8666667,14.35
caeroma,,15,-8.0166667,15.5333333
caetano,,01,-12.95,14.1166667
cafana,,14,-12.25,23.6666667
cafanha,,17,-9.8333333,18.1
cafecangombe,,06,-10.75,14.0
cafeongombe,,06,-10.75,14.0
cafeta,,12,-9.1833333,15.5166667
cafima,,07,-16.65,16.45
cafoango,,08,-11.8166667,15.7
cafocota,,17,-9.2,20.3
cafocufoco,,09,-14.9666667,15.2666667
cafrumento,,04,-17.1666667,19.0666667
cafua,,14,-12.1166667,23.6
cafuana,,14,-12.25,23.6666667
cafuani,,15,-7.5666667,15.8666667
cafuca,,14,-15.2,21.4166667
cafu,,07,-16.5,15.1833333
cafu,,18,-8.4666667,21.7666667
cafucangombe,,06,-10.75,14.0
cafuchi,,12,-9.2333333,17.1833333
cafuchila,,12,-7.9,16.7333333
cafucufuco,,09,-14.9666667,15.2666667
cafucufuco,,18,-10.7955556,20.4722222
cafula,,14,-11.35,22.4666667
cafuleca,,08,-11.8166667,15.5333333
cafulela,,05,-9.2666667,14.95
cafuloca,,08,-11.8166667,15.5333333
cafulo,,04,-17.0333333,21.1166667
cafulo,,17,-7.7,20.6666667
cafulula,,05,-9.2666667,14.95
cafululo,,06,-10.6166667,14.3833333
cafuma,,12,-9.0333333,16.05
cafundanga,,12,-9.575,16.1183333
cafunge,,17,-10.1,18.4666667
cafungo,,14,-10.9,22.1
cafunvo,,15,-7.6166667,15.7166667
cafuxe,,12,-9.2333333,17.1833333
cagandala,,12,-9.7833333,16.4333333
cage,,15,-7.8,14.9166667
cage,,19,-8.3166667,14.35
cagica,,15,-7.7666667,15.9333333
cagifandala,,01,-12.5833333,14.2833333
cagina,,18,-8.7333333,20.9833333
caginga,,05,-8.15,15.2833333
caginga,,12,-9.05,15.6666667
cagingongo,,12,-9.25,15.8666667
cagiza,,12,-9.6902778,16.3666667
cagungo,,17,-8.5,20.4666667
cahaga,,15,-7.5833333,15.8833333
cahala,,01,-12.4333333,14.7833333
cahala,,04,-14.9333333,18.3
cahala,,08,-12.8525,15.5605556
cahala,,12,-9.1833333,15.75
cahalama,,18,-10.4333333,18.65
cahalocasso,,05,-9.05,15.2666667
cahama,,07,-16.2833333,14.3166667
cahana,,06,-10.3166667,14.8
cahanga,,17,-8.2333333,21.4833333
cahango,,14,-13.35,18.4833333
cahata,,01,-12.35,14.8166667
cahenda,,08,-12.5727778,15.5763889
cahima,,05,-8.5,15.5
cahimba,,08,-12.05,15.9333333
cahimba,,09,-16.2,13.6
cahinda,,02,-12.2333333,17.1
cahinde,,13,-15.5,13.3666667
cahinge,,19,-9.2666667,13.9
cahocua,,08,-12.6222222,15.2905556
caholo,,06,-10.5333333,16.2
caholo,,08,-11.6666667,16.2666667
caholo,,09,-15.1333333,13.3333333
cahoma,,04,-17.9333333,20.4833333
cahombo,,01,-12.6333333,14.8833333
cahombo,,12,-8.8166667,16.7833333
cahonga,,12,-9.35,15.8
cahopa,,08,-12.9863889,15.5666667
cahua,,14,-12.5166667,23.5166667
cahuca,,15,-8.0333333,15.75
cahui,,12,-9.7166667,15.6
cahumba,,08,-12.7238889,15.7472222
cahumbula,,01,-12.4666667,14.1166667
cahundi,,06,-11.9,15.2166667
cahungula,,17,-7.8,19.4333333
cahuta,,07,-16.1666667,15.1666667
caiaca,,15,-8.2833333,14.8166667
caiaia,,08,-12.3666667,15.7333333
caiaiula,,08,-12.1833333,15.6666667
caiala,,01,-11.9166667,14.5333333
caiala,,02,-12.3166667,17.1166667
caiala,,06,-11.45,14.1833333
caiambo,,08,-13.045,15.7286111
caiambo,,14,-11.9166667,19.0
caiambo,,18,-8.8666667,20.8
caianda,,14,-11.0,23.5333333
caiandeja,,02,-12.7333333,16.6333333
caiandja,,08,-13.1472222,15.7072222
caiandula,,14,-13.4666667,19.6166667
caiango,,06,-11.3333333,15.0666667
caiangula,,09,-13.4333333,16.0666667
caiangula,,14,-13.6833333,20.1666667
caianvo,,17,-8.1,19.7
caianza,,18,-10.25,20.25
caiaque,,15,-8.2833333,14.8166667
caiato,,14,-12.8333333,20.9666667
caiave,,01,-12.7805556,13.9594444
caiaza,,18,-10.25,20.25
caiba,,06,-11.4666667,14.4333333
caiba-iba,,06,-11.4666667,14.4166667
caibambo,,01,-13.0166667,14.0
caibas-iba,,06,-11.4666667,14.4166667
caibungo,,06,-11.7333333,15.3
cai,,16,-5.9833333,14.25
caicundo,,01,-12.2833333,14.25
caido,,02,-11.6333333,17.5333333
caieco,,08,-13.1283333,15.6844444
caiei,,02,-11.4,17.25
caiemba,,18,-10.3,18.9666667
caiembe,,14,-10.8333333,22.1333333
caiendje eduardo almeida,,08,-12.4333333,15.7333333
caienge,,08,-12.4333333,15.7333333
caiengue,,08,-12.4333333,15.7333333
caiengue,,14,-12.6166667,20.8666667
caiengue,,19,-8.1333333,14.1666667
caienze,,01,-12.8666667,14.35
caiete,,06,-11.0833333,14.3
caihengula,,17,-7.7166667,20.8666667
caima,,05,-8.5,15.5
caimana,,14,-12.6833333,23.2333333
caimba,,08,-12.05,15.9333333
caimbambo,,01,-13.0166667,14.0
caimbanga,,01,-12.75,14.15
caimbuca,,08,-12.35,15.95
caimunda,,01,-12.9833333,14.3
cainda,,02,-12.2333333,17.1
cainda,,13,-15.5,13.3666667
cainde,,06,-11.7333333,15.35
cainde,,08,-12.0333333,15.8666667
cainde,,13,-15.5,13.3666667
caindo,,15,-6.4666667,15.95
cainge,,19,-9.2666667,13.9
caingo,,12,-7.7166667,17.1166667
cainguelo,,12,-9.4333333,16.5
caingundo,,12,-9.3686111,16.4838889
cainha,,12,-8.4166667,15.85
cainja,,06,-11.4333333,14.2333333
cainza,,15,-6.9166667,15.3166667
cainza,,16,-6.1166667,13.8
cainzuri,,12,-9.4883333,16.4566667
caioba,,04,-17.3166667,18.35
caio bachi,,03,-4.5,12.8166667
caio bemba,,03,-4.4,12.7333333
caio buma,,03,-4.4,12.7333333
caio bumba,,03,-4.4,12.7333333
caio,,03,-4.5833333,12.8666667
caio,,06,-10.45,14.2
caio,,18,-10.8286111,20.4225
caioco,,02,-13.75,17.6
caioco,,04,-14.9666667,19.25
caio companzo,,03,-4.9833333,12.6666667
caio cuembo,,03,-4.5833333,12.8666667
caio guembo,,03,-4.5833333,12.8666667
caio guenbe,,03,-4.5833333,12.8666667
caiola,,08,-12.9891667,15.6313889
caiolo,,02,-11.6333333,17.5333333
caio matchenzila,,03,-5.3,12.4
caiomba,,04,-17.95,20.7833333
caiombe,,06,-11.4166667,14.5166667
caiombo,,04,-15.9,20.2
caiombo,,05,-8.7333333,14.8166667
caiombo,,06,-11.4166667,14.5166667
caiombo,,14,-11.1166667,23.9166667
caiombo,,15,-7.9333333,15.7
caiombo,,17,-10.1666667,18.9
caiombungo,,13,-15.7833333,13.25
caionda,,02,-10.7833333,16.9166667
caionde,,02,-10.7833333,16.9166667
caionga,,01,-12.4,14.8166667
caiongo,,04,-15.55,19.8
caiongo,,14,-14.0833333,20.95
caiongo,,15,-7.7333333,15.9166667
caiongo camucola,,04,-15.5333333,19.8
caio panzo,,03,-4.9833333,12.6666667
caiove,,06,-11.95,14.8
caioxo,,04,-14.9666667,19.25
caires,,08,-12.5166667,15.6833333
cairofa,,13,-14.05,12.9
caissoco,,12,-9.5844444,16.2127778
caita,,06,-11.55,14.2666667
caita,,17,-7.8,20.7
caitau,,13,-14.4833333,13.0833333
caitete,,19,-9.8666667,13.7333333
caitica,,08,-13.4166667,15.4
caitica,,17,-8.8333333,20.0666667
caiti,,08,-12.2833333,15.85
caiton,,13,-14.4833333,13.0833333
caitou,,13,-14.4833333,13.0833333
caitumbo,,06,-11.75,14.9833333
caiua,,04,-17.0333333,18.55
caiubo,,02,-13.4166667,17.1833333
caiula,,18,-9.9333333,20.2666667
caiumbaca,,08,-12.35,15.95
caiumbe,,14,-10.8333333,22.1333333
caiumboca,,08,-12.0833333,15.4
caiumo,,04,-15.3666667,20.7666667
caiunde,,04,-15.7,17.4666667
caiundo,,04,-15.7,17.4666667
caivuca,,12,-9.4666667,16.5833333
cajambe,,07,-16.4666667,13.6
cajapao,,08,-12.1,15.8666667
caje,,19,-8.3166667,14.35
cajica,,15,-7.7666667,15.9333333
cajije,,17,-8.45,18.2666667
cajiji,,17,-8.45,18.2666667
cajimbinza,,12,-9.4091667,16.4661111
cajingungo,,12,-9.5761111,16.0322222
cajissange,,05,-9.2666667,14.9166667
cajueiro,,05,-9.6666667,14.5833333
calabanda,,14,-13.65,21.15
calabe,,08,-11.85,15.7666667
calabola,,12,-9.25,15.9
calacaeta,,08,-12.6333333,15.0
cala,,05,-8.9833333,14.4666667
cala canta,,03,-5.6166667,12.45
calacata,,08,-12.6333333,15.0
calacula,,01,-12.9,14.0833333
calahama,,18,-10.4333333,18.65
calaiala,,05,-8.3,15.6
calai brita,,08,-12.8480556,15.5258333
calai,,04,-17.8833333,19.7666667
calai,,12,-8.3,16.7333333
calala,,06,-11.3,14.3
calala,,14,-12.05,23.25
calala,,17,-7.5,19.9333333
calalaia,,05,-9.3333333,14.9666667
calalavera,,02,-11.8,17.2333333
calalele,,04,-15.15,20.3
calamba,,08,-12.6105556,15.4461111
calamba,,14,-11.3166667,21.2333333
calamba,,19,-10.2,13.55
calambacera,,18,-8.6,21.8666667
calamba-chalua,,17,-8.3,21.6833333
calambala,,16,-6.2,14.35
calambata,,16,-6.2,14.35
calambinga,,09,-14.8666667,14.8666667
calambo,,02,-11.65,18.0
calambolo,,12,-9.5641667,16.2225
calambue,,01,-12.2333333,14.1
calambunze,,19,-9.0666667,13.7166667
calambunzi,,19,-9.0666667,13.7166667
calanda,,01,-12.5041667,13.8216667
calanda,,05,-8.2833333,15.35
calanda,,06,-11.7166667,14.45
calanda,,14,-12.0666667,19.2
calanda,,15,-8.0166667,15.0833333
calanda,,19,-9.8166667,14.2166667
calandala,,17,-9.2,17.95
calandissa,,18,-10.4666667,21.2333333
calandula,,08,-12.85,15.8833333
calandula,,12,-9.1,15.95
calandula,,14,-13.4666667,19.6166667
calandula,,17,-9.0666667,17.9
calane,,01,-12.5666667,14.0166667
calanga,,05,-9.0666667,14.6833333
calanga,,08,-12.5833333,15.7
calanga,,12,-8.8166667,15.9
calanga,,14,-12.2333333,23.1
calanga,,17,-8.75,17.8333333
calange,,12,-8.9833333,15.6666667
calango,,01,-12.3513889,13.7411111
calangue,,08,-11.9166667,15.9166667
calanjimbo,,14,-12.95,23.8833333
calanjumbo,,14,-12.95,23.8833333
calaocoto,,01,-12.85,14.1333333
calci,,08,-12.5302778,15.67
caldeira,,06,-9.8,14.75
caldeira da serra,,01,-12.55,14.9
calego,,14,-12.1166667,23.6166667
caleia,,12,-9.4666667,15.6833333
calei,,06,-11.8333333,14.5166667
calei,,07,-16.6833333,14.95
calei,,08,-12.5302778,15.67
calei,,09,-13.5,16.2
calei cangoia,,08,-12.5302778,15.67
calei congoia,,08,-12.5302778,15.67
calei cutchila,,08,-12.6880556,15.6105556
caleilao,,17,-9.1666667,17.6
calei tchitue,,08,-12.6913889,15.5702778
calele,,06,-10.4166667,13.7
calele,,12,-9.1666667,15.7666667
calelele,,06,-10.4166667,13.7
calema,,04,-17.1833333,20.75
calema,,14,-12.2166667,19.1333333
calemba,,05,-8.4333333,15.3
calemba,,07,-16.0666667,15.7333333
calemba,,08,-11.9666667,16.0666667
calembe,,01,-12.3,14.6333333
calembe,,02,-12.2333333,16.8833333
calembe,,05,-9.3833333,15.0666667
calembe,,08,-11.9666667,16.0666667
calembe,,14,-11.9666667,22.6
calembi cassambi,,12,-8.7666667,17.25
calembo,,08,-12.0666667,15.1666667
calenda,,15,-7.7833333,15.9166667
calenda,,17,-8.55,17.7666667
calende,,02,-12.6,16.6333333
calenga,,04,-16.7333333,18.5166667
calenga,,08,-12.8458333,15.4708333
calenga,,09,-13.8666667,15.0166667
calenga,,14,-11.2,23.9
calenga cazucama,,05,-8.65,14.95
calengo,,14,-12.9333333,18.3166667
calengo,,17,-8.0666667,18.3166667
calengue,,01,-12.3,14.1333333
calengue,,05,-9.5166667,14.3666667
calengue,,09,-14.0333333,16.3166667
calengue,,19,-8.9305556,13.6891667
calenguele i,,08,-12.9411111,15.5727778
calenguele ii,,08,-12.9522222,15.5761111
calenguer,,01,-12.7333333,14.6666667
calenguere,,01,-12.7333333,14.6666667
calenque,,05,-9.5166667,14.3666667
calepa,,12,-9.5555556,16.3544444
calepe,,08,-12.05,15.1833333
calepi,,09,-13.8666667,14.5
calesse,,08,-12.2,15.2
calevo,,14,-12.1166667,23.6166667
calia,,08,-12.7591667,15.5175
calia mbilingo,,08,-12.7408333,15.5194444
calia pilinho,,08,-12.7491667,15.5372222
calibala,,17,-8.05,18.7166667
calicoque,,08,-12.7186111,15.6730556
calila,,06,-11.3166667,14.9
calileia,,08,-11.7,15.95
calilongai,,08,-11.9666667,15.4833333
calilongue,,08,-12.8430556,15.5783333
calimbula,,18,-10.3333333,21.95
calindo,,01,-12.8166667,14.6666667
calinha,,06,-11.4,15.2166667
calinho,,01,-12.5333333,14.9833333
caliongo,,08,-12.7288889,15.6266667
calipa,,18,-10.5666667,21.7
calipi,,08,-13.0208333,15.7116667
caliponte,,08,-12.2166667,16.2166667
calique,,01,-13.5333333,14.8166667
calique,,08,-11.8333333,15.5833333
caliueque,,06,-11.5333333,14.75
caliueque,,08,-12.4333333,15.4833333
caliva,,02,-13.15,17.1833333
calmango,,06,-11.3666667,15.2
caloa,,04,-17.5333333,21.1833333
calobombo,,08,-12.7333333,15.35
calochapa,,01,-12.0225,13.9513889
calocolo,,15,-7.6833333,15.5666667
caloeio,,01,-11.95,14.4166667
caloejo,,01,-12.4352778,13.9033333
caloenge,,08,-11.95,16.25
calohombo,,05,-8.7333333,14.8166667
calola,,04,-16.5166667,17.8166667
calolo,,04,-16.8166667,19.2
calolo,,05,-9.1833333,14.9666667
calomanda,,08,-12.8655556,15.4875
calomanda i,,08,-12.8983333,15.4422222
calomanda ii,,08,-12.8730556,15.4933333
calomanda iii,,08,-12.8655556,15.4875
calomapala,,08,-12.9666667,14.9166667
calomba,,08,-12.0166667,16.0
calomba,,14,-11.3166667,21.2333333
calombe,,05,-9.1333333,15.0333333
calombe,,06,-10.0,15.15
calombe,,08,-12.0166667,16.0
calombeu,,08,-11.8166667,15.6
calombinga,,14,-11.7166667,20.4333333
calomboca,,14,-11.5333333,20.7
calombo,,06,-11.35,15.7666667
calombo,,08,-12.6141667,15.4930556
calomboloca,,19,-9.15,13.8333333
calombolo,,01,-12.7227778,13.0780556
calombue,,01,-12.6166667,14.4
calombula,,01,-12.7,14.5
calometi,,01,-12.6166667,14.6666667
calomo,,14,-12.9,21.85
calonda,,17,-8.4666667,20.55
calondala,,08,-12.85,15.8833333
calondimba,,08,-12.1,15.05
calonga,,08,-12.5833333,15.7
calonga,,09,-15.7666667,15.2833333
calonga ii,,08,-12.5702778,15.6958333
calongo,,01,-12.5666667,14.2333333
calongo,,09,-14.0666667,14.8
calongo,,12,-9.4461111,16.4758333
calongola,,08,-11.8333333,15.7166667
calongolola,,08,-11.8333333,15.7166667
calongondjo,,08,-13.1113889,15.6425
calongue,,06,-11.55,14.2166667
calongue,,08,-12.5666667,15.2666667
calongunda,,08,-12.05,15.3166667
calonquela,,06,-11.55,14.2166667
calonunce,,08,-12.9580556,15.2844444
calonundo caluhue,,08,-12.8552778,15.6027778
calonussi,,08,-12.9847222,15.3208333
calope,,01,-12.9,14.0333333
calopiongo,,08,-12.3833333,15.2
caloquembe,,08,-12.85,15.0666667
calossinga,,02,-11.3166667,16.2
calossombecua,,01,-12.6133333,13.4316667
caloto,,05,-8.95,14.5833333
calotui,,08,-11.8,15.6333333
calovango,,07,-16.4666667,14.3166667
calpiongo,,08,-12.3833333,15.2
caluache,,08,-12.7,15.1833333
caluache,,14,-11.4833333,23.6833333
caluanda,,02,-13.6166667,17.3
caluanga,,08,-12.0333333,15.3166667
caluanga,,17,-8.2666667,19.7
caluango,,06,-11.5833333,14.6666667
caluango,,14,-11.5166667,23.0166667
caluango,,17,-8.2666667,19.7
caluata,,17,-9.5166667,19.4833333
calubango,,07,-16.4666667,14.3166667
caluca,,16,-6.7666667,14.1833333
calucala,,01,-13.65,13.5
calucamba,,08,-11.5666667,15.4833333
calucia,,08,-12.9333333,15.6333333
calucinga,,02,-11.3166667,16.2
calucula,,01,-12.9,14.0833333
calucula,,04,-16.8833333,18.1666667
calucula,,17,-9.6833333,19.0166667
calucuta,,04,-16.8833333,18.1666667
calucuta,,17,-9.6833333,19.0166667
calue,,18,-11.2166667,19.7833333
caluehimba,,01,-12.6166667,14.9
calueio,,08,-11.8666667,15.9
calueio,,09,-13.5,16.2
calueio do matunto,,09,-15.3666667,15.2666667
caluembe,,17,-7.4166667,20.55
calueque,,07,-16.75,15.1166667
calueto-cambande,,12,-8.6666667,16.8333333
caluhi,,12,-9.6,15.9666667
caluia,,12,-9.4263889,16.4208333
calui,,01,-12.5,14.1333333
caluieva,,04,-17.6833333,18.7
caluima,,01,-12.3666667,14.6166667
caluimbe,,02,-11.8333333,17.7
caluimbe,,17,-7.5,20.6666667
caluita,,01,-12.3666667,14.6166667
caluita,,06,-11.9,14.9833333
calujania,,01,-12.3627778,13.7827778
calulai,,05,-9.25,15.0
calulavela,,02,-11.8,17.2333333
calulo,,06,-10.0,14.9
calulos,,01,-11.95,14.4166667
calumanda,,08,-13.2080556,15.6694444
calumba,,04,-16.5,19.05
calumba,,05,-8.6333333,14.6833333
calumba,,08,-12.5955556,15.3358333
calumba,,12,-9.3666667,15.9333333
calumba,,19,-10.2,13.55
calumba i,,08,-12.5955556,15.3358333
calumbeu,,08,-11.8166667,15.6
calumbi,,05,-9.1333333,15.2333333
calumbinga,,09,-14.8666667,14.8666667
calumbingo,,09,-14.8666667,14.8666667
calumbo,,10,-9.15,13.4166667
calumbo,,15,-7.6833333,15.1166667
calumboloca,,19,-9.15,13.8333333
calumbuca,,08,-12.1166667,15.4333333
calumbulua,,06,-11.6333333,14.7
calumbunze,,19,-9.0666667,13.7166667
calumiapia,,08,-12.6,15.6
calumuna,,17,-7.3333333,21.65
calunda,,14,-11.1,23.8333333
calunda,,19,-10.0,14.1333333
calundanga de baixo,,12,-9.5772222,16.2561111
calundanga de cima,,12,-9.59,16.2625
calundango,,09,-13.9166667,14.7333333
calundau,,14,-12.0666667,19.2
calundo,,01,-12.3666667,14.2333333
calundo,,06,-11.1666667,14.2166667
calundo,,19,-10.0,14.1333333
calunga cahiunga,,05,-8.75,14.8333333
calunga-caiumba,,05,-8.75,14.8333333
calunga,,04,-16.5,19.8833333
calunga,,05,-9.0666667,14.5166667
calunga,,06,-9.9666667,15.75
calunga,,14,-11.6833333,20.85
calunga,,15,-7.5333333,15.85
calunga,,17,-10.1,18.4666667
calunga,,18,-10.8833333,20.45
calunga cameia,,14,-11.6833333,20.85
calunga cazucama,,05,-8.65,14.95
calungangana,,12,-10.6166667,16.65
calunga-samba,,19,-8.0833333,14.5333333
calungo,,08,-13.0955556,15.5836111
calungo cameia,,14,-11.6833333,20.85
calungo iungo,,04,-15.0,18.2833333
calungo lungo,,04,-15.0,18.2833333
calungue,,01,-12.665,13.7919444
calungula,,05,-9.0833333,14.55
calungula,,17,-7.8,19.4333333
calungulo,,05,-9.0833333,14.55
caluntele,,01,-11.9594444,13.9977778
caluoca,,12,-9.6930556,16.1730556
caluombolo,,09,-13.8666667,15.25
calupeleca,,01,-12.9791667,13.8927778
calupele,,01,-12.3166667,14.2333333
calupemba,,14,-12.1333333,19.8833333
calupenha,,04,-17.8166667,19.25
caluper,,01,-12.9666667,14.2166667
calupo,,04,-17.8166667,19.25
caluponde,,08,-12.5666667,15.35
calupoteca,,02,-13.35,17.15
calupuca,,01,-12.4166667,14.35
caluquele,,01,-12.7333333,14.6666667
caluquembe,,08,-12.85,15.0666667
caluquembe,30305,09,-13.7833333,14.6833333
caluquembo,,09,-13.7833333,14.6833333
caluqueme,,09,-13.9,14.9666667
caluquemo,,09,-13.7833333,14.6833333
caluri,,09,-14.0,14.7833333
calussamba,,08,-11.5666667,15.4833333
calussinda,,02,-12.0333333,17.0833333
caluto,,14,-12.25,22.95
caluviavili,,08,-13.0233333,15.6597222
calvario,,01,-12.45,14.35
calvita,,06,-11.9,14.9833333
camabatela,12839,05,-8.1833333,15.3666667
camabela,,05,-8.9666667,14.5833333
camabol,,12,-9.1166667,15.7333333
camabole,,12,-9.1166667,15.7333333
camabuco,,17,-8.4333333,20.8
camabumba,,17,-7.3333333,21.65
camaca,,01,-12.55,14.2333333
camaca,,12,-9.8833333,16.3
cama,,04,-15.8166667,20.8333333
cama,,16,-5.9,14.1
camachica,,12,-9.3,15.6166667
camachi,,18,-9.6666667,21.8333333
camacho,,08,-11.9833333,15.3833333
camacolo,,12,-9.5844444,16.2288889
camacondeca,,12,-9.6097222,16.3783333
cama-congo,,14,-11.45,22.1666667
camacuio,,13,-14.1166667,13.25
camacundua,,12,-9.7066667,16.2763889
camacupa,19150,02,-12.0166667,17.4833333
camacuri,,05,-9.25,14.8
camafota,,17,-7.5333333,19.5
camahachi,,12,-9.475,16.3988889
camahoho,,12,-9.4333333,15.6666667
camaia,,17,-8.05,21.0666667
camala,,12,-11.15,17.6
camalamba,,14,-11.8,23.05
camalanca,,01,-12.85,14.1166667
camalanca,,06,-11.75,15.3166667
camalanga,,12,-9.4155556,16.4041667
camalanga cambaxi,,12,-9.3941667,16.4547222
camalende,,12,-9.5816667,16.2758333
camalonga,,12,-9.2983333,16.3825
camalongo,,12,-8.4666667,15.8833333
camalunga,,15,-7.2666667,16.4
camama,,10,-8.9344444,13.2638889
camambombo,,12,-9.4177778,16.3216667
camame,,05,-8.9833333,14.9833333
camamua,,17,-8.55,18.6333333
camana bande,,12,-8.2833333,16.9166667
camana,,09,-14.8833333,14.1166667
camana,,10,-9.0666667,13.3666667
camana,,12,-11.15,17.6
camana,,15,-7.5666667,15.1166667
camanacasa,,02,-11.4333333,18.55
camanacasa,,12,-10.9,19.0
camana ganga,,12,-8.3,16.9
camanda,,06,-11.6666667,14.8166667
camanda,,08,-11.6833333,16.0
camandacata,,14,-15.1666667,21.3833333
camanga,,08,-13.5333333,15.4333333
camanja,,06,-11.6833333,14.3333333
camano,,14,-11.4666667,23.0833333
camanongue,,14,-11.2833333,20.4
camante,,05,-9.0,14.9666667
camanua,,17,-8.55,18.6333333
camanvela,,15,-6.4166667,15.7666667
camanza,,06,-11.6833333,14.3333333
camaondeo,,08,-11.9666667,15.7666667
camaondio,,08,-11.9666667,15.7666667
camariorio,,12,-9.7036111,16.3338889
camaritare,,05,-8.5666667,14.8833333
camassoco,,12,-9.3869444,16.3991667
camata,,12,-9.0666667,15.9666667
camatambo,,15,-6.5,15.3166667
camatanga,,12,-11.1666667,18.8666667
camatemo,,12,-9.3675,16.2827778
camatenda,,08,-12.6666667,15.0166667
camatete,,12,-9.5841667,16.4288889
camatoa,,12,-9.6302778,16.01
camaua,,12,-9.1,15.9666667
camaue,,12,-9.1,15.9666667
camava,,09,-14.8833333,14.1166667
camavo,,18,-10.3,20.8333333
camaxalala,,12,-9.5944444,16.4866667
camaxil,,17,-8.3333333,18.9166667
camaxilo,,17,-8.3333333,18.9166667
cambaba,,05,-8.6666667,15.1833333
cambaba,,14,-13.2333333,20.6166667
cambaca,,06,-10.15,15.8333333
cambacache,,17,-9.45,19.2166667
camba,,03,-5.6166667,12.3
camba,,06,-11.6,14.2333333
camba,,07,-16.2666667,15.25
camba,,08,-11.9833333,15.5166667
camba,,15,-7.2166667,14.4666667
camba,,16,-6.4833333,14.35
camba,,17,-8.2666667,20.5333333
cambacanungo,,17,-9.8833333,19.2
camba cassai,,17,-9.7833333,19.15
camba catala,,17,-7.5333333,20.9166667
cambacatata,,17,-7.5333333,20.9166667
camba-catembo,,17,-7.9666667,20.4
cambachoco,,14,-11.6333333,19.7666667
cambacoco,,17,-9.8833333,19.2666667
cambacori,,17,-8.35,18.6833333
cambacumba,,17,-7.5666667,20.0333333
cambadacata,,14,-15.1666667,21.3833333
camba fota,,17,-7.3833333,19.8833333
cambala,,05,-9.3,15.3
cambala,,06,-10.95,14.0333333
cambala,,08,-11.5833333,15.35
cambala,,15,-7.4666667,14.9166667
cambala,,17,-9.2,17.9166667
cambala cangongo,,17,-9.4,17.5
cambala-quilombo,,17,-9.2,17.9166667
cambale,,05,-9.2666667,14.75
cambale,,19,-9.4333333,13.65
cambalo,,06,-10.95,14.0333333
cambalombo,,08,-13.2202778,15.6597222
cambamareque,,14,-14.1333333,20.1
cambamba,,01,-13.0333333,13.75
cambamba,,05,-8.6666667,15.1833333
cambamba,,08,-11.9833333,15.6833333
cambamba,,12,-7.6333333,16.9666667
cambamba,,14,-15.8166667,21.7
cambamba,,15,-8.15,14.7666667
cambambe,,05,-9.75,14.5
cambambe,,06,-11.0,14.55
cambambe,,08,-12.1833333,15.0166667
cambambe,,12,-7.6333333,16.9666667
cambambe,,14,-13.4166667,19.3
cambambe,,17,-8.3666667,17.6833333
cambambi,,01,-12.4175,13.5472222
cambambi,,06,-11.0,14.55
cambambi,,19,-8.5805556,13.6372222
cambambo,,08,-12.5333333,15.8666667
cambambua,,08,-12.9697222,15.4897222
cambambuela,,18,-10.4333333,18.65
camba muhongo,,17,-9.8833333,19.2
cambanda,,02,-13.0333333,16.7666667
cambanda,,08,-12.0,15.3166667
cambandagolo,,01,-13.35,14.4
cambandua,,02,-12.5166667,17.3333333
cambanga,,01,-12.1333333,14.0833333
cambanga,,08,-12.7333333,15.9333333
cambangala,,17,-8.6166667,17.6
cambange,,01,-12.5588889,13.9658333
cambangela,,01,-12.5741667,13.4522222
cambango,,02,-11.8333333,16.5333333
cambango,,05,-9.3833333,14.85
cambango vila estrela,,02,-11.8333333,16.5333333
cambangunge,,17,-9.2333333,19.45
cambanve,,12,-9.5261111,16.1427778
cambanzumbe,,17,-8.2166667,20.2333333
cambau,,06,-10.0833333,15.2166667
cambaxi,,12,-9.4172222,16.4925
cambege,,15,-8.3166667,14.7666667
cambela,,05,-9.2666667,14.75
cambeluca,,04,-17.95,21.0333333
cambembe,,02,-11.3833333,17.8333333
cambembua,,08,-12.9697222,15.4897222
cambembua ii,,08,-12.9244444,15.2813889
cambende,,12,-9.7,15.3166667
cambendie,,08,-12.0166667,15.4666667
cambenje,,08,-12.0166667,15.4666667
cambeno,,13,-16.9666667,12.6
camberuca,,04,-17.95,21.0333333
cambia,,08,-12.4833333,15.4
cambi,,16,-6.0666667,14.3833333
cambiete,,01,-12.6166667,14.9333333
cambije,,08,-11.8166667,15.4
cambije,,15,-7.25,16.3166667
cambila,,14,-11.7,20.4
cambimbe,,06,-11.4,14.6
cambinda,,02,-13.4166667,16.5666667
cambinda,,04,-16.1,17.65
cambinda,,06,-10.5,14.1333333
cambinda,,08,-12.1,15.5166667
cambinda,,14,-14.1,21.9333333
cambinda cunene,,08,-13.5166667,15.8166667
cambindje,,01,-12.8333333,14.15
cambinga,,02,-12.8333333,17.0
cambingo,,02,-12.8333333,17.0
cambingo,,06,-9.8333333,14.5666667
cambirima,,14,-12.9833333,23.2
cambisa,,09,-15.3166667,16.2166667
cambita,,14,-14.9,20.3
cambobota,,17,-8.0166667,19.1833333
cambo camana,,12,-8.8166667,16.7833333
cambo,,07,-16.2666667,15.25
cambo,,16,-6.8333333,14.1
cambo,,18,-10.9166667,20.1
cambo,,19,-10.1,13.9833333
cambo canana,,12,-8.85,16.6333333
cambocha,,08,-11.7666667,15.9666667
cambocio,,08,-11.7666667,15.9666667
camboe,,14,-12.8666667,22.75
camboi,,14,-12.6166667,22.5666667
cambole,,09,-14.0666667,16.4166667
cambolo,,01,-12.5888889,13.2847222
cambolo,,12,-8.9333333,15.8666667
cambolo,,17,-9.2666667,18.3
cambolo cangonga,,17,-9.4,17.5
cambomba,,12,-9.4833333,16.1833333
cambombo,,14,-15.2833333,21.5666667
cambondo,,01,-12.4122222,13.9194444
cambondo,,05,-9.1666667,14.6666667
cambondo,,08,-12.35,15.2
cambondo,,12,-9.6469444,16.3327778
cambondo,,19,-9.5166667,14.1
cambondongolo,,01,-13.35,14.4
cambongo,,02,-11.8333333,16.5333333
cambongua,,02,-11.9833333,17.9166667
cambongue,,06,-11.5833333,14.9666667
cambongue,,08,-12.8488889,15.5991667
cambongue,,13,-15.0166667,12.9166667
cambooque,,06,-11.5833333,14.9666667
camboto,,06,-11.7166667,14.6333333
cambrinco,,08,-12.4833333,15.9666667
cambuale,,19,-8.65,13.8
cambuate,,19,-8.65,13.8
cambuco,,14,-14.4,21.65
cambuende,,18,-10.9666667,19.4666667
cambuengo,,02,-11.8333333,16.5333333
cambueta,,15,-7.8833333,15.95
cambuete,,15,-7.8833333,15.95
cambuinda,,01,-12.2811111,13.9275
cambuinda,,06,-11.6666667,15.3333333
cambuio,,08,-12.65,15.9333333
cambuizo,,17,-9.4333333,17.7166667
cambula,,06,-10.8,14.7666667
cambula,,14,-11.7,20.4
cambula,,15,-6.5166667,16.6833333
cambulaco,,01,-11.9688889,13.9711111
cambulo,,14,-12.9166667,23.3666667
cambulo,,17,-7.75,21.25
cambulo novo,,08,-13.0611111,15.2683333
cambumba,,05,-9.2166667,15.0
cambumbe,,12,-9.2886111,16.2883333
cambumbo,,05,-9.2166667,15.0
cambundi-catembo,,12,-10.0666667,17.55
cambundo,,01,-12.2833333,14.25
cambundo,,17,-7.0666667,20.2
cambungo,,04,-17.9666667,20.9166667
cambungo,,06,-10.3333333,14.3333333
cambungo,,14,-13.7166667,20.1666667
cambunze,,12,-9.1,15.7833333
cambunzo,,12,-9.75,15.8666667
camburi,,12,-9.35,16.6166667
cambuta,,02,-12.3166667,17.35
cambuta,,05,-8.5666667,14.8833333
cambuta,,08,-12.2666667,15.3333333
cambuta,,14,-12.95,18.95
camedongo,,04,-15.3666667,19.7666667
camegeto,,15,-7.4333333,15.9666667
cameia,,04,-14.9333333,19.3
cameia,,14,-11.55,20.7833333
cameia,,17,-8.05,21.0666667
camela,,06,-11.8166667,15.1333333
camelege,,05,-9.0833333,15.5333333
camelembo,,19,-8.5166667,14.0
camembe,,12,-9.4166667,15.7
camena,,08,-12.05,15.6333333
camenga,,14,-11.7,23.7166667
camenha,,04,-17.2833333,19.75
camenha,,05,-9.0,14.9666667
camenhe,,04,-17.2833333,19.75
camenhe,,08,-12.2666667,15.4166667
camenongue,,14,-11.2833333,20.4
camepo,,08,-12.2833333,15.0666667
camera,,01,-12.7166667,14.7666667
camera,,02,-12.6666667,16.55
camera,,06,-11.8166667,15.1333333
camera,,08,-12.05,15.6333333
cameria,,12,-8.6,15.7
camesso,,05,-8.4,15.7333333
camete,,08,-11.6166667,15.6333333
cameti,,01,-12.9666667,14.3333333
cameto cambande,,12,-8.6666667,16.8333333
camibaco,,12,-9.5138889,16.2438889
camibundo,,17,-9.2666667,19.8333333
camicuio,,09,-13.9166667,14.65
camicula,,12,-9.2702778,16.3702778
camicuso,,12,-9.5013889,16.0913889
camieje,,17,-9.4333333,17.7166667
camigo,,12,-9.1333333,15.7166667
camihamba i,,08,-12.9,15.5697222
camihamba ii,,08,-12.9161111,15.5708333
camilege,,05,-9.0833333,15.5333333
camilemba,,12,-9.3463889,16.4758333
camilende,,12,-9.5941667,16.0986111
camilomba,,18,-10.4333333,20.5666667
camilongo,,05,-9.1333333,14.8333333
camilunga,,13,-15.8,12.1
camilungo,,05,-9.1333333,14.8333333
camilungo,,12,-9.3,15.9333333
caminanga,,12,-8.9,16.4333333
camingur,,02,-13.05,17.0333333
caminguri,,02,-13.05,17.0333333
camisage,,12,-9.5430556,16.2705556
camisamba,,14,-12.0,19.3333333
camisombo,,17,-8.15,20.65
camissamba,,08,-12.0833333,15.8
camissanga,,08,-12.0833333,15.8
camissevo,,14,-12.9166667,21.25
camissoche,,12,-9.2333333,15.65
camissoge,,12,-9.6011111,16.3625
camissombo,,12,-9.6133333,16.3155556
camissombo,,17,-8.15,20.65
camissongo,,17,-8.15,20.65
camitala,,05,-8.8833333,14.7666667
camitange,,14,-12.1333333,19.1333333
camitobo,,12,-9.6322222,16.3091667
camituto,,12,-9.3780556,16.4519444
camizalela,,12,-9.4736111,16.4338889
camizombe,,12,-9.0666667,15.95
camizue,,12,-9.6319444,16.2483333
camizumbo,,19,-9.05,13.65
camizungo,,19,-9.05,13.65
camizunzo,,19,-9.05,13.65
camjongo,,08,-11.7,15.5833333
camochilo,,02,-12.2,18.55
camocho,,14,-11.7833333,23.5166667
camoco,,01,-12.4347222,13.9433333
camoco,,02,-12.6333333,16.4833333
camoeia,,12,-9.1833333,15.7333333
camoge,,18,-10.1666667,22.1666667
camoio,,17,-7.8,21.6166667
camoje,,17,-7.4,19.6333333
camoma,,05,-9.3,15.05
camone,,01,-12.5,14.3
camonga,,08,-13.35,15.7333333
camongoa,,05,-9.5333333,14.3666667
camongo,,05,-8.3833333,15.35
camongo,,08,-13.35,15.7333333
camongua,,05,-8.5333333,14.9666667
camongua,,12,-9.25,15.4833333
camongue,,05,-8.9333333,15.6166667
camono,,14,-11.9166667,19.0
camora,,02,-13.2333333,17.2
camoringue,,01,-12.4275,13.6505556
camota,,08,-12.2333333,15.0166667
camotxa,,14,-11.7833333,23.5166667
camoxilo,,02,-12.2,18.55
campa,,17,-7.9,21.0666667
campanga,,09,-16.0666667,13.75
campingana,,08,-12.8333333,15.9166667
campo,,05,-9.5,14.35
campo de aviacao de toto,,15,-7.15,14.2666667
campone,,01,-12.5,14.3
campopolo,,17,-7.5666667,20.0333333
campos,,08,-12.7,15.9166667
campulo,,09,-15.2333333,16.1166667
camuache,,05,-9.2333333,15.0333333
camuachi,,05,-9.2333333,15.0333333
camuaji,,18,-10.1666667,22.1666667
camuanassala,,19,-8.05,14.2166667
camuanda,,17,-8.05,21.4
camuanga,,12,-9.7186111,16.1538889
camuanga,,14,-12.75,23.65
camuanga,,15,-6.65,16.6833333
camuanga,,17,-7.1,19.6833333
camuanga,,18,-10.0833333,20.1166667
camuanha,,14,-14.65,20.7333333
camuanho,,14,-14.65,20.7333333
camuchi,,12,-9.4538889,16.4636111
camuchito,,05,-9.3666667,14.7666667
camucola,,04,-15.5333333,19.8
camucua,,01,-12.7875,13.0030556
camucua,,09,-13.9166667,14.65
camucuio,,09,-13.9166667,14.65
camucuio,,13,-14.1166667,13.25
camue,,02,-13.8,16.9666667
camue,,04,-14.4166667,16.9
camuege,,17,-9.4333333,17.7166667
camueia,,06,-9.8,15.25
camueia,,12,-9.1833333,15.7333333
camueia muhunzo,,12,-9.3925,16.2563889
camueje,,17,-9.4333333,17.7166667
camuhala,,05,-8.9833333,14.9
camuhongo,,05,-8.3833333,15.35
camuioio,,04,-15.6333333,19.1
camulengo,,15,-7.2333333,16.2333333
camulo,,06,-10.8,13.9166667
camuma,,01,-12.8,14.15
camumbir,,09,-15.4666667,13.8
camumbire,,09,-15.4666667,13.8
camumulo,,08,-11.6166667,15.6666667
camunda,,01,-12.6013889,13.4166667
camunda,,08,-12.9002778,15.5447222
camundai,,05,-9.3166667,14.9
camundende,,12,-9.6166667,15.5666667
camundongo,,14,-11.55,23.1833333
camungamba,,08,-11.9166667,15.9833333
camungo,,12,-8.9333333,15.9666667
camunica,,01,-12.95,14.0833333
camunima,,14,-15.2833333,21.5833333
camunina,,14,-15.2833333,21.5833333
camupa,,01,-12.0052778,13.8813889
camussache,,05,-9.0333333,15.2833333
camussaxe,,05,-9.0333333,15.2833333
camussaxi,,05,-9.0333333,15.2833333
camuto,,06,-10.8,13.9166667
camuto,,15,-7.95,15.05
camuxilo,,02,-11.9333333,17.8
canacajungo,,05,-8.1666667,15.2666667
cana,,16,-6.7833333,13.4166667
canacanjungo,,05,-8.1666667,15.2666667
canacassala,,19,-8.15,14.15
canacupa,,17,-9.8666667,18.7
canala,,08,-12.825,15.505
canamba,,06,-11.1166667,14.2666667
canambo,,15,-6.1666667,16.5333333
canambua,,12,-9.5522222,16.3602778
canana,,02,-11.9166667,18.0333333
canana,,08,-12.6166667,15.2166667
cananda,,08,-12.7333333,15.0333333
canandua,,12,-9.6666667,15.5666667
cananga,,19,-8.89,13.5705556
cananxo,,15,-6.1666667,16.5333333
canata,,01,-12.3572222,13.575
canata,,02,-11.6166667,16.65
canaveses,,01,-12.9833333,14.3666667
canbanga,,06,-11.85,15.0166667
canbumala,,08,-11.6666667,15.6166667
canca,,15,-6.85,14.95
canca,,16,-6.35,14.7166667
cancado,,06,-11.0833333,15.4166667
canchindor,,08,-12.3833333,15.4833333
cancundo,,15,-7.7666667,15.2333333
canda,,15,-6.4333333,15.5833333
canda,,16,-6.3666667,14.7833333
candaela,,12,-9.4833333,15.75
candaera,,12,-9.4833333,15.75
candala,,14,-12.2333333,23.1
candamba,,15,-7.6833333,15.5666667
candambula,,01,-12.8833333,14.1666667
candana,,04,-17.55,18.5666667
candande,,08,-12.1,15.7666667
candande,,15,-7.55,15.0333333
candando,,14,-12.8166667,21.0333333
candange,,08,-12.6333333,15.2333333
candange,,12,-9.6,15.6666667
candange,,19,-9.7,14.4166667
candangunda,,12,-10.6166667,16.65
candangundo,,12,-10.6166667,16.65
candanjoemba,,18,-10.2666667,19.0166667
candeeiro,,01,-12.8705556,13.9727778
candel,,06,-11.55,14.1666667
candele,,06,-11.4666667,14.1666667
candeleia,,08,-12.0833333,15.1166667
candelela,,04,-16.4666667,17.8
candemba antiga,,08,-11.8,15.45
candemba,,06,-9.8833333,14.5333333
candende,,05,-9.3,15.3
candende,,08,-12.0,15.7833333
candende,,12,-9.3941667,16.4872222
candengue,,15,-8.0166667,15.5333333
candeno,,12,-9.5422222,16.2808333
candereia,,08,-12.0833333,15.1166667
candiango,,04,-17.4333333,19.9833333
candiarite,,01,-12.4,14.4
candiata,,06,-11.65,14.7833333
candida,,08,-11.7166667,15.6333333
candidila,,08,-11.9,15.6666667
candimba,,04,-16.5833333,17.85
candimba,,06,-10.5,14.1333333
candimbe,,08,-12.1166667,15.5666667
candimbi,,08,-12.1166667,15.5666667
candingo,,02,-13.2,16.7666667
candingo,,04,-14.3333333,17.1833333
candingo,,08,-12.7408333,15.4719444
candingo,,09,-14.5166667,16.0
candingo i,,08,-12.7408333,15.4719444
candingo ii,,08,-12.5413889,15.4791667
candingo iii,,08,-12.535,15.445
candionja,,08,-12.5177778,15.5797222
candiundio,,08,-12.6833333,14.8833333
candjamba,,08,-12.6083333,15.3994444
candjambo,,01,-12.15,14.0166667
candjandja,,08,-12.5177778,15.5797222
candjangui,,08,-12.5066667,15.4555556
candjangui ii,,08,-12.6288889,15.4361111
candjila,,08,-12.995,15.3319444
candjimbe,,08,-12.2666667,15.2833333
candjungo,,01,-12.6333333,14.1833333
cando,,01,-12.8613889,13.0541667
cando,,04,-16.5,18.3166667
cando,,15,-7.2833333,14.1333333
cando,,16,-6.0166667,14.7
cando,,19,-9.8666667,14.3333333
candoeira,,02,-11.6166667,18.4666667
candomba,,08,-11.8,15.45
candombe,,01,-12.8436111,13.7191667
candondelo,,08,-13.1908333,15.6872222
candondo,,04,-17.4333333,19.9833333
candonga,,04,-15.9,19.0166667
candongo,,01,-12.3333333,14.1833333
candongo,,09,-15.1333333,16.0166667
candongo,,12,-9.6166667,15.65
candua,,12,-9.0666667,15.95
canduca,,15,-7.9166667,15.5166667
canduco,,09,-13.5833333,14.9333333
candumba,,12,-9.0166667,15.65
candumba,,19,-10.2666667,14.1
candumbo,,01,-12.6166667,14.1
candumbo,,06,-10.2333333,15.2
candumbo,,19,-10.2666667,14.1
candungo,,06,-11.7333333,13.8
candungo,,09,-13.9333333,15.7333333
canea,,08,-11.6833333,15.5666667
caneco,,01,-12.5,14.3
canega,,14,-14.4,21.6666667
canema,,06,-10.8833333,14.9166667
canenga,,14,-12.6666667,23.2833333
canequctcra,,04,-15.2166667,17.2333333
canequetcra,,04,-15.2166667,17.2333333
canequetera,,04,-15.2166667,17.2333333
canera,,08,-12.2166667,15.0666667
caneva,,06,-11.8166667,14.85
canga,,07,-16.4333333,14.95
canga,,16,-5.95,14.2333333
canga,,17,-8.5833333,17.7833333
cangaio,,14,-13.7,19.5
cangala,,02,-12.5666667,16.55
cangala,,12,-9.5694444,16.1030556
cangalo,,02,-11.9,16.6666667
cangalongue,,09,-15.2666667,13.4666667
cangalungo,,05,-8.9,14.6833333
cangamba,,14,-13.6833333,19.8666667
cangambe,,14,-14.3666667,21.9
cangambo,,05,-8.9,15.6333333
cangambo,,12,-9.5647222,16.3108333
canganda,,08,-13.2833333,16.0833333
cangandala,,12,-9.7833333,16.4333333
cangando,,05,-9.1166667,15.4166667
cangando,,12,-9.5880556,16.2205556
canganga,,12,-9.0833333,15.8
cangati,,04,-15.5833333,19.95
cangato,,08,-12.2,15.9166667
cange,,12,-9.2652778,16.4141667
cange,,17,-8.1,18.15
cangenge,,02,-11.9333333,17.0666667
cangenge,,17,-7.0333333,19.5833333
cangengo,,02,-11.9333333,17.0666667
cangeoue,,13,-15.2,12.1166667
cangeque,,13,-15.2,12.1166667
cangerere,,04,-16.4666667,17.8
cangeto,,08,-12.2,15.9166667
cangi,,17,-8.5833333,17.7833333
cangimo,,04,-17.9333333,20.4833333
cangindongo,,12,-9.45,15.85
canginge,,18,-10.15,21.2
cangir,,08,-12.45,15.7
cangoa,,01,-12.8166667,14.1333333
cangoa,,14,-12.9,18.3833333
cango,,19,-9.25,13.7333333
cangoche,,14,-11.3666667,22.2333333
cangoia,,01,-12.55,14.2166667
cangola,,12,-9.6427778,16.1877778
cangola,,15,-7.95,15.8833333
cangole,,02,-11.7333333,16.5666667
cangolo,,05,-8.9833333,14.8
cangolo,,08,-12.3333333,15.35
cangolo,,09,-14.7166667,15.6833333
cangolo,,12,-9.6427778,16.1877778
cangoma,,08,-11.9,15.7166667
cangombe,,04,-15.6333333,17.4166667
cangombe,,06,-11.2,14.3166667
cangombe,,12,-11.3666667,18.8333333
cangombe,,14,-11.0833333,21.9166667
cangombe,,15,-7.9,14.8166667
cangondo,,04,-14.5833333,16.8
cangondo,,08,-12.9077778,15.2833333
cangondo,,14,-15.2833333,21.5666667
cangone,,19,-9.6333333,14.2166667
cangonga,,08,-12.8127778,15.4988889
cangonga,,14,-12.1333333,18.8
cangongo,,05,-9.4,14.9166667
cangongo,,06,-11.35,15.4333333
cangongo,,08,-12.8127778,15.4988889
cangongo,,17,-9.4,17.5
cangongue,,06,-11.0833333,14.8333333
cangonjo,,08,-12.9166667,15.4833333
cangote,,02,-11.7333333,16.5666667
cangote,,08,-12.0333333,15.4666667
cangoti,,08,-13.0175,15.5444444
canguaio,,02,-12.0,17.4
cangue,,01,-12.8166667,14.7833333
cangue,,15,-6.2833333,15.1166667
canguele,,12,-9.5316667,16.1808333
canguenda,,06,-11.5333333,15.4333333
canguengo,,01,-12.9005556,13.1236111
canguengue,,06,-11.4333333,14.85
canguengue,,08,-12.1,15.7166667
canguia,,04,-16.0666667,19.1833333
canguia,,14,-14.8166667,21.4666667
canguinde,,14,-12.6333333,19.6333333
canguindo,,17,-8.6666667,19.4333333
canguiuve,,06,-11.85,15.1833333
cangula,,15,-6.5166667,16.6833333
cangulo,,15,-7.7,15.2833333
cangumbe,,01,-12.25,14.5333333
cangumbe,,05,-9.2,15.2166667
cangumbe,,06,-11.6333333,14.8333333
cangumbe,,14,-11.95,19.2
cangumbi,,01,-12.25,14.5333333
cangundo,,05,-8.6333333,15.5333333
cangundo,,08,-12.35,15.2666667
cangundo,,12,-8.5333333,17.15
cangundo,,15,-7.7666667,15.2333333
cangunga,,15,-7.7333333,15.9166667
cangungo,,04,-17.5333333,21.2666667
cangungo,,05,-8.5666667,15.2333333
cangungula,,19,-10.1,13.6
cangunza,,17,-9.9833333,18.5333333
cangunza,,19,-9.5333333,14.0333333
canguri,,12,-9.5333333,16.6666667
canhala,,08,-12.6930556,15.5236111
canhala colohombo,,08,-12.6433333,15.4319444
canhalecoloombo,,08,-12.6433333,15.4319444
canhanda,,14,-14.7166667,21.7
canhanga,,06,-11.85,15.0166667
canhanga,,14,-12.0833333,23.75
canhanha,,02,-13.8833333,16.8166667
canhanho,,04,-14.6166667,18.6
canhanho,,14,-14.7166667,21.7
canhaosse,,08,-11.7833333,15.4166667
canhapumba,,18,-10.0833333,19.8166667
canhaua,,04,-16.9666667,18.1166667
canhau,,14,-13.7333333,21.6
canhenhe,,02,-13.8833333,16.8166667
canhetonato,,04,-17.1333333,19.6833333
canheva,,04,-17.3833333,19.9333333
canhige,,15,-7.9,14.5833333
canhima,,14,-11.6833333,22.5666667
canhimbua,,14,-13.2833333,21.1333333
canhique,,15,-7.9,14.5833333
canhoca,,01,-13.4166667,12.55
canhoca,,05,-9.25,14.6833333
canhomala,,08,-11.6666667,15.6166667
canhonda,,04,-18.0,20.85
canhonga,,12,-9.0166667,15.8
canhonga,,19,-8.75,13.8333333
canhongo,,12,-9.0166667,15.8
canhongo,,17,-9.35,17.5666667
canhungonhungo,,09,-15.3,13.55
canhungunhungo,,09,-15.3,13.55
canhuoce,,08,-11.7833333,15.4166667
cania,,04,-14.9333333,19.3
caniangu,,05,-8.6,15.2
caniaque,,08,-11.8,15.6833333
canica,,14,-11.6,19.2
caninda,,06,-11.5166667,15.3333333
caninguir,,02,-12.85,17.2166667
caninguiri,,02,-12.85,17.2166667
caningur,,02,-13.05,17.0333333
canique,,15,-7.9,14.5833333
canjabao,,08,-12.1,15.8666667
canjala,,01,-11.9713889,13.9938889
canjamba,,01,-12.1333333,14.0833333
canjamba,,02,-13.0666667,16.5666667
canjamba,,08,-11.8666667,15.95
canjange,,18,-10.7752778,20.4677778
canjangue,,02,-10.8333333,16.6166667
canjangue,,08,-12.6333333,15.2333333
canjanja,,08,-12.5177778,15.5797222
canje,,12,-9.5561111,16.1341667
canje,,17,-8.1,18.15
canjengo,,02,-11.9333333,17.0666667
canjila,,08,-11.6833333,15.5666667
canjimbe,,08,-12.2833333,15.2833333
canjinge,,18,-10.15,21.2
canjoao,,09,-13.5333333,15.3166667
canjogolo,,04,-14.3833333,19.6
canjole,,09,-13.4,16.2333333
canjombe,,06,-11.5333333,15.4
canjombo,,08,-12.9666667,16.2333333
canjongo,,08,-13.5666667,15.4333333
canjongolo,,04,-14.3833333,19.6
canjonja,,14,-15.3166667,21.3166667
canjuca,,08,-12.2833333,15.3833333
canjumba,,08,-12.7833333,14.8833333
canjumbo,,08,-12.7833333,14.8833333
canjunca,,08,-12.2833333,15.3833333
canjungo,,02,-12.35,17.2
canjungo,,12,-11.3666667,18.2333333
canjunjo,,08,-12.6744444,15.4833333
canlemba,,04,-17.6666667,19.1666667
canoca,,04,-15.05,20.2
cano,,07,-17.1333333,13.8833333
canono,,08,-11.9333333,15.75
cantana,,04,-17.0166667,20.8666667
cantemte,,01,-11.9666667,14.1
canuandundo,,08,-12.35,15.2666667
canuche,,02,-11.6166667,16.5333333
canujovo,,01,-12.55,14.2166667
canuma,,12,-9.1666667,15.5666667
canunga,,14,-11.7,23.7166667
canungo nova,,17,-8.0666667,19.4
canungo novo,,17,-8.0666667,19.4
canuno,,08,-11.9333333,15.75
canuto,,12,-9.7236111,16.4244444
canuxe,,02,-11.6166667,16.5333333
canvuabo,,15,-6.7833333,15.8666667
canvuavo,,15,-6.7166667,15.8666667
canvuca,,12,-9.4666667,16.5833333
canvunge,,05,-9.3,14.6333333
canza,,17,-7.6166667,21.5666667
canza,,18,-9.5,20.9333333
canzaige,,12,-9.2166667,15.5833333
canzar,,17,-7.6166667,21.5666667
canzar,,18,-8.9166667,21.1333333
canzel,,05,-8.3166667,15.1833333
canzele,,05,-8.3166667,15.1833333
canzelela,,17,-7.2333333,20.5333333
canzenze,,12,-9.0666667,15.75
canzi,,16,-6.05,14.4666667
canzole,,05,-8.3166667,15.1833333
canzondo,,05,-9.2333333,15.05
canzongo,,19,-9.55,14.1166667
caoanda,,15,-7.6666667,15.3333333
caoca,,01,-12.6,14.1666667
cao,,09,-14.4,15.2833333
caocua,,08,-12.6333333,15.3333333
caoeu,,02,-12.7833333,17.2666667
caoge,,05,-9.15,15.6166667
caolococe,,05,-9.05,15.2666667
caombo,,01,-12.6333333,14.8833333
caombo,,12,-8.7,16.5166667
caombo,,14,-12.4833333,22.55
caonda,,08,-12.5727778,15.5763889
caondo,,15,-7.35,15.1666667
caonga,,12,-9.35,15.8
caota,,01,-12.5955556,13.2711111
caotinha,,01,-12.59,13.2694444
capacaca,,12,-9.4166667,15.7166667
capaca,,01,-12.95,14.45
capaca,,12,-9.4666667,15.7666667
capaca,,17,-7.3333333,20.05
capa,,08,-12.1666667,15.3
capacata,,08,-12.1,15.1833333
capaco,,01,-12.95,14.45
capaco,,14,-11.3166667,23.5833333
capage,,14,-13.3833333,21.2166667
capaia,,17,-8.3333333,20.2166667
capala,,01,-13.6166667,14.7166667
capala,,09,-13.7,14.7666667
capala,,17,-8.3333333,20.2166667
capalanga,,05,-9.25,14.95
capalanga,,12,-9.6544444,16.1136111
capali,,08,-11.6666667,15.55
capamba,,04,-15.3,19.5833333
capamba,,14,-12.0,23.55
capamba,,18,-10.6666667,20.7
capambo,,04,-15.3,19.5833333
capambo,,05,-9.2333333,14.85
capambunda,,04,-17.4333333,18.5333333
capanda,,06,-12.0,15.1666667
capanda,,08,-12.25,15.6666667
capanda,,12,-11.4166667,17.5833333
capande,,09,-15.65,13.75
capandula,,14,-12.1833333,20.3333333
capanera,,06,-12.05,15.0333333
capanga,,02,-12.5166667,16.8333333
capanga,,06,-10.8166667,14.4666667
capangala,,05,-9.0666667,15.3666667
capange,,01,-12.3769444,13.9702778
capango,,01,-12.3833333,14.8333333
capango,,02,-11.8166667,17.1166667
capango,,06,-11.45,15.3166667
capangombe,,13,-14.9333333,12.9666667
capanguela,,05,-9.2166667,15.05
capanguel,,05,-9.2166667,15.05
capanha,,01,-11.9,13.9833333
capano,,02,-12.9,17.6166667
capaongo,,14,-11.4333333,22.7
capapelo,,01,-12.8666667,14.1333333
capapelo,,04,-17.0833333,19.0833333
capapo,,05,-9.25,15.3333333
caparandanda,,02,-13.0666667,16.5666667
caparolo,,01,-13.3833333,13.8833333
capata,,07,-16.5166667,14.6
capata,,14,-12.8,20.1833333
capataz linha,,12,-9.45,15.8166667
capate,,07,-16.5166667,14.6
capato,,07,-16.5166667,14.6
capatunga,,17,-7.4666667,21.8
capaua,,02,-11.4,17.1166667
capauve,,02,-12.5166667,17.5833333
capeca,,02,-11.8833333,16.85
capechango,,05,-8.6,15.1
capeche,,05,-9.35,14.9333333
capeche,,14,-11.05,23.6333333
capechongo,,05,-8.6,15.1
capeco,,01,-12.4,14.7
capeia,,01,-12.2333333,14.65
capeia,,02,-11.4666667,16.8666667
capeio,,01,-12.2333333,14.65
capeio,,02,-11.4666667,16.8666667
capeio,,06,-11.4333333,14.8833333
capeixe candando,,14,-12.8166667,21.0333333
capela,,05,-9.0833333,14.7666667
capela,,12,-11.4666667,17.4166667
capele,,06,-11.7166667,14.1666667
capele,,09,-13.7,14.7666667
capele,,19,-8.05,14.7
capelengue,,17,-8.9666667,19.7
capelo,,02,-11.55,16.3333333
capelo,,05,-8.7,15.2333333
capelongo,,09,-14.4666667,16.3
capemba,,12,-9.5863889,16.1977778
capemba,,14,-13.2833333,21.1333333
capemba,,17,-9.2,19.5666667
capembe,,01,-12.5666667,14.2333333
capembe,,05,-9.2666667,14.7666667
capembe,,09,-14.4,16.2833333
capembe,,17,-9.2,19.5666667
capembe,,18,-8.7166667,21.1333333
capembe primeiro,,12,-10.1,17.65
capenda camulemba,,17,-9.4166667,18.4333333
capenda,,12,-11.4166667,17.5833333
capenda,,14,-12.1833333,20.3333333
capenda,,17,-9.4166667,18.4333333
capende,,14,-12.1833333,20.3333333
capendi,,04,-17.0833333,18.2166667
capera,,01,-12.7833333,14.3333333
capeso,,05,-8.7833333,15.5
capessa,,02,-11.8833333,16.85
capete,,08,-12.1166667,15.1666667
capeti,,08,-12.1166667,15.1666667
capetungo,,04,-16.25,21.95
capetungo,,17,-7.3333333,21.65
capexe,,14,-14.7166667,21.7833333
capiana,,05,-9.6333333,14.5333333
capichongo,,05,-8.6,15.1
capico,,04,-15.5333333,17.5833333
capieira,,06,-11.0333333,14.3
capila,,08,-12.8783333,15.3611111
capila,,12,-10.9,18.3166667
capilongo,,01,-12.6213889,13.6786111
capinda,,18,-10.1166667,21.1333333
capinde,,02,-13.3166667,16.7333333
capinga,,08,-12.9166667,14.95
capingana,,01,-12.3666667,14.2
capingana,,02,-13.7166667,17.0666667
capingana,,06,-11.8166667,14.7833333
capingana,,08,-11.6333333,15.85
capinganlo,,08,-12.9675,15.455
capiololo,,14,-11.4166667,21.9333333
capira,,01,-12.9833333,14.1833333
capira,,13,-13.7833333,13.1
capir,,06,-10.75,14.3
capiri,,06,-10.75,14.3
capiro,,01,-12.5127778,13.9694444
capita,,02,-12.0166667,17.7
capitango,,02,-11.4166667,17.1833333
capitango,,08,-12.0333333,15.2
capitango,,14,-12.9,21.8
capitanjo,,08,-11.9666667,15.3
capite,,02,-12.0166667,17.7
capitongo,,01,-12.4538889,13.6041667
capoche,,14,-11.7333333,23.1
capoco,,01,-12.5,14.3333333
capoco,,08,-13.2127778,15.6044444
capoco,,09,-13.75,16.2666667
capoco,,15,-6.9,16.8666667
capocolo,,15,-6.9,16.8666667
capolo,,02,-11.55,16.3333333
capolo,,06,-10.3833333,13.9833333
capolo,,08,-12.6861111,15.7061111
capolopopo,,13,-15.9,12.8
capoluera,,09,-15.75,15.2333333
capomba,,01,-12.9833333,14.8666667
capombo,,14,-13.2333333,20.6166667
capombo,,17,-7.4333333,21.3666667
capomoa,,08,-12.2166667,15.2833333
caponda,,05,-8.9833333,14.9333333
caponde,,01,-12.6166667,14.4
capondima,,08,-12.1,15.05
capondola,,14,-12.9166667,23.3666667
capongo,,17,-8.0166667,20.6666667
caponguela,,17,-7.8,21.0666667
caponta,,10,-8.8833333,13.1333333
caponte,,01,-12.2,14.75
capopo,,05,-9.25,15.3333333
capoque,,02,-13.0833333,17.2166667
caporolo,,01,-13.3833333,13.8833333
caposse,,14,-14.7166667,21.7833333
capoulo,,06,-11.2,14.25
capoviri,,08,-12.35,15.1166667
caproloera,,09,-15.75,15.2333333
captia,,02,-12.9333333,17.5833333
captungo,,04,-16.25,21.95
capua,,02,-11.4,17.1166667
capua,,04,-15.6333333,19.7166667
capua,,14,-14.4166667,21.0333333
capuango,,14,-11.1166667,23.9166667
capuca,,06,-12.0166667,15.0833333
capuca i,,04,-17.3666667,21.3
capuca ii,,04,-17.3166667,21.3666667
capuco,,05,-9.2333333,15.0
capudi,,18,-8.85,21.8333333
capula,,08,-13.1,16.15
capula,,09,-15.0833333,16.1166667
capula,,17,-7.7,20.6666667
capule,,08,-13.1,16.15
capulo,,05,-8.5,14.75
capulo,,08,-13.1,16.15
capulo,,19,-7.9666667,13.1833333
capuluta,,14,-13.1,21.15
capuma,,01,-12.5833333,14.85
capuna,,04,-15.6333333,19.7166667
capunda,,01,-12.5166667,14.2833333
capunda,,04,-14.5833333,16.5833333
capunda,,06,-11.1333333,14.4666667
capunda,,09,-14.6166667,15.9666667
capunda,,12,-10.6833333,17.3666667
capunda cavilongo,,09,-14.9666667,13.9833333
capunde,,06,-11.8833333,14.35
capundi,,04,-14.2,18.8833333
capunga,,17,-8.0166667,20.6666667
capunga,,19,-8.6127778,13.6027778
capungo,,05,-9.5333333,14.3666667
capungo,,17,-8.0166667,20.6666667
capungue,,08,-12.9380556,15.4705556
capupa,,01,-13.4333333,14.2833333
capupa,,04,-15.6333333,19.7166667
capupa,,05,-9.3,14.8
capuri,,08,-12.9666667,16.2333333
capurulo,,01,-12.6783333,13.4372222
capussa,,04,-17.5333333,19.2666667
caputa,,02,-12.3833333,17.6333333
capute,,08,-13.1,16.15
caputo,,05,-8.5,14.75
caputo,,06,-10.9,13.8666667
caputo,,08,-12.3666667,15.8833333
caputungo,,14,-13.1333333,21.05
caputungo,,17,-7.4666667,21.8
capuze,,14,-13.2833333,19.5
caque,,16,-6.6666667,13.8166667
caquecuti,,06,-11.2,15.0
caquele,,01,-12.7666667,14.6666667
caquele,,05,-9.6,14.2666667
caquema,,12,-10.6,17.3666667
caquendo,,15,-7.9,15.5166667
caquengo,,19,-9.8833333,14.3333333
caquengue babi,,15,-7.5666667,15.1
caquengue,,14,-12.4,22.5666667
caquengue,,15,-7.5666667,15.1166667
caquengue,,19,-9.8833333,14.3333333
caquepa,,01,-12.8333333,14.1333333
caqueque,,04,-14.7166667,18.4666667
caquequete,,06,-11.2,15.0
caquessa,,18,-10.7652778,20.3280556
caquiengue,,12,-9.4666667,16.2166667
caquila,,16,-6.5166667,12.9
caquinda,,09,-14.9,16.6166667
caraculo,,13,-14.9833333,12.6666667
carambinge,,15,-7.7166667,14.6
carambola,,09,-13.8666667,15.25
carambona,,07,-17.15,13.8
cardoso,,12,-9.7352778,16.4272222
cardoso,,14,-11.4666667,23.0833333
cardozo,,14,-11.4666667,23.0833333
carenge,,07,-17.3166667,14.1666667
carerongo,,14,-14.2333333,21.9833333
caria,,02,-12.7166667,16.8333333
caria,,08,-12.7591667,15.5175
cariaia,,12,-9.3,15.6166667
cariai,,12,-9.3,15.6166667
cariala,,02,-12.25,17.2333333
cariala,,14,-12.7833333,23.6666667
cariamba,,05,-8.6,15.2
cariamba,,15,-7.9166667,15.6166667
carianga,,05,-8.6,15.2
carianga,,12,-9.4,15.7666667
cariango,,05,-8.6,15.2
cariango,,06,-10.5833333,15.3333333
cariango,,12,-9.4833333,16.2166667
cariango,,14,-12.2166667,20.4666667
carianjola,,01,-12.4333333,14.1166667
carianze,,12,-9.5333333,15.95
cariapuco,,05,-9.5166667,14.1166667
cariaria,,06,-11.5166667,15.4333333
cariata,,05,-9.1333333,14.8666667
cariata,,14,-11.4833333,19.3333333
cariba,,12,-9.1666667,17.2833333
caribo,,12,-9.6311111,16.1344444
carica,,12,-8.7666667,16.85
caricango,,04,-15.5666667,19.3666667
cari,,15,-7.6333333,15.1333333
caridate,,14,-14.8,21.4
carienque,,08,-12.4333333,15.4833333
carieria,,17,-8.9333333,19.2166667
carifengo,,02,-10.9666667,16.7166667
carila,,02,-12.25,17.2333333
carila,,06,-11.6166667,15.15
carila,,12,-9.1666667,17.2833333
cariliueke,,02,-11.1166667,15.95
carilongue,,08,-12.5666667,15.2666667
carima,,12,-9.5833333,15.6833333
carima,,15,-7.4833333,17.0
carima,,18,-10.8061111,20.2769444
carimba,,06,-11.0833333,13.85
carimbue,,04,-16.4666667,19.0333333
carimbue,,14,-14.3333333,20.6166667
carimbula,,17,-7.2166667,19.8166667
carimbula,,18,-10.3333333,21.95
carimongue,,05,-9.2166667,15.3333333
carinago,,04,-15.5666667,19.3666667
carinda,,05,-9.6666667,14.35
carinde,,06,-11.3666667,15.6166667
caringa,,05,-9.3,14.95
carinjolo,,01,-12.4333333,14.1166667
carioa,,12,-7.95,16.4166667
carioca luiz quimbundo,,05,-9.7,14.3
carioeque,,08,-12.45,15.4666667
carionda,,04,-18.0,20.85
cariongo,,14,-14.2333333,21.9833333
cariongo,,19,-8.5738889,13.6797222
caripa,,14,-14.5,20.7
caripande,,14,-12.9833333,22.7333333
caripata,,14,-14.8,21.4
carique,,01,-13.5333333,14.8166667
carique,,14,-14.25,20.4
cariqueimala,,08,-12.35,15.4
cariquemala,,08,-12.35,15.4
cariueque,,06,-11.5333333,14.75
carivecua,,08,-12.45,15.4666667
carlaonga,,06,-10.7666667,14.25
carlaongo,,06,-10.7666667,14.25
carloango,,06,-10.7666667,14.25
carmina,,05,-8.85,15.6166667
carmona,,15,-7.6166667,15.05
carneiro,,08,-12.8833333,15.9
carobombalo,,09,-13.8666667,15.25
carombala,,09,-13.8666667,15.25
carreco,,01,-12.5,14.3
carrilha,,06,-11.6666667,14.8333333
caruma,,15,-7.4833333,17.0
carumapia,,08,-12.6,15.6
carumaria,,15,-7.4833333,14.4833333
carumbo,,17,-7.7333333,19.9333333
carumbona,,07,-17.15,13.8
caruombolo,,09,-13.8666667,15.25
carupa,,04,-17.9666667,20.75
carupo,,04,-17.9666667,20.75
carvalho,,06,-11.85,15.1833333
carvalho e sa,,08,-11.9666667,15.8166667
carvalho oliveira,,13,-14.8833333,12.7833333
casaca,,14,-14.7166667,20.5166667
casacala,,12,-9.1833333,15.75
casacota,,12,-9.1833333,15.75
casal,,12,-9.4244444,16.4630556
casal,,19,-8.7,13.8833333
casanga,,18,-9.0666667,21.0666667
casapa,,18,-10.2,20.0833333
cascia,,05,-8.4166667,15.8
case,,18,-9.2,20.9
casele,,17,-8.8166667,17.6
casemba,,18,-9.6666667,20.3666667
casemiro,,06,-9.9666667,14.85
casengo,,18,-9.0333333,20.95
casere,,06,-10.6,14.9666667
caseroa,,02,-13.1333333,17.4333333
caserva,,02,-13.1333333,17.4333333
cashissome,,08,-13.1702778,15.6763889
casimba,,13,-14.0666667,13.6
casimiro c. borges,,08,-12.25,15.1
casimiro coelho borges,,08,-12.25,15.2333333
casinga,,09,-15.1166667,16.0833333
casiue,,14,-11.45,21.0333333
casoalala,,05,-9.4833333,14.35
caso,,03,-5.1166667,12.1833333
casonda,,17,-7.3833333,20.9
cassaca,,05,-9.3666667,14.9
cassaca,,12,-9.8833333,16.3
cassaca,,14,-12.1833333,20.3333333
cassaca,,15,-7.1666667,15.35
cassache,,05,-8.2,15.3166667
cassaco,,14,-14.3166667,21.8166667
cassage,,18,-11.1166667,20.6666667
cassai,,18,-10.5833333,21.9666667
cassai-gare,,14,-11.6833333,20.85
cassai sul,,18,-10.5833333,21.9666667
cassaje,,18,-11.1166667,20.6666667
cassalengue,,14,-12.0833333,23.75
cassamaba,,12,-7.9166667,16.6166667
cassamba,,01,-12.5166667,14.3166667
cassamba,,02,-11.6166667,17.3666667
cassamba,,06,-11.05,15.0833333
cassamba,,08,-12.605,15.5566667
cassamba,,12,-8.8166667,15.9
cassamba,,14,-13.0833333,20.35
cassamba,,17,-7.3,21.7166667
cassambele,,12,-9.4925,16.2683333
cassambo,,02,-11.6166667,17.3666667
cassanda,,06,-10.25,14.8333333
cassanda,,08,-12.8219444,15.4086111
cassandola,,14,-13.65,21.4333333
cassanga,,12,-10.55,17.2333333
cassanga,,14,-14.8,21.2833333
cassanga,,15,-6.0333333,15.0166667
cassanga,,19,-9.5,13.9833333
cassangala,,02,-12.75,17.3
cassange cambango,,17,-9.85,18.6833333
cassange,,06,-10.25,14.8333333
cassange,,08,-12.0833333,16.4
cassange,,12,-11.6333333,17.6666667
cassange,,15,-7.8333333,15.5833333
cassange,,17,-8.5666667,17.8833333
cassange quitumba,,17,-9.25,17.7333333
cassangi,,12,-9.2730556,16.4816667
cassango,,17,-8.5666667,17.8833333
cassanguide,,17,-7.4833333,21.3
cassanguidi,,17,-7.4833333,21.3
cassanha,,06,-9.85,14.85
cassanhe,,06,-9.85,14.85
cassanhe,,08,-12.95,16.3333333
cassanhe,,19,-9.3,13.2166667
cassanje-cabanga,,17,-9.85,18.6833333
cassanje,,12,-9.5638889,16.4919444
cassanje,,17,-9.85,18.6833333
cassanji,,17,-8.5666667,17.8833333
cassanza,,17,-9.6333333,18.1666667
cassanzade,,17,-9.6333333,18.1666667
cassao,,17,-8.5,20.2
cassapolo,,08,-12.2833333,15.55
cassaquir,,06,-11.9666667,14.9833333
cassari,,14,-14.3166667,20.1333333
cassassa,,05,-9.3666667,14.9
cassasso,,15,-7.1666667,15.35
cassaza,,18,-9.7333333,21.6166667
cassecele,,12,-9.4247222,16.3552778
casseco,,02,-12.8666667,16.6
cassecua,,04,-14.7666667,19.7
cassecue,,17,-8.25,21.4
cassefo,,12,-9.0333333,16.05
cassefo,,15,-8.15,15.8333333
cassela,,17,-8.8166667,17.6
cassema,,01,-12.7166667,14.7666667
cassema,,06,-11.9333333,14.3666667
cassema,,08,-12.9833333,15.75
cassemba,,06,-11.0333333,15.0333333
cassembe,,18,-9.6666667,20.3666667
cassembe,,19,-10.05,14.3833333
cassembele,,12,-9.3541667,16.4797222
cassemene,,17,-8.5166667,18.9833333
cassemungua,,05,-9.1333333,14.6666667
cassena,,12,-9.3666667,15.9
cassenda,,06,-11.4,14.5833333
cassenda,,08,-12.7822222,15.6272222
cassendi,,09,-14.3833333,16.2666667
cassenge,,08,-12.0833333,16.4
cassengue,,19,-8.65,14.25
casseno,,05,-9.1,14.6166667
casseno,,12,-9.3666667,15.9
casseque,,01,-12.0619444,13.9755556
casseque,,02,-11.7833333,17.4333333
casseque,,05,-9.15,15.4833333
casseque,,06,-11.9333333,15.3
casseque,,08,-12.6666667,14.9166667
casseque,,12,-9.1833333,15.5
cassequel,,01,-12.6133333,13.4772222
cassequel,,05,-9.6833333,14.2833333
cassequele,,05,-9.6833333,14.2833333
casseques,,19,-9.7666667,13.7333333
cassequi,,19,-9.7666667,13.7333333
cassese,,09,-13.9666667,16.4333333
cassesse,,09,-13.9666667,16.4333333
casseua,,17,-9.4666667,18.6
cassimbas,,13,-14.0666667,13.6
cassinde,,09,-14.3833333,16.2666667
cassinde,,14,-14.2666667,19.1333333
cassinga,,09,-15.1166667,16.0833333
cassinga,,15,-7.6666667,16.0
cassinguidi,,17,-7.4833333,21.3
cassipo,,06,-11.6333333,15.1
cassiqua,,04,-14.7666667,19.7
cassiquire,,06,-11.3833333,15.0333333
cassisse,,08,-13.0833333,15.45
cassito,,08,-12.6313889,15.5905556
cassoalaba,,05,-9.4833333,14.35
cassoalala,,05,-9.2833333,14.2166667
cassoanga,,02,-12.15,17.0666667
cassoango,,04,-14.6166667,18.6
cassoango,,14,-13.7,20.9333333
cassoango mission,,14,-13.7,20.9333333
cassoca,,06,-11.4166667,14.0333333
cassoca,,18,-10.9230556,20.4625
cassocasoca,,12,-8.1666667,16.6166667
casso,,06,-10.1666667,16.5333333
casso,,12,-10.0833333,17.7833333
casso,,16,-6.3666667,14.65
cassoce,,06,-11.4666667,14.7333333
cassoche,,05,-8.2,15.3166667
cassoco,,02,-12.8666667,16.6
cassoco,,05,-9.1666667,14.1333333
cassoco,,06,-11.4166667,14.0166667
cassoco,,08,-12.8816667,15.5236111
cassoco,,09,-13.65,15.0
cassoco,,14,-14.2166667,21.6333333
cassoco,,19,-9.1833333,14.1333333
cassocosoco,,12,-8.1666667,16.6166667
cassola,,06,-10.1,15.1166667
cassola,,08,-12.8941667,15.3025
cassola,,19,-9.8666667,14.3833333
cassoleca,,08,-12.7366667,15.5730556
cassolio,,08,-12.5375,15.4141667
cassolo,,04,-14.5,19.3833333
cassoma,,02,-11.7666667,17.4666667
cassoma,,06,-11.7666667,15.3666667
cassoma,,08,-12.0166667,15.4833333
cassomba,,12,-9.2333333,17.3166667
cassombe,,17,-8.9833333,17.8333333
cassombi cambumba,,17,-8.9833333,17.8333333
cassombo,,02,-11.6166667,17.3666667
cassombo,,06,-11.7666667,15.3666667
cassomo,,08,-12.0166667,15.5166667
cassona,,19,-9.7166667,14.3833333
cassonda,,06,-10.25,14.8333333
cassonda,,14,-12.85,19.9833333
cassonde,,06,-9.95,14.8
cassondola,,14,-13.65,21.4333333
cassoneca,,19,-9.15,13.8333333
cassonga,,06,-11.2333333,15.1833333
cassonga,,14,-14.8,21.2833333
cassonge,,08,-12.0833333,16.4
cassongo,,08,-12.6538889,15.6555556
cassongo,,12,-10.75,17.4666667
cassongo,,18,-9.0666667,21.0666667
cassongo,,19,-8.95,14.05
cassongue,,05,-9.15,15.4833333
cassongue,,06,-11.85,15.05
cassongue,,08,-13.1847222,15.5466667
cassongue,,09,-14.3333333,15.7833333
cassongue,,12,-9.4333333,15.7666667
cassongue,,19,-8.65,14.25
cassongue ungolo,,09,-14.3333333,15.7833333
cassonzo,,05,-9.6833333,14.8833333
cassoque,,05,-9.6833333,14.7666667
cassoque,,06,-11.9333333,15.3
cassora,,14,-11.2833333,23.8166667
cassori,,15,-6.6,16.55
cassorio,,02,-12.1333333,16.9166667
cassosso,,08,-12.95,15.9333333
cassoxe,,05,-9.6333333,14.7833333
cassua,,05,-9.6166667,14.5333333
cassuala,,18,-10.2166667,22.1833333
cassualala,,05,-9.2833333,14.2166667
cassuba,,06,-11.0333333,15.0333333
cassucina,,12,-9.4594444,16.3030556
cassuco,,12,-9.8,16.4333333
cassuelo,,07,-16.4833333,14.9
cassuigo,,05,-9.4666667,14.7833333
cassuko,,12,-9.8,16.4333333
cassula,,12,-9.6833333,15.1666667
cassule cameno,,05,-8.5333333,14.5
cassule candala,,12,-9.4666667,16.8666667
cassule,,05,-8.3833333,15.0
cassule,,12,-8.5166667,15.6833333
cassulo,,02,-11.15,15.9666667
cassuma,,15,-7.6166667,15.7166667
cassumba cacheacama,,05,-8.5,14.7833333
cassumba-camabaia,,05,-8.5,14.6333333
cassumba,,05,-8.4166667,15.1166667
cassumba,,06,-11.05,14.5166667
cassumba,,15,-7.6166667,15.7166667
cassumba-caxaquiama,,05,-8.5,14.7833333
cassumba caxaquiana,,05,-8.5,14.7833333
cassumbe,,02,-11.1333333,16.6
cassumbe,,05,-9.7,14.3
cassumbi,,02,-11.1333333,16.6
cassunda,,08,-12.8219444,15.4086111
cassunda,,18,-10.95,21.05
cassupa-quai,,14,-12.9833333,22.5
cassupi,,08,-13.0169444,15.4708333
cassupi i,,08,-13.0252778,15.4283333
cassupi ii,,08,-13.0419444,15.4277778
cassupola,,08,-12.2833333,15.55
castando,,19,-8.9,14.2666667
castembala,,12,-9.6027778,16.4938889
castendo,,19,-8.65,14.1666667
casteve,,12,-9.4516667,16.3805556
castro,,14,-11.1666667,22.75
casua,,12,-9.4666667,16.8666667
casuanga,,02,-12.15,17.0666667
casuco,,17,-8.5333333,21.45
casulo,,14,-11.8,23.9333333
casupa,,14,-12.9833333,22.5
casuta,,14,-14.4833333,20.4333333
cata-a-nova,,08,-13.4,15.4166667
catabia,,05,-9.5333333,14.3
catabo,,12,-9.5833333,17.1333333
catabola,18858,02,-12.15,17.2833333
catabola,,08,-13.1166667,15.1666667
cataca,,04,-14.2666667,17.1166667
catacala,,14,-14.9,20.1666667
catacanha,,19,-8.0,13.1833333
catache,,17,-9.35,20.1833333
catachi,,17,-9.35,20.1833333
catade,,08,-11.65,15.35
cataha,,04,-17.1333333,22.6833333
