names,population,state_code,lat,lon
aam tam,,36,10.7166667,107.8666667
a ba yu can,,29,15.9166667,107.6833333
aben young,,29,15.75,107.6
a blan,,29,15.8333333,107.5333333
a boum,,04,16.3166667,107.0666667
a brahon,,29,15.6833333,107.5833333
abri pavie,,22,21.8,103.1
a choc,,04,16.9,106.7833333
a daigne,,04,16.3166667,106.9833333
a dang,,04,16.4166667,106.9833333
adial,,29,15.8166667,107.6166667
a dua ap,,04,16.7333333,106.5833333
a gia,,36,11.5666667,108.7
a gioi,,04,16.5,106.8
a goho,,29,15.6333333,107.45
a hiale,,29,15.9166667,107.5666667
a hoi,,29,15.6666667,107.35
a hourn,,29,15.6166667,107.4833333
ai blun,,07,13.3333333,108.7166667
ai ha,,34,20.3666667,105.2833333
ai mo,,11,21.0833333,105.9
ai mo,,15,21.1166667,105.5166667
ai nghia,,29,15.8833333,108.1
ai nghia,,84,15.8833333,108.1166667
ai ngua,,32,21.5833333,103.9833333
ai tau ha,,06,10.2666667,105.8666667
ai thon,,11,21.35,106.0666667
ai thuong,,34,20.3333333,105.2666667
ai tu,,04,16.7666667,107.15
ai yin young,,29,15.9166667,107.6
aka,,04,16.0833333,107.6166667
a kar,,04,16.0833333,107.6166667
ale iock,,04,16.2666667,107.1833333
a le loch,,04,16.2666667,107.1833333
ale lock,,04,16.2666667,107.1833333
ale ninh,,04,16.2666667,107.1666667
a le thiem,,04,16.2833333,107.15
a lou,,19,22.7166667,103.5833333
a lou pu la,,19,22.7333333,103.6166667
a lou ta sai keou,,19,22.7,103.6
a lou ta sui keou,,19,22.7,103.6
a luoi,,04,16.2666667,107.2333333
a mai,,38,21.55,104.95
a me,,22,22.35,102.5666667
am ha,,38,21.5666667,105.0333333
am ha diem,,26,18.2333333,106.0666667
a mou,,19,22.7166667,103.6333333
ampil,,33,11.5166667,106.2333333
am th,,26,18.2166667,106.0666667
am thuong,,38,21.55,105.0166667
a nan,,19,22.4833333,104.1666667
an ba,,27,14.9833333,108.85
an bai,,35,20.5833333,106.5666667
an ban,,29,15.9,108.3333333
an bang,,29,15.7833333,108.0166667
an bao,,27,14.2833333,109.0666667
an bien,,21,9.7694444,105.025
an binh,,04,16.8333333,107.0833333
an binh,,09,10.7833333,105.35
an binh,,10,14.0333333,108.7166667
an binh,,21,10.1833333,104.65
an binh,,26,18.3,105.95
an binh,,27,14.3333333,109.1166667
an binh,,29,15.6666667,108.3666667
an binh,,31,11.4,106.8333333
an binh,,36,11.2,108.55
an binh,,41,9.8666667,105.95
an binh thanh,,28,13.3666667,109.25
an binh trai,,10,15.1666667,108.6333333
an bo,,12,21.0333333,106.4666667
an buong,,27,14.3166667,109.1333333
an can,,11,21.4,105.9666667
an cap,,11,21.4,105.9666667
an cau,,12,20.65,106.2166667
an chan,,32,21.5166667,104.1666667
an chang,,32,21.5166667,104.1666667
an chanh,,06,9.9166667,106.2
an chanh,,27,13.9166667,109.0
an chau,,11,21.3333333,106.85
an chau,,27,15.3166667,108.7833333
an chau ap,,27,14.85,108.9166667
an chi,,27,14.9833333,108.8333333
an chinh,,29,15.7833333,108.1
an co18,,04,17.05,107.1
an co,,35,20.6,106.5833333
an co,,65,9.5069444,106.0686111
an cu,,04,16.2333333,108.0833333
an cu,,10,13.9666667,108.6333333
an cu,,12,20.7833333,106.2833333
an cu,,27,13.9,109.15
an cu,,34,20.0833333,105.5
an cuc,,35,20.5833333,106.5166667
an cuong,,27,15.3,108.85
an cuong,,29,15.6166667,108.15
an cuu,,27,13.9,109.15
an Ða,,16,20.6666667,105.75
an da,,34,20.1833333,105.6333333
an dai,,29,15.65,108.4
an dan,,35,20.5833333,106.4833333
an dao,,14,20.3166667,106.4
an dao,,27,15.15,108.8666667
an Ðe18,,35,20.5,106.25
an diem,,12,20.9666667,106.2333333
an diem,,27,14.0833333,108.9833333
an diem,,29,15.8833333,107.8833333
an dien,,03,9.9022222,106.5433333
an dien,,06,10.0666667,106.15
an dien,,27,14.8,108.9166667
an dien,,29,15.8833333,107.8833333
an dien bac,,10,14.0333333,108.7333333
an dien nam,,10,14.0166667,108.7333333
an dinh,,03,9.9747222,106.5458333
an Ðinh,,04,16.9166667,107.0166667
an dinh,,04,17.2833333,106.7666667
an dinh,,10,13.9666667,108.5666667
an dinh,,20,10.7133333,106.6047222
an dinh,,27,13.8166667,109.2
an dinh,,28,12.25,109.0333333
an dinh,,29,15.8666667,108.0333333
an dinh,,31,11.4,106.8333333
an dinh cau,,67,9.9152778,106.1441667
an Ðo18,,27,14.65,109.0
an Ðo18,,34,20.15,105.45
an do18,,34,20.1666667,105.65
an Ðoai,,12,21.0333333,106.3666667
an do,,04,16.4833333,107.5166667
an doi,,12,21.0333333,106.3666667
an dom,,04,16.7333333,107.1666667
an don,,04,16.7333333,107.1666667
an Ðon,,27,14.35,109.0166667
an dong,,41,10.1,105.7166667
an duc,,27,14.0,109.1
an duc,,33,11.0166667,106.4
an duc,,35,20.6166667,106.4166667
an duong,,04,16.5333333,107.7
an duong,,13,20.85,106.6666667
an duong,,27,14.4666667,109.0333333
an duyen,,14,20.4,106.1166667
ang duong,,13,20.7166667,106.4666667
ang giang,,05,22.7333333,106.1333333
an gia,,04,16.8333333,107.1333333
angiang,,01,10.7,105.1166667
an giang,,27,14.35,109.1
an giao,,29,15.7833333,108.4
an giat,,27,14.9333333,108.6666667
an giu,,27,14.4833333,109.0666667
ang ngoai,,13,20.7,106.4666667
ang phao,,16,20.8,105.7666667
ang ta,,02,22.2166667,105.75
ang tang,,40,11.3333333,107.0166667
an ha,,27,15.0833333,108.8166667
an ha,,29,15.5833333,108.4833333
an hai,,27,15.2166667,108.9333333
an hai,,29,16.0666667,108.2333333
an hai phuong,,27,15.3666667,109.1166667
an han,,26,18.7333333,105.6666667
an hanh,,27,14.0,109.0666667
an hau,,26,18.7333333,105.6666667
an hau,,27,14.35,108.9666667
an hay,,27,15.2166667,108.9333333
anh do,,28,13.3833333,109.25
an hiep,,06,10.2,105.9166667
an hiep,,35,20.7,106.3166667
an hoa,,03,10.2666667,106.4333333
an hoa,,04,16.4833333,107.5666667
an hoa,,09,10.6833333,105.4333333
an hoa,,21,9.9666667,105.1166667
an hoa,,26,18.55,105.65
an hoa,,27,13.8166667,109.1333333
an hoa,,28,13.05,108.95
an hoa,,29,15.4833333,108.6166667
an hoa,,65,9.5136111,106.0138889
an hoa dong,,06,10.2166667,105.85
an hoa tay,,29,15.6166667,108.3666667
an hoi,,03,9.92,106.5477778
an hoi,,04,16.9,107.25
an hoi,,20,10.8333333,106.6333333
an hoi,,26,18.7666667,105.3
an hoi,,27,14.0,108.9333333
an hoi,,29,15.65,108.3833333
an hoi thon,,20,10.8333333,106.6333333
an hop,,29,15.6333333,108.3666667
anh son,,58,18.9,105.3166667
an kahe,,49,13.95,108.65
an khanh,,06,10.2166667,105.85
an khanh,,20,10.7875,106.7338889
an khanh xa,,20,10.7875,106.7338889
an khe,,13,20.8333333,106.7
an khe,,16,20.9,105.6833333
an khe,,49,13.95,108.65
an khuong,,27,15.3,108.6333333
ankroet,,23,11.9833333,108.35
an ky,,27,15.2,108.9166667
an la,,35,20.5666667,106.25
an lac,,04,17.25,106.75
an lac,,11,21.3333333,106.95
an lac,,12,20.95,106.0166667
an lac,,13,20.8666667,106.65
an lac,,14,20.1666667,106.2333333
an lac,,20,10.7227778,106.6047222
an lac,,27,14.1833333,109.0333333
an lac,,29,15.7666667,108.2833333
an lac,,35,20.5833333,106.3166667
an lac,,38,21.3166667,105.9
an lac dong,,27,14.1833333,109.0333333
an lac tay,,27,14.2,109.0333333
an lai,,04,16.5666667,107.5833333
an lai,,05,22.7166667,106.3333333
an lam,,29,15.5666667,108.1833333
an lam,,36,11.1333333,108.15
an lan,,36,11.1333333,108.15
an lang,,12,20.9833333,106.5333333
an lang,,14,20.3166667,106.3
an lao,,12,20.8,106.4666667
an lao,,35,20.4166667,106.3
an lao,,38,21.3666667,105.4
an lao,,46,14.5666667,108.9
an lao ap,,04,17.1666667,106.8666667
an lap,,38,21.3666667,105.5666667
an lau,,29,15.4333333,108.4
an lau nam,,29,15.4333333,108.4
an le,,26,18.3666667,105.85
an le,,29,15.8166667,108.0333333
an le,,35,20.5,106.3666667
an liem,,35,20.5166667,106.2666667
an linh,,31,11.3333333,106.7166667
an lo,,04,16.55,107.4666667
an lo,,27,13.9166667,109.2333333
an loc,,04,16.6166667,107.5666667
an loc,,14,20.3,106.0166667
an loc,,27,13.8666667,109.1
an loc,,29,15.7666667,108.2833333
an loc,,31,11.6666667,106.8333333
an loc,,40,10.8,106.9666667
an loc,,76,11.65,106.6
an loi,,03,9.9808333,106.6288889
an loi,,27,13.9166667,109.2333333
an loi,,31,11.1166667,106.6666667
an loi,,40,10.8166667,106.9333333
an loi ap,,27,14.8166667,108.9
an loi dong,,20,10.7666667,106.7333333
an long,,09,10.7166667,105.3833333
an long,,27,14.35,109.1
an long,,29,15.6333333,108.15
an long,,36,10.9666667,108.1666667
an luan,,13,20.8166667,106.5666667
an lu,,13,20.9166667,106.7
an luong,,12,21.0,106.35
an luong,,14,20.2666667,106.25
an luong,,27,14.15,109.1166667
an luong,,29,15.8641667,108.3858333
an luu,,04,16.4666667,107.7166667
an ly,,29,15.6333333,108.3333333
an ma,,02,22.4166667,105.6
an ma,,32,20.9333333,104.8166667
an me,,02,21.4666667,105.8833333
an mieng,,32,20.9,104.9666667
an mo,,39,22.3,106.3166667
an mong,,14,20.5666667,106.0
an my,,04,16.95,107.1166667
an my,,10,13.95,108.6833333
an my,,27,14.15,109.15
an my,,29,15.5333333,108.15
an my,,31,11.0166667,106.6833333
an my trai,,27,15.1333333,108.7
an nam ly,,38,21.35,105.8166667
an nap,,35,20.5833333,106.3166667
an ngai,,27,13.8833333,109.1
an ngai,,40,10.4833333,107.2333333
an nghia,,27,14.4833333,108.8333333
an nghia,,29,15.7,108.4166667
an nghien,,28,13.0166667,109.2166667
an nghiep,,12,20.8,106.3166667
an nghiep,,28,13.0166667,109.2166667
an nha,,04,16.9333333,106.9833333
an nhan,,27,15.15,108.8333333
an nhien,,26,18.3666667,105.8833333
an nhon,,03,9.8861111,106.5886111
an nhon,,04,16.7166667,107.3833333
an nhon,,26,13.8833333,109.1
an nhon,,37,10.3166667,106.0333333
an nhon hoa,,06,9.7833333,106.1833333
an nhon tay,,20,11.1,106.5166667
an nhon xa,,20,10.8333333,106.6666667
an nhue,,27,14.1,109.1666667
an nhut,,40,10.4833333,107.25
an nhut tan,,24,10.5666667,106.5333333
an ninh,,04,17.0166667,107.1
an ninh,,06,10.3166667,105.5166667
an ninh,,11,21.2166667,106.8166667
an ninh,,24,10.9833333,106.2833333
an ninh,,27,14.05,108.9166667
an ninh,,29,15.7833333,108.05
an ninh,,41,9.6166667,105.95
an ninh noi,,12,20.9833333,106.5666667
an nong,,01,10.5833333,104.95
an nong,,04,16.3666667,107.75
an noong,,11,21.2,106.8
an nuong,,11,21.2,106.8
an phong,,09,10.6,105.4166667
an phong,,10,13.9166667,108.6666667
an phong,,21,9.8666667,105.1666667
an phong,,27,13.9333333,108.8166667
an phu,,09,10.6666667,105.4333333
an phu,,13,20.9166667,106.55
an phu,,14,20.0166667,106.1333333
an phu,,20,10.6833333,106.6666667
an phu,,24,10.85,105.0833333
an phu,,26,18.4833333,105.55
an phu,,27,15.1333333,108.8333333
an phu,,35,20.3833333,106.3166667
an phu,,36,11.0166667,108.1333333
an phu,,40,10.7333333,106.85
an phu,,65,9.6594444,106.1338889
an phu ap,,14,20.15,106.2333333
an phu dong,,20,10.7958333,106.7569444
an phu Ðong,,20,10.8541667,106.7016667
an phu ha,,04,16.3166667,107.7833333
an phuoc,,27,14.9833333,108.8833333
an phuoc,,29,15.6333333,108.3833333
an phuoc,,60,11.5166667,108.9166667
an phuoc chinh,,27,14.9833333,108.8833333
an phuong,,10,13.9666667,108.7
an phuong,,12,20.65,106.1166667
an phu phuong,,29,15.8,108.3833333
an phu tay,,20,10.6833333,106.6
an pon,,32,20.9166667,104.6166667
an quang,,27,14.1166667,109.2
an qui,,12,20.75,106.5
an qui,,13,20.6166667,106.4833333
an qui,,27,14.55,109.0333333
an qui,,37,10.3333333,106.3166667
an quy,,10,13.9166667,108.6333333
an quy,,12,20.75,106.5
an sen,,27,15.0,108.8833333
an son,,27,13.8,109.1166667
an son,,28,13.0666667,109.0
an son,,29,15.4333333,108.3
an son c,,10,13.95,108.6166667
an tam,,29,15.8166667,108.15
an tan,,12,20.8666667,106.3333333
an tan,,29,15.4333333,108.65
an tay,,27,14.45,109.0166667
an tay,,29,15.45,108.6833333
an thaan,,31,10.9666667,106.7666667
an thach(1),,27,14.8833333,108.95
an thach,,04,16.35,107.75
an thach,,10,14.05,108.7166667
an thach,,27,14.8833333,108.95
an thach,,29,15.7,108.45
an thach thach nan,,27,14.8833333,108.95
an thai,,04,16.7333333,107.2166667
an thai,,12,20.9666667,106.5166667
an thai,,27,14.5333333,109.0666667
an thai,,29,15.65,108.45
an thai thuong,,04,16.7833333,106.95
an thanh,,03,9.9583333,106.5797222
an thanh,,04,16.5333333,107.5833333
an thanh,,09,10.7,105.45
an thanh,,24,10.6666667,106.4666667
an thanh,,27,13.8,109.1833333
an thanh,,29,15.6333333,108.4333333
an thanh,,31,10.9666667,106.7666667
an thanh,,33,11.0833333,106.2333333
an thanh,,36,11.5333333,109.0
an thanh,,65,9.8177778,106.0111111
an thanh nhi,,65,9.5527778,106.2533333
an thanh thuy,,37,10.3333333,106.5166667
an the,,27,14.8833333,108.9666667
an thi,,12,20.7333333,106.1
an thiem,,30,20.9833333,107.0
an thien,,27,14.35,109.0
an thinh,,26,18.8833333,105.2833333
an thinh,,27,14.85,108.8666667
an tho18,,27,14.8833333,108.9666667
an tho18,,28,13.35,109.2166667
an tho,,12,20.75,106.4666667
an thoi,,01,10.2,105.4833333
an thoi,,03,9.9325,106.5602778
an thoi,,06,9.6333333,106.2666667
an thoi,,21,10.0166667,104.0166667
an thoi,,29,15.3166667,108.8666667
an tho thon,,04,17.7666667,106.05
an thuan,,03,9.9833333,106.6166667
an thuan,,04,16.5333333,107.55
an thuan,,10,13.9333333,108.6333333
an thuan,,31,11.0666667,106.5666667
an thuong,,10,13.9666667,108.7333333
an thuong,,27,14.2833333,109.05
an thuong,,29,16.0494444,108.2419444
an thuong ap,,27,14.8,108.9666667
an thuy,,03,9.9833333,106.6166667
an thuy,,14,20.35,106.1666667
an thuyet,,27,15.1833333,108.7333333
an tien,,04,16.9833333,107.05
an tinh,,27,14.3166667,109.1333333
an tinh ba,,67,9.8366667,106.0466667
an toan,,13,20.7666667,106.7333333
an trach,,04,16.8333333,107.25
an trach,,14,20.1333333,106.2
an trach,,29,15.95,108.1666667
an trach,,41,9.65,105.9333333
an trach,,73,9.0563889,105.4405556
an trach,,77,9.1533333,105.2133333
an trang,,27,15.1333333,108.6666667
an trang,,29,15.6,108.1833333
an tri,,27,14.1333333,109.15
an trieu,,11,21.1833333,106.3166667
an trinh,,27,14.1166667,109.05
an tros,,13,20.85,106.65
an truc,,13,20.85,106.65
an truong,,27,13.8,108.9833333
an truong,,29,15.6166667,108.3333333
an truy,,14,20.35,106.1666667
an truyen,,04,16.5,107.6333333
an tuc,,49,13.95,108.65
an tu ha,,35,20.3166667,106.5
an tuong,,27,14.2833333,109.05
an tuyen,,29,15.7,108.4666667
an tuyet,,27,15.1833333,108.7333333
an vang,,29,15.5666667,108.1833333
an van thuong,,04,16.45,107.5333333
an ve,,35,20.65,106.35
an vinh,,11,21.2166667,106.8166667
an vinh,,27,13.9166667,109.0166667
an vinh,,29,15.5666667,108.15
an vinh phuong,,27,15.3666667,109.1333333
an xa,,04,17.2333333,106.7666667
an xa,,29,15.3833333,108.3333333
an xuan,,04,16.5666667,107.5666667
an xuan,,10,14.0,108.7
an xuan,,20,10.8719444,106.6666667
an xuan,,27,13.9,108.95
an xuan,,36,11.65,108.9833333
an xuyen,,25,9.2666667,105.2833333
ao kenh,,16,20.7833333,105.6333333
ao loan,,11,21.4,106.65
ao louan,,11,21.4,106.65
ao tan,,11,21.35,106.6833333
ao ve,,11,21.2833333,106.55
a pa chai,,22,22.4,102.2166667
ap a dua,,04,16.7333333,106.5833333
ap an binh,,03,10.1,106.3166667
ap an binh,,06,10.2833333,105.5666667
ap an binh,,36,11.2,108.55
ap an binh,,41,9.8666667,105.95
ap an co,,65,9.5069444,106.0686111
ap an dien,,03,9.9022222,106.5433333
ap an dien,,06,10.0666667,106.15
ap an dinh,,37,10.3166667,106.4666667
ap an dong,,06,10.0833333,106.2166667
ap an dung,,21,10.3666667,104.5833333
ap ang trang so,,40,11.3333333,107.0166667
ap an hau,,06,10.0333333,106.15
ap an hiep,,24,10.9666667,106.3333333
ap an hoa,,01,10.4833333,104.9
ap an hoa,,03,9.9658333,106.5419444
ap an hoa,,06,10.0,105.9333333
ap an hoa,,09,10.6666667,105.4333333
ap an hoa,,36,10.95,108.1333333
ap an hoa,,37,10.3666667,106.3166667
ap an hoa,,65,9.5136111,106.0138889
ap an hoa,,77,9.2586111,105.2738889
ap an hoa thuong,,06,10.2333333,106.0333333
ap an hoi,,03,9.92,106.5477778
ap an hoi,,48,9.9494444,105.7902778
ap an hung,,24,10.9833333,106.35
ap an khanh ha,,06,10.2333333,106.0333333
ap an khuong,,01,10.2,105.5166667
ap an khuong,,03,9.9833333,106.4833333
ap an khuong,,06,10.3,105.55
ap an kroet,,23,11.9833333,108.35
ap an lac,,06,10.0666667,106.15
ap an lac,,37,10.3166667,106.45
ap an lai,,24,10.5833333,106.4833333
ap an lam,,36,11.1333333,108.15
ap an lao,,04,17.1666667,106.8666667
ap an le,,37,10.3,105.9
ap an lo,,04,16.55,107.4666667
ap an loc a,,04,16.6166667,107.5666667
ap an loc,,06,10.05,106.2
ap an loi,,03,10.05,106.35
ap an loi,,06,10.3166667,105.55
ap an loi dong,,20,10.7666667,106.7333333
ap an luong,,01,10.3833333,105.4666667
ap an luong,,09,10.7166667,105.45
ap an minh,,09,10.6833333,105.3833333
ap an my,,01,10.3666667,105.4833333
ap an my,,09,10.4333333,105.7333333
ap an my,,37,10.3833333,106.05
ap an my,,41,10.0166667,105.7833333
ap an nhon,,03,10.1166667,106.35
ap an nhon,,21,10.3,104.6333333
ap an nhon,,37,10.3,105.8833333
ap an ninh,,06,10.3166667,105.5166667
ap an nong,,01,10.6,104.95
ap an nong,,06,10.0833333,106.2166667
ap an phu,,01,10.3833333,105.5166667
ap an phu,,03,10.3166667,106.35
ap an phu,,06,10.2166667,105.8666667
ap an phu,,09,10.7166667,105.3666667
ap an phu,,31,11.6833333,106.6
ap an phu,,33,11.0,106.3833333
ap an phu,,36,11.0,108.15
ap an phu,,40,10.5666667,107.2333333
ap an phuoc,,06,10.0166667,106.1333333
ap an qui,,01,10.4166667,105.4666667
ap an qui,,03,10.0,106.6
ap an qui,,37,10.4,106.0333333
ap an quoi,,06,10.3833333,105.6166667
ap an quy,,21,10.3166667,104.6166667
ap an thai,,01,10.4166667,105.4666667
ap an thai,,37,10.3833333,106.0333333
ap an thanh,,01,10.9333333,105.1
ap an thanh,,03,9.9583333,106.5797222
ap an thanh,,06,10.0833333,106.1333333
ap an thanh,,24,10.9666667,106.2833333
ap an thanh,,37,10.35,106.0166667
ap an thien,,37,10.3666667,106.0333333
ap an tho18,,06,9.8833333,106.0
ap an thoi,,01,10.2,105.4833333
ap an thoi,,03,10.0166667,106.55
ap an thoi,,06,10.4,105.5833333
ap an thuan,,01,10.4,105.4666667
ap an thuan,,03,9.9833333,106.6166667
ap an thuan,,06,10.4,105.6166667
ap an thuan,,33,11.0833333,106.1833333
ap an thuan thuong,,24,10.5833333,106.55
ap an thuy tay,,37,10.2833333,106.1166667
ap an tin,,21,10.3333333,104.5666667
ap an tinh,,01,10.4333333,105.4833333
ap an tinh,,37,10.3,105.9
ap an tinh ba,,67,9.8366667,106.0466667
ap an trach,,03,10.05,106.3166667
ap an trach dong,,73,9.3008333,105.8208333
ap an tri,,37,10.3166667,105.9
ap an vien,,40,10.85,107.05
ap an vieng,,40,10.85,107.05
ap an xuan,,04,16.5666667,107.5666667
ap an xuan,,40,10.8666667,106.85
a pat,,04,16.3666667,107.0333333
a pa tiai,,22,22.4,102.2166667
a pa tlai,,22,22.4,102.2166667
a patt,,04,16.35,107.05
ap au tho,,65,9.3616667,106.1352778
ap ba ai,,48,9.5236111,105.385
ap ba ai ii,,25,9.5166667,105.3833333
ap ba,,03,10.2666667,106.4166667
ap ba,,06,10.1166667,105.95
ap ba,,09,10.65,105.4
ap ba,,20,10.4,106.9666667
ap ba,,21,9.3805556,105.0069444
ap ba,,24,10.6333333,106.4666667
ap ba,,29,15.6833333,108.1
ap ba,,37,10.3833333,106.7166667
ap ba,,40,10.9833333,106.8333333
ap ba,,41,9.8833333,105.5833333
ap ba,,67,9.7266667,106.2294444
ap ba,,77,9.2666667,105.195
ap ba bang,,31,11.35,106.7166667
ap ba beo,,77,9.1152778,105.1058333
ap bac,,09,10.6166667,105.45
ap bac,,24,10.55,106.6833333
ap bac,,37,10.3666667,106.7666667
ap bac chan,,24,10.7833333,105.9166667
ap bac dong,,24,10.5833333,106.35
ap ba chang,,73,9.375,105.6505556
ap bach thanh,,04,16.5833333,107.4333333
ap ba chuc,,01,10.5,104.9
ap bac lan,,20,10.8,106.55
ap bac thanh,,01,10.2833333,105.2666667
ap bac thanh,,09,10.6,105.4666667
ap ba ghe,,36,11.3,108.4666667
ap bai bang,,31,11.3666667,106.7
ap bai bon,,24,10.6,106.3333333
ap bai ghe,,25,9.0833333,104.8166667
ap bai yen,,31,11.4,106.7166667
ap ba lan,,06,10.15,105.9166667
ap ba lap,,24,10.6166667,106.4833333
ap ba mao,,33,11.0,106.2166667
ap ba my,,67,9.895,106.0555556
ap ba nam,,25,8.9833333,105.2833333
ap ba nghe,,06,9.9166667,106.0666667
ap ba nghe,,33,11.4,106.0166667
ap ba nhan,,77,9.2447222,105.13
ap ba nho,,24,10.4833333,106.6
ap bao,,33,11.1333333,106.1166667
ap bao binh,,40,10.8833333,107.2666667
ap bao cha,,77,9.3252778,105.1905556
ap bao chanh,,40,10.9666667,107.3166667
ap bao cong,,20,10.95,106.4166667
ap bao cua,,24,10.8666667,106.4
ap bao dinh,,40,10.9,107.2666667
ap bao dung,,33,11.1166667,106.25
ap bao go,,33,11.1166667,106.2
ap bao nau,,33,11.2,106.1833333
ap bao sau,,41,9.5333333,105.5833333
ap bao sen,,40,10.7,106.8666667
ap bao siem,,20,10.95,106.5166667
ap bao thuan,,03,10.05,106.65
ap bao trai,,24,10.8833333,106.4
ap bao tram,,33,11.15,106.15
ap ba quan,,24,10.7166667,105.9833333
ap ba rinh,,41,9.7666667,105.85
ap ba rinh,,48,9.7108333,105.8661111
ap ba ta,,36,11.05,107.6166667
ap ba the,,01,10.25,105.15
ap ba tien,,20,10.7319444,106.6088889
ap ba tieu,,67,9.8794444,106.375
ap ba trum,,65,9.4425,105.9761111
ap ba tu,,31,11.2833333,106.5666667
ap bau,,26,19.1333333,105.25
ap bau bang,,31,11.2666667,106.6333333
ap bau beo,,67,9.7113889,106.5036111
ap bau bien,,24,10.95,105.8
ap bau ca,,73,9.2938889,105.4825
ap bau cam,,31,11.3833333,106.7
ap bau ca mot,,73,9.3202778,105.4197222
ap bau co,,31,11.2333333,106.7166667
ap bau dieu,,20,11.0,106.4333333
ap bau dung,,33,11.0166667,106.2166667
ap bau long,,31,11.35,106.65
ap bau lung,,33,11.0333333,106.2
ap bau me,,33,11.0166667,106.2
ap bau nau,,24,10.9166667,105.7666667
ap bau rong,,24,10.9333333,105.7833333
ap bau sen,,33,11.3,106.15
ap bau sen,,40,10.7,106.8666667
ap bau tram,,20,10.9833333,106.5833333
ap bau vung,,25,9.0166667,105.0833333
ap ba vinh,,77,9.1427778,105.2091667
ap bay,,77,9.2861111,105.1969444
ap bay thua,,09,10.8,105.4
ap bay thua,,41,9.9,105.8166667
ap bec hen lon,,25,9.3166667,105.6833333
ap be moi,,31,11.6833333,106.6166667
ap ben cam,,40,10.75,106.9166667
ap ben cau,,31,11.2,106.6333333
ap ben cau,,33,11.1333333,106.1333333
ap ben cay,,40,10.4666667,107.1666667
ap ben cho,,33,11.1833333,106.3833333
ap ben chua,,31,11.1833333,106.4333333
ap ben da,,40,10.4666667,107.0666667
ap ben dinh,,33,11.15,106.1666667
ap ben do ao,,20,10.9333333,106.5333333
ap ben do,,20,10.9333333,106.5333333
ap ben do,,24,10.5666667,106.5333333
ap ben doi,,33,11.2,106.15
ap ben dong so,,31,11.2333333,106.65
ap ben go,,77,9.2180556,105.0833333
ap ben ke,,40,10.65,107.45
ap ben ma,,73,9.2788889,105.3747222
ap ben muong,,33,11.1666667,106.2333333
ap ben rong,,33,11.2,106.2
ap ben san,,31,11.2,106.5166667
ap ben thang,,24,10.9333333,106.3333333
ap ben the,,31,11.0166667,106.6166667
ap ben tram,,24,10.85,105.85
ap ben tranh,,31,11.2833333,106.45
ap ben xoai,,24,10.9,105.95
ap bia,,40,10.8333333,107.5166667
ap bich son,,07,11.9333333,107.7666667
ap bie18n,,25,9.25,105.7833333
ap bien,,73,9.2472222,105.7797222
ap bin chanh,,01,10.5666667,105.25
ap binh an,,01,10.4833333,105.3333333
ap binh an,,06,10.0333333,105.95
ap binh an,,24,10.4833333,106.4666667
ap binh an,,36,10.9833333,108.1166667
ap binh-an xuan,,29,15.4,108.3666667
ap binh,,09,10.4833333,105.6666667
ap binh,,29,15.4,108.3666667
ap binh ba,,28,11.8333333,109.2333333
ap binh chanh,,01,10.5666667,105.25
ap binh chanh,,20,10.6333333,106.7833333
ap binh chanh,,37,10.3166667,106.1666667
ap binh chau,,24,10.85,105.8333333
ap binh chau,,40,10.55,107.55
ap binh dien,,24,10.5333333,106.4833333
ap binh dinh,,06,10.1666667,106.0333333
ap binh dinh,,77,9.1741667,105.2536111
ap binh dong,,03,9.9947222,106.3969444
ap binh dong,,24,10.6666667,106.4166667
ap binh dong,,33,10.9833333,106.3833333
ap binh dong ha,,03,10.1166667,106.5333333
ap binh duc,,20,10.65,106.7
ap binh duc,,24,10.5166667,106.4833333
ap binh duc,,31,10.9158333,106.6936111
ap binh duong,,41,10.05,105.7333333
ap binh giao,,20,10.65,106.6166667
ap binh hiep,,06,10.3666667,105.5333333
ap binh hoa,,06,10.2833333,106.0166667
ap binh hoa,,20,10.5833333,106.8
ap binh hoa,,24,10.8,106.3833333
ap binh hoa,,31,10.9333333,106.7166667
ap binh hoa,,33,11.0166667,106.2333333
ap binh hoa,,40,11.15,107.2333333
ap binh hoa,,41,10.0833333,105.6833333
ap binh-hoa a va b,,33,11.0166667,106.2333333
ap binh hoi,,06,10.3833333,105.55
ap binh hung,,01,10.55,105.2666667
ap binh hung,,06,10.0666667,106.1166667
ap binh hung,,09,10.3666667,105.7666667
ap binh hung,,36,10.9333333,108.1166667
ap binh hung,,37,10.3166667,106.4833333
ap binh huu,,24,10.8333333,106.4666667
ap binh ke,,41,10.0333333,105.65
ap binh khanh,,01,10.3833333,105.4166667
ap binh khanh,,41,10.0833333,105.6666667
ap binh khuong,,24,10.4666667,106.5666667
ap binh lac,,41,10.0666667,105.75
ap binh lam,,36,11.0166667,108.1333333
ap binh lan,,31,11.7833333,107.0666667
ap binh loc,,77,9.1552778,105.0297222
ap binh loi,,01,10.3333333,105.5
ap binh loi,,24,10.4666667,106.55
ap binh loi,,25,9.15,104.95
ap binh long,,09,10.3833333,105.7666667
ap binh long,,37,10.2833333,106.65
ap binh luong,,33,11.35,106.0666667
ap binh luong dong,,24,10.5833333,106.3833333
ap binh ly,,09,10.9,105.3833333
ap binh nhi,,37,10.35,106.5666667
ap binh ninh,,03,10.1666667,106.5166667
ap binh ninh,,06,10.05,105.8833333
ap binh ninh,,37,10.3,106.6333333
ap binh pho,,41,10.0333333,105.7333333
ap binh phu,,01,10.45,105.3666667
ap binh phu,,03,10.2166667,106.6333333
ap binh phu,,06,10.1833333,106.0333333
ap binh phu,,09,10.3666667,105.7833333
ap binh phu,,24,10.4666667,106.45
ap binh phu,,31,11.65,106.5666667
ap binh phu,,37,10.4,106.6
ap binh phu,,40,10.9166667,107.3166667
ap binh phuc dong,,37,10.3833333,106.4666667
ap binh phung,,06,10.2833333,106.05
ap binh phuoc,,01,10.45,105.5666667
ap binh phuoc,,20,10.6666667,106.7833333
ap binh phuoc,,24,10.4666667,106.4833333
ap binh phuoc,,77,9.1661111,105.0597222
ap binh quang,,24,10.5166667,106.4
ap binh qui,,03,10.1666667,106.4833333
ap binh qui,,06,10.0333333,105.9
ap binh qui,,20,10.8,106.6
ap binh qui,,25,9.0833333,104.95
ap binh quon,,37,10.4,106.4833333
ap binh quy,,31,10.9166667,106.6666667
ap binh son,,40,10.8,107.0166667
ap binh sung,,06,10.3666667,105.5333333
ap binh ta,,24,10.8333333,106.4666667
ap binh tan,,01,10.45,105.55
ap binh tan,,77,9.1608333,105.0072222
ap binh than,,31,10.9166667,106.7
ap binh thanh,,01,10.4166667,105.4166667
ap binh thanh,,03,10.15,106.65
ap binh thanh,,06,10.05,106.15
ap binh thanh,,21,10.1833333,105.2
ap binh thanh,,24,10.4666667,106.4666667
ap binh thanh,,31,10.9166667,106.7
ap binh thanh,,36,11.1833333,108.7
ap binh thanh,,48,9.695,105.5997222
ap binh thanh,,77,9.1116667,105.0108333
ap binh thanh trung,,21,10.2,105.2166667
ap binh thi,,24,10.8166667,106.45
ap binh thien,,06,10.1666667,106.0
ap binh thien,,20,10.9166667,106.65
ap binh tho,,01,10.5333333,105.2833333
ap binh thoi,,01,10.4,105.4166667
ap binh thoi,,03,10.2,106.6833333
ap binh thoi,,24,10.4833333,106.5666667
ap binh thoi,,37,10.3,106.15
ap binh thuan,,03,10.1833333,106.7
ap binh thuan,,09,10.4,105.7666667
ap binh thuan,,24,10.4833333,106.55
ap binh thuan,,25,9.1333333,104.95
ap binh thuong,,41,10.0166667,105.7333333
ap binh thuy,,24,10.8333333,106.5
ap binh thuy,,37,10.3333333,106.5166667
ap binh tien,,03,10.1833333,106.5166667
ap binh tri,,24,10.4333333,106.5666667
ap binh tri,,37,10.3833333,106.5333333
ap binh trung,,01,10.4666667,105.55
ap binh trung,,33,11.3333333,106.0833333
ap binh trung,,40,10.65,106.8166667
ap binh truong tay,,24,10.5666667,106.4666667
ap binh tu,,36,10.9,108.0666667
ap binh tu,,37,10.3666667,106.5833333
ap binh xuan,,03,10.1833333,106.55
ap binh xuan,,77,9.1808333,105.0086111
ap binh yen,,24,10.5333333,106.4
ap binh yen,,77,9.1805556,105.0486111
ap bo,,31,11.15,106.7166667
ap bo cang,,31,11.25,106.5
ap boi,,26,19.3,105.4166667
ap boi loi,,21,9.5783333,105.2622222
ap bo la,,31,11.2,106.7333333
ap bo lon,,33,11.3333333,106.2
ap bon,,29,15.7,108.1166667
ap bon,,77,9.2627778,105.2061111
ap bon b'sop,,07,11.9333333,107.75
ap bong gieng,,20,10.6333333,106.8
ap bong trang,,31,11.2,106.6666667
ap bong trang,,33,11.1666667,106.2
ap bo ray,,23,11.3833333,108.1
ap both ko ky,,41,9.5666667,106.0
ap boum,,04,16.3166667,107.0666667
ap brahon,,29,15.6833333,107.5833333
ap bu karr,,31,11.7833333,106.85
ap bung binh,,77,9.1363889,105.2072222
ap bung cau,,31,11.0166667,106.65
ap bung chong,,41,9.55,106.05
ap bung lon,,67,9.9161111,106.0186111
ap bung rieng,,40,10.5666667,107.4833333
ap bung thom,,65,9.5744444,106.1088889
ap bung tung,,65,9.4038889,106.0138889
ap bu nho,,31,11.7333333,106.85
ap buo18i can,,25,9.2333333,105.7333333
ap bu thanh,,31,11.7,106.6833333
ap ca cac,,24,10.8166667,105.7666667
ap ca co,,67,9.5911111,106.3230556
ap ca coi,,67,9.5911111,106.3230556
ap ca goc,,24,10.8333333,105.6833333
ap ca hang,,03,10.15,106.2333333
ap ca hoan,,24,10.7166667,105.9666667
ap cai chuoi,,06,10.2333333,106.0
ap cai cuu,,65,9.4502778,105.7322222
ap cai day,,25,9.35,105.7166667
ap cai dia,,21,9.615,105.3686111
ap cai duoc nho,,21,9.8666667,105.3666667
ap cai gia,,06,9.7516667,106.49
ap cai gia,,25,9.3166667,105.7333333
ap cai giay,,25,9.35,105.7166667
ap cai gieng,,77,9.0272222,105.0547222
ap cai giua,,77,9.2458333,105.1586111
ap cai goc,,24,10.85,105.7
ap cai keo,,77,9.0961111,105.295
ap cai mon,,24,10.8333333,105.7333333
ap cai ngan,,77,9.1533333,105.2133333
ap cai nhum,,21,9.8783333,105.3372222
ap cai qua,,06,10.1,106.0
ap cai ran,,73,9.6066667,105.5505556
ap cai rang,,77,9.0869444,105.0469444
ap cai ro,,77,9.0488889,105.1222222
ap cai sach,,24,10.8,105.7833333
ap cai su,,21,9.8833333,105.1
ap cai su,,77,9.1041667,105.2716667
ap cai tac,,33,11.1166667,106.1166667
ap cai tram,,73,9.2880556,105.6552778
ap cai trau,,41,9.5666667,105.5833333
ap cai vang,,21,9.4961111,105.38
ap ca lanh tamung,,01,10.6,104.9666667
ap ca loc,,67,9.6183333,106.2766667
ap cam son,,06,9.9833333,106.3333333
ap cam son,,67,9.9861111,106.335
ap ca na,,06,10.0166667,105.9666667
ap ca na,,24,10.8166667,105.8
ap can de,,24,10.8166667,106.35
ap ca nga,,24,10.8166667,105.75
ap cang nom,,67,9.7855556,106.3813889
ap canh den,,21,9.4602778,105.2880556
ap ca nhen tren,,33,11.05,106.2333333
ap ca nhung,,21,9.7833333,105.2666667
ap canle,,31,11.7166667,106.6
ap can lo,,37,10.4333333,106.1333333
ap can thanh,,01,10.45,105.3
ap can thoi,,01,10.4666667,105.3
ap cao bang,,04,16.5666667,107.4666667
ap cao lanh,,21,9.8841667,105.1755556
ap cao xa,,12,20.95,106.2666667
ap ca pho,,21,10.4333333,104.5833333
ap ca quan,,24,10.7,106.0
ap ca rung,,24,10.8,105.8333333
ap ca tac,,03,10.2,106.4166667
ap ca tac,,41,10.1,105.65
ap cau ba,,65,9.5244444,105.7961111
ap cau cay,,40,11.3333333,107.0166667
ap cau giai,,01,10.5,104.8333333
ap cau khoi,,33,11.25,106.2166667
ap cau ngan,,03,10.0333333,106.35
ap cau ngan,,41,9.3666667,106.1166667
ap cau quang,,36,10.7333333,107.8666667
ap cau sang,,20,10.9166667,106.6
ap cau sen,,24,10.7833333,105.8
ap cau thang,,21,10.2666667,104.5833333
ap cau xay,,24,10.5166667,106.6333333
ap ca vang,,09,10.95,105.5
ap cay cam,,24,10.85,105.9833333
ap cay cham,,31,11.0166667,106.7666667
ap cay day,,25,9.35,105.7166667
ap cay duong,,73,9.3,105.5786111
ap cay gia,,77,9.1458333,105.2988889
ap cay gian,,73,9.2122222,105.4894444
ap cay gua,,73,9.2102778,105.3758333
ap cay sop,,77,9.1283333,105.2519444
ap cay xang,,40,11.0833333,107.2333333
ap cha do,,33,11.4666667,106.3
ap cham,,36,11.0666667,107.6833333
ap chang be,,77,9.1194444,105.3211111
ap chang hai,,31,11.85,106.7333333
ap chanh,,20,10.8811111,106.5975
ap chanh,,24,10.9,106.3666667
ap chanh,,33,11.0166667,106.2333333
ap chanh,,67,9.6425,106.3502778
ap chanh hung,,06,10.1833333,106.1
ap chanh tuong,,24,10.5666667,106.6
ap chau ma,,09,10.7166667,105.35
ap chau thanh,,65,9.4769444,106.16
ap chau thoi,,01,10.7,105.1333333
ap cha va,,67,9.8511111,106.4494444
ap chi,,65,9.3775,106.0433333
apchin,,06,10.2,106.1833333
ap chin,,06,9.9666667,106.1333333
ap chin,,67,9.9925,106.1369444
ap chinh an,,04,16.6666667,107.4166667
ap chinh hoa,,24,10.7666667,106.4166667
ap cho,,03,10.05,106.55
ap cho,,06,9.6833333,106.2666667
ap cho,,20,10.9333333,106.5666667
ap cho,,40,10.9,106.8166667
ap cho ben,,40,10.4666667,107.2166667
ap cho dinh,,36,10.95,108.15
ap choi moi,,24,10.9666667,106.2166667
ap cho kinh cung,,48,9.8052778,105.6472222
ap chom ca,,01,10.55,105.2833333
ap chom chui,,67,9.7527778,106.3069444
ap chong giang,,67,9.7625,106.3586111
ap chong no,,67,9.8555556,106.0433333
ap chong su,,21,9.9927778,105.1641667
ap chong tap,,67,9.8802778,106.3011111
ap chon thanh,,75,11.4,106.6
ap chot,,67,9.9575,106.1386111
ap chua ba leng,,48,9.6866667,105.8377778
ap chua hoa,,31,11.5166667,106.7333333
ap chuoi nuoc,,33,11.15,106.1
ap co18 bi,,04,16.5,107.45
ap co18 co,,41,9.4166667,105.95
ap co18 thap,,04,16.55,107.4666667
ap co18 trach,,31,11.2,106.4
ap co18 xuan,,04,16.5333333,107.3833333
ap co ba,,73,9.5291667,105.6094444
ap con cu,,06,9.55,106.45
ap cong ca,,21,10.5166667,104.6833333
ap cong dien,,65,9.4069444,105.7380556
ap cong nghiep,,25,9.1,104.9
ap co sa,,33,11.1833333,106.1666667
ap co sang,,21,10.4666667,104.5833333
ap co tuat,,21,9.95,105.2833333
ap co xuoc,,77,9.1566667,105.0788889
ap cu b,,40,10.6833333,107.2166667
ap cu la,,21,9.9,105.1666667
ap cu lao,,20,10.8138889,106.5913889
ap cu lao tre,,24,10.95,106.3833333
ap da bac,,25,9.1833333,104.8166667
ap da chong,,16,21.1333333,105.3333333
ap dai an,,41,9.8,106.0
ap dai bai,,65,9.3391667,106.0661111
ap dai la,,29,16.0333333,108.1166667
ap dai mong,,67,9.7980556,106.1811111
ap dai nga,,23,11.5333333,107.8666667
ap dai tai,,36,10.9166667,108.0833333
ap dai thanh,,36,11.9833333,108.9833333
ap da loc,,23,11.9333333,108.5166667
ap da loi,,23,11.9333333,108.4666667
ap da mai,,36,10.8333333,107.6833333
ap dam chit,,21,10.5333333,104.65
ap dam thu,,24,10.5833333,106.3833333
ap dam tra cu,,67,9.6822222,106.2088889
ap dang gia dit,,23,12.05,108.4
ap dangia,,23,12.0166667,108.4333333
ap dang lam,,67,9.7038889,106.3669444
ap dan kia,,23,12.0166667,108.4
ap dao,,24,10.9,106.3166667
ap dao du,,73,9.6169444,105.5086111
ap dao vien,,41,9.45,105.8
ap da phuoc,,29,16.0666667,108.15
ap dap truong,,37,10.3166667,106.6666667
ap dat chay,,25,9.0166667,104.9166667
ap dat do,,21,10.05,104.0
ap da thanh,,23,11.9666667,108.4333333
ap da thien,,23,11.9666667,108.45
ap dau chich,,33,11.35,105.95
ap dau giong,,06,9.8,106.35
ap dau giong,,65,9.4836111,106.1494444
ap dau giong,,67,9.7733333,106.3338889
ap dau la,,73,9.1963889,105.4230556
ap day ba,,65,9.4794444,105.8836111
ap day oan,,73,9.5911111,105.5377778
ap den,,40,10.6333333,107.4833333
ap dien hoi,,65,9.5602778,105.6686111
ap dien tang,,04,17.3666667,106.7333333
ap dien thay hoi,,41,9.8,105.5166667
ap dien truong,,25,9.05,104.9333333
ap dieu hoa,,40,11.0333333,106.7833333
ap dinh an,,23,11.8833333,108.4833333
ap dinh,,20,10.7786111,106.7108333
ap dinh,,24,10.6,106.5166667
ap dinh,,26,19.2333333,105.4
ap dinh ba,,36,10.75,107.8833333
ap dinh hoa,,06,10.2,105.6666667
ap dinh hoa,,37,10.4333333,106.2833333
ap dinh phu,,21,9.9127778,105.2288889
ap dinh tan,,21,9.9555556,105.2519444
ap dinh thoi,,06,10.2166667,106.1
ap doan van,,07,12.0666667,107.4833333
ap do hoa,,20,10.6166667,106.8666667
ap dong an,,01,10.35,105.3833333
ap dong an,,21,10.1166667,105.2833333
ap dong an,,24,10.5666667,106.6833333
ap dong an,,41,9.8333333,105.85
ap don ganh,,31,11.2333333,106.5666667
ap dong,,01,10.4833333,105.5666667
ap dong,,06,10.25,105.7833333
ap dong,,09,10.4166667,105.65
ap dong,,20,10.6333333,106.7333333
ap dong,,24,10.4833333,106.6666667
ap dong,,36,11.1166667,107.75
ap dong,,37,10.35,106.7833333
ap dong,,40,10.5333333,107.2
ap dong binh,,04,10.1,105.3166667
ap dong binh,,06,10.2333333,105.5833333
ap dong binh,,41,9.9,105.8166667
ap dong binh,,48,9.8680556,105.8280556
ap dong binh trach,,01,10.35,105.35
ap dong cao,,67,9.5488889,106.4344444
ap dong chinh,,31,11.2,106.7333333
ap dong co ki,,01,10.9166667,105.0833333
ap dong da,,40,11.2833333,106.7833333
ap dong do,,38,21.2833333,105.7666667
ap dong gi,,04,16.4833333,107.6833333
ap dong hiep,,20,10.95,106.6166667
ap dong hoa,,01,10.6666667,105.0333333
ap dong hoa,,24,10.9166667,106.3
ap dong ho,,04,16.6166667,107.45
ap dong hung,,06,10.0166667,105.85
ap dong hung,,67,9.935,106.4238889
ap dong lam,,04,16.55,107.5166667
ap dong lan,,40,10.6666667,106.9666667
ap dong loc,,21,10.1,105.2666667
ap dong loi,,06,10.0333333,105.8333333
ap dong lon,,73,9.2936111,105.5508333
ap dong long,,31,11.6833333,106.6
ap dong mieu i,,73,9.2777778,105.4405556
ap dong my,,48,9.9080556,105.8022222
ap dong nguon,,37,10.3833333,106.6
ap dong nhi,,20,10.8166667,106.7166667
ap Ðong nhi,,20,10.8208333,106.6961111
ap dong nhon,,03,10.2,106.4666667
ap dong nhut,,20,10.95,106.6166667
ap dong ninh,,37,10.4166667,106.5166667
ap dong phat,,31,11.6166667,106.6166667
ap dong phu,,01,10.35,105.3166667
ap dong phuoc,,21,10.05,105.2333333
ap dong phuoc,,67,9.6388889,106.5072222
ap dong qui,,06,10.3166667,105.7666667
ap dong sac,,31,11.15,106.75
ap dong sao,,20,10.95,106.5666667
ap dong sao,,31,11.15,106.75
ap dong son,,01,10.2666667,105.2666667
ap dong tau,,31,11.7333333,106.75
ap dong thanh,,01,10.3333333,105.4666667
ap dong thanh,,03,10.2,106.3
ap dong thanh,,04,16.4666667,107.6666667
ap dong thanh,,06,10.05,105.8666667
ap dong thanh,,23,11.7833333,108.5333333
ap dong thanh,,40,10.45,106.8833333
ap dong thanh,,48,9.9308333,105.7611111
ap dong thanh thuong,,06,10.25,106.0333333
ap dong thoi,,37,10.4,106.5666667
ap dong xoai,,76,11.5333333,106.9166667
ap dong xuan,,38,21.0333333,105.2833333
ap dua,,03,10.25,106.45
ap dua,,24,10.8166667,106.3833333
ap dua,,31,10.9666667,106.7166667
ap duc hoa,,06,10.0666667,106.2166667
ap duc hot,,06,10.0666667,106.2166667
ap duc my,,06,10.05,106.2833333
ap duc my,,28,12.5333333,109.0333333
ap duc vinh,,31,11.5833333,106.6166667
ap duog tac,,73,9.2477778,105.5836111
ap duong dap,,31,11.0333333,106.7833333
ap duong hoa,,37,10.3,106.6833333
ap duong long,,31,11.1833333,106.4666667
ap duong phu,,37,10.5166667,106.3333333
ap duong ranh,,25,9.1333333,104.8166667
a pe lo te,,22,22.4666667,102.35
ap ganh gia,,21,10.25,103.9666667
ap gia bac,,23,11.3333333,108.0833333
ap gia binh,,33,11.05,106.3166667
ap gia hoi,,24,10.4333333,106.4833333
ap gia huynh,,36,10.9833333,107.5333333
ap giai lang,,65,9.4388889,106.065
ap gia khanh,,03,10.1833333,106.25
ap gia kiet,,06,9.9666667,106.0
ap gia lang,,65,9.4388889,106.065
ap gia loc,,33,11.05,106.35
ap giao dien,,03,9.9161111,106.6308333
ap giao du,,41,9.6166667,105.4833333
ap giao hoa,,03,9.8666667,106.6166667
ap giao thanh,,03,9.8925,106.6141667
ap giao thoi,,03,9.8908333,106.6583333
ap giap minh,,31,11.45,106.4833333
ap gia thanh,,40,10.45,107.3333333
ap gia tuoch,,25,9.3166667,105.5333333
ap gia vien,,04,16.5666667,107.4666667
ap giay heo,,21,10.0666667,105.1333333
ap gieng moi,,40,10.55,107.0666667
ap giong,,37,10.3333333,106.7
ap giong cam,,21,9.6025,105.4225
ap giong cat,,37,10.35,106.6666667
ap giong cat,,73,9.2116667,105.5825
ap giong co,,65,9.5244444,105.9666667
ap giong cui,,03,10.0833333,106.4
ap giong da,,21,9.9,105.25
ap giong dai,,67,9.7172222,106.5091667
ap giong de,,24,10.9,106.3166667
ap giong dua,,06,9.9,106.0666667
ap giong gan,,03,10.1166667,106.6
ap giong gia,,73,9.2411111,105.6505556
ap giong gieng,,67,9.5927778,106.5316667
ap giong ke,,21,10.2333333,104.7333333
ap giong me,,25,9.2833333,105.7
ap giong moi,,41,9.6666667,105.95
ap giong ta on,,21,10.4666667,104.65
ap giong tram,,67,9.6008333,106.535
ap giong trom,,03,10.0333333,106.5
ap giong trom,,24,10.9333333,106.2833333
ap gio ta,,36,11.8166667,109.1166667
ap giua,,01,10.6,104.9666667
ap giua,,20,10.9333333,106.55
ap giua,,33,11.15,106.2333333
ap giua,,37,10.4,106.2
ap giua,,67,9.6691667,106.2555556
ap go,,06,10.1166667,105.9833333
ap go bau,,24,10.6,106.7166667
ap go cao,,24,10.8833333,106.4166667
ap go dat,,21,9.8666667,105.2
ap go dau,,40,10.65,107.0333333
ap go dinh,,36,10.7333333,107.8833333
ap go dua,,24,10.8,105.9333333
ap go gon,,24,10.9,105.6
ap goho,,29,15.6333333,107.45
ap go muong,,77,9.1930556,105.2669444
ap go ngai,,33,11.0333333,106.2333333
ap go sao,,24,10.9166667,106.3833333
ap go vo,,24,10.8,105.95
ap gu,,33,11.6166667,106.3333333
ap ha,,09,10.5333333,105.55
ap ha,,67,9.7616667,106.5205556
ap ha bao,,01,10.75,105.1333333
ap ha cang,,04,16.5333333,107.4833333
ap hac hop,,65,9.4555556,106.155
ap ha do,,04,16.5833333,107.5166667
ap hai,,29,15.6833333,108.1166667
ap hai,,48,9.8975,105.5980556
ap hai nhuan,,04,16.6666667,107.5
ap hai tan,,36,11.1666667,108.5666667
ap ha lac,,04,16.6166667,107.45
ap ham da,,31,11.8333333,106.9833333
ap hanh lam,,06,10.2166667,106.05
ap hanh my,,67,9.8261111,106.4752778
ap ha thuy,,36,11.1833333,108.6166667
ap hau hoa,,37,10.4,106.0166667
ap hau phu,,37,10.45,106.0
ap hau quach,,36,11.2,108.5666667
ap hau qui,,37,10.4666667,105.9666667
ap hau thanh,,06,10.15,106.0166667
ap hau trinh,,37,10.4333333,105.9833333
ap hiale,,29,15.9166667,107.5666667
ap hien an,,04,16.5,107.3833333
ap hien luong,,04,16.55,107.4666667
ap hien si,,04,16.5333333,107.4333333
ap hiep an,,36,11.2166667,108.4333333
ap hiep duc,,36,11.1833333,108.6166667
ap hiep hoa,,01,10.5666667,105.3
ap hiep hoa,,20,10.6,106.7666667
ap hiep hoa,,36,11.2166667,108.4666667
ap hiep hung,,01,10.6166667,105.2666667
ap hiep thuan,,06,10.0333333,106.05
ap hiep thuan,,33,11.3166667,106.2
ap hiep trung,,01,10.5833333,105.2833333
ap hoa an,,03,10.2833333,106.4333333
ap hoa an,,06,10.3,105.9666667
ap hoa an,,21,10.0166667,105.1833333
ap hoa an,,24,10.5666667,106.3333333
ap hoa an,,37,10.4166667,106.3
ap hoa,,09,10.4666667,105.6833333
ap hoa,,24,10.5333333,106.0833333
ap hoa,,37,10.4166667,106.2333333
ap hoa binh,,01,10.6666667,105.2166667
ap hoa binh,,03,10.2,106.45
ap hoa binh,,06,10.2,105.8166667
ap hoa binh,,21,10.0333333,105.2
ap hoa binh,,33,11.25,106.1333333
ap hoa cu,,01,10.5166667,105.3166667
ap hoa cuong,,31,11.4666667,106.4833333
ap hoa dien,,36,11.05,108.1666667
ap hoa dinh,,06,10.2166667,105.6333333
ap hoa dong,,21,9.8155556,105.4413889
ap hoa dong,,36,11.0,108.1666667
ap hoa duc,,41,9.5666667,105.95
ap hoa hao,,37,10.3,106.1166667
ap hoa hiep,,21,9.9688889,105.1477778
ap hoa hung,,01,10.6333333,105.2166667
ap hoa hung,,06,10.25,105.6166667
ap hoa hung,,37,10.3,105.9333333
ap hoa khanh,,03,10.1833333,106.2333333
ap hoa khuong,,29,16.0166667,108.1333333
ap hoa lac,,09,10.4666667,105.6166667
ap hoa lac,,24,10.6166667,106.35
ap hoa lac,,65,9.8463889,105.9080556
ap hoa loc,,41,9.8833333,105.8833333
ap hoa loi,,21,9.9086111,105.4927778
ap hoa loi,,31,11.4666667,106.4666667
ap hoa loi,,41,9.9,105.9166667
ap hoa loi,,65,9.8622222,105.9022222
ap hoa long,,01,10.4333333,105.3833333
ap hoa luong,,04,16.35,107.6166667
ap hoa nam,,03,10.25,106.3166667
ap hoanh tau,,73,9.1894444,105.6177778
ap hoan quang,,40,10.7833333,107.2333333
ap hoa phau,,21,10.3333333,104.5166667
ap hoa pho,,06,10.2,106.15
ap hoa phu,,06,10.2166667,106.1333333
ap hoa phu,,21,9.85,105.4
ap hoa phu,,37,10.3166667,106.5333333
ap hoa phu,,41,9.7333333,105.6333333
ap hoa phu,,65,9.8791667,105.9011111
ap hoa phuoc,,21,10.0,105.1333333
ap hoa qui,,21,9.85,105.4166667
ap hoa qui,,24,10.45,106.6
ap hoa qui,,37,10.35,106.0166667
ap hoa quy,,20,10.3666667,106.8833333
ap hoa tach,,77,9.1033333,105.1513889
ap hoa tam b,,41,9.5666667,105.95
ap hoa tan,,36,11.0,108.1666667
ap hoa tay,,21,9.7933333,105.3744444
ap hoa thanh,,21,9.8525,105.4563889
ap hoa thanh,,36,11.0166667,108.1666667
ap hoa thanh,,37,10.3,105.95
ap hoa thanh,,67,9.6283333,106.5594444
ap hoa thanh,,77,9.1033333,105.1513889
ap hoa tho,,03,10.2,106.2666667
ap hoa thuan,,06,10.0333333,106.05
ap hoa thuan,,36,11.2333333,108.5166667
ap hoa thuong,,06,10.2333333,106.0333333
ap hoa trung,,21,9.7666667,105.3833333
ap ho da,,31,11.3666667,106.75
ap hoi ngai,,24,10.6666667,106.2666667
ap hoi ngh,,24,10.6666667,106.2666667
ap hoi phuoc,,40,10.4833333,107.05
ap hoi tam,,36,11.2,108.6
ap hoi than,,20,10.9833333,106.6
ap hoi thanh,,40,10.5166667,107.05
ap hoi tho,,06,10.0666667,106.0833333
ap hon heo,,21,10.3,104.5333333
ap hon soc,,21,10.15,104.9
ap ho phong,,73,9.2258333,105.4186111
ap ho set,,02,21.4666667,106.0333333
ap ho tren,,37,10.35,106.7666667
ap hung an,,03,10.1,106.4333333
ap hung,,20,10.6166667,106.7333333
ap hung binh,,03,10.1166667,106.5
ap hung binh,,06,10.2166667,106.2166667
ap hung binh,,41,9.8833333,105.7166667
ap hung de,,37,10.3166667,105.8333333
ap hung hieu,,37,10.3166667,105.85
ap hung hoa,,40,10.5,107.3
ap hung hoa tay,,03,10.0833333,106.4833333
ap hung le,,37,10.3166667,106.1
ap hung loc,,31,10.95,106.7
ap hung loi,,37,10.3833333,105.85
ap hung loi tay,,06,10.3166667,105.6666667
ap hung long,,03,10.15,106.3333333
ap hung long,,48,9.9036111,105.7188889
ap hung my dong,,06,10.35,105.6833333
ap hung my tay,,06,10.3333333,105.6833333
ap hung nghia,,03,10.0666667,106.4666667
ap hung nghia,,40,10.9333333,107.1
ap hung nhon,,03,10.0666667,106.4666667
ap hung nhon,,06,10.3,105.6333333
ap hung nhon,,37,10.3166667,106.1
ap hung nhon dong,,20,10.6,106.7666667
ap hung nhuong,,37,10.3166667,105.85
ap hung pe,,37,10.3166667,105.8333333
ap hung phat,,31,11.6166667,106.7
ap hung phu,,03,10.1166667,106.4166667
ap hung phu,,41,9.7666667,105.7333333
ap hung qui,,37,10.5,106.2666667
ap hung thanh,,21,9.8102778,105.4961111
ap hung thanh tay,,06,10.3166667,105.6333333
ap hung thoi,,48,9.8952778,105.7205556
ap hung tin,,06,10.1833333,106.1833333
ap hung tri,,37,10.3166667,106.1166667
ap hung van,,21,10.0166667,104.0166667
ap hung yen,,31,11.6333333,106.7333333
ap huong hoa,,48,9.6744444,105.7680556
ap huong ho,,06,10.0833333,105.9333333
ap huong lac,,65,9.6483333,105.7461111
ap huong phuoc,,29,16.0666667,108.1
ap huong sa,,40,10.6833333,107.2666667
ap huong thanh,,31,11.65,106.6833333
ap huong thanh,,48,9.8188889,105.5138889
ap huu an,,37,10.3,106.55
ap huu loc,,09,10.45,106.6833333
ap huu thanh,,65,9.7052778,106.0577778
ap kalali,,31,11.6833333,106.5666667
ap kalili,,31,11.6833333,106.5666667
ap katall,,31,11.6833333,106.5666667
ap kau kiet,,31,11.8,106.5166667
ap kau tiet,,31,11.8,106.5166667
ap ke mot,,21,9.6566667,105.2372222
ap ke my,,24,10.5833333,106.65
ap kha chui,,65,9.4955556,105.8452778
ap khanh an,,01,10.65,105.2
ap khanh an,,06,10.3666667,105.7
ap khanh binh,,01,10.6833333,105.1833333
ap khanh hau,,77,9.2119444,105.07
ap khanh hoa,,01,10.6333333,105.2166667
ap khanh hoa,,06,10.3833333,105.6833333
ap khanh hoi,,48,9.9494444,105.7902778
ap khanh hung,,06,10.2,105.85
ap khanh loi,,01,10.65,105.2166667
ap khanh long,,25,9.3833333,105.0
ap khanh my,,04,16.5666667,107.3833333
ap khanh my,,77,9.2663889,105.05
ap khanh nghia,,06,10.35,105.7166667
ap khanh nhon,,06,10.35,105.7166667
ap khanh phuoc,,36,10.95,108.2666667
ap khanh thien,,77,9.2694444,105.0813889
ap khanh tuong,,77,9.3197222,105.0825
ap kha phu tay,,41,9.75,106.0
ap khau cu,,67,9.5366667,106.4047222
ap khe dol,,33,11.4166667,106.1666667
ap khuc cung,,21,10.0666667,105.1333333
ap khuc treo,,25,9.2,105.3333333
ap khuong hoa,,67,9.9277778,106.2141667
ap khuong pho,,04,16.5666667,107.5333333
ap kien hoa,,01,10.55,105.3833333
ap kien hung,,01,10.5,105.45
ap kien long,,01,10.5666667,105.3833333
ap kien qui,,01,10.5166667,105.4166667
ap kien thuan,,01,10.5166667,105.4333333
ap kim cau,,06,9.85,106.4166667
ap kim lien,,29,16.1388889,108.1147222
ap kim thach,,23,11.9666667,108.4166667
ap kim xia,,73,9.3227778,105.4722222
ap kinh bac dong,,24,10.5833333,106.3333333
ap kinh bay,,21,10.0666667,105.2333333
ap kinh cung,,24,10.6166667,105.9
ap kinh ngang,,73,9.2433333,105.4555556
ap kinh tam,,21,10.0833333,105.25
ap kinh xang,,21,9.435,105.1777778
ap kinh xang,,65,9.4136111,105.6947222
ap kinh xang,,77,9.0194444,105.1677778
ap klong jum,,23,11.5166667,108.0833333
ap kroet,,23,11.9833333,108.3666667
ap la ban,,06,9.65,106.3833333
ap lac binh,,23,11.8166667,108.5666667
ap lac hoa,,36,11.1,107.6833333
ap lac hoa,,67,9.7055556,106.4697222
ap lac lam,,23,11.7833333,108.5333333
ap lac ninh,,28,12.5666667,109.1666667
ap lac tr,,36,11.2333333,108.7166667
ap lac vien,,23,11.8,108.55
ap lac xuan,,23,11.8333333,108.5833333
ap la ghi,,67,9.6022222,106.3572222
ap lai bang,,04,16.5,107.4333333
ap lai ha,,04,16.65,107.4333333
ap lai khe,,31,11.2,106.6166667
ap lai minh,,31,11.5166667,106.4333333
ap lai nuong,,06,10.1,106.0
ap lai thanh,,04,16.5333333,107.45
ap lai xa ha,,04,16.55,107.5
ap la ma,,01,10.75,105.1166667
ap lam duong,,25,9.4,104.95
ap lam hau,,25,9.3333333,104.85
ap lam hoa,,36,11.1,108.1166667
ap lam lac,,23,11.5166667,107.9166667
ap lam loc,,36,11.1833333,108.5833333
ap lam phu,,23,11.55,107.9166667
ap lam ro,,67,9.7402778,106.5263889
ap lam thien,,25,9.3333333,104.8666667
ap lam tuong,,25,9.2666667,104.8333333
ap lam tuyen,,23,11.8333333,108.6166667
ap lam xuan,,40,10.7166667,107.3666667
ap lan,,01,10.2166667,105.4166667
ap lang,,06,10.0833333,106.2333333
ap lang ba,,31,11.8833333,106.8833333
ap lang giai,,73,9.2913889,105.6430556
ap lang nay,,73,9.2391667,105.5686111
ap lang sen,,04,16.7166667,106.5666667
ap lang sen,,48,9.8452778,105.7808333
ap lang trau,,02,21.5166667,105.9833333
ap lang tre,,04,16.75,106.5833333
ap lang tron,,25,9.25,105.5166667
ap lanh thuy,,04,16.6333333,107.5333333
ap lan nhi,,20,10.8880556,106.6519444
ap lan tay,,20,10.9166667,106.6333333
ap lan thanh,,01,10.2333333,105.5333333
ap lan thanh,,06,10.2666667,105.55
ap lao mon,,09,10.4333333,105.6833333
ap lap dien,,24,10.9333333,106.4166667
ap la son,,40,10.5833333,107.25
ap lat,,23,12.0333333,108.4833333
ap la vien,,04,16.6833333,106.7
ap len buoi,,65,9.3552778,106.0522222
ap lien dam,,23,11.5333333,107.9333333
ap loc bich,,24,10.9833333,106.3166667
ap loc binh,,24,10.9833333,106.3166667
ap loc chanh,,24,10.9833333,106.2833333
ap loc khe,,31,11.5833333,106.5833333
ap loc lam,,40,11.2,107.4666667
ap loco,,67,9.9894444,106.1802778
ap loc thanh,,03,10.2333333,106.6166667
ap loc thanh,,31,11.8833333,106.6
ap loc tien,,24,10.6,106.6166667
ap loc trac,,33,11.0333333,106.3666667
ap lo gach,,24,10.9333333,105.7666667
ap lo gom,,40,10.4333333,107.3
ap lo ho,,33,11.3833333,106.0333333
ap loi an,,31,11.6666667,106.6666667
ap loi an,,37,10.4333333,105.8333333
ap loi,,09,10.5166667,105.6666667
ap loi du,,48,9.9988889,105.7444444
ap loi my,,09,10.5333333,105.5833333
ap loi nhon,,37,10.3833333,105.8666667
ap loi thuan,,37,10.3833333,105.9
ap loi tuong,,37,10.3666667,105.9
ap long an,,06,10.2333333,105.6666667
ap long an,,20,10.3833333,106.9166667
ap long an,,33,11.3,106.15
ap long an,,48,9.9191667,105.7552778
ap long be,,31,11.7833333,106.6333333
ap long binh,,06,10.1,106.05
ap long binh,,09,10.8166667,105.3333333
ap long binh,,11,10.3,106.5666667
ap long binh,,33,11.25,106.15
ap long cat,,40,10.5,107.1
ap long chau,,01,10.2666667,105.5333333
ap long chau,,09,10.7833333,105.3333333
ap long chu,,33,11.2,106.1333333
ap long dai,,40,10.8333333,106.8666667
ap long dien,,03,10.1666667,106.4166667
ap long dien,,40,10.7666667,106.9
ap long dien,,48,9.7947222,105.5813889
ap long dinh,,01,10.45,105.45
ap long dinh,,06,10.25,105.7
ap long dinh,,37,10.5166667,106.0
ap long ha,,06,10.1,106.0166667
ap long ha,,36,11.1833333,108.55
ap long ha,,47,11.1666667,108.5666667
ap long hai,,40,10.3833333,107.2333333
ap long hiep,,20,10.6,106.7333333
ap long hiep,,36,11.0666667,108.1833333
ap long hoa,,01,10.4833333,105.4666667
ap long hoa,,20,10.3833333,106.9
ap long hoa,,24,10.5833333,106.5833333
ap long hoa,,36,11.1166667,108.2166667
ap long hoa,,40,10.4666667,107.1333333
ap long hoa,,41,10.1666667,105.5833333
ap long hoa,,48,9.8813889,105.7238889
ap long ho ha,,04,16.45,107.55
ap long hoi,,06,9.8666667,106.1666667
ap long hung,,06,10.2833333,105.6166667
ap long hung,,09,10.7666667,105.3
ap long hung,,67,9.935,106.4238889
ap long huynh,,33,11.1333333,106.1166667
ap long khanh,,06,10.2666667,105.6166667
ap long khanh,,40,10.8666667,106.9166667
ap long khe,,36,11.0833333,108.1666667
ap long khot,,24,10.9166667,105.85
ap long kien i,,40,10.5,107.1833333
ap long lam,,36,11.1666667,108.2666667
ap long lien,,40,10.4833333,107.2166667
ap long linh,,47,10.9333333,108.2833333
ap long muc,,20,11.0833333,106.4
ap long my,,01,10.4666667,105.45
ap long my,,24,10.55,106.6166667
ap long my,,33,11.25,106.1166667
ap long ninh,,24,10.5,106.7166667
ap long phi,,67,9.6905556,106.5030556
ap long pho,,06,9.7166667,106.5166667
ap long pho,,67,9.6866667,106.5127778
ap long phu,,01,10.45,105.5166667
ap long phu,,24,10.6166667,106.65
ap long phu,,33,11.3833333,105.9
ap long phu,,48,9.7211111,105.6161111
ap long phung,,06,10.2666667,105.9833333
ap long phung,,48,9.8286111,105.7180556
ap long phuoc,,67,9.6388889,106.5072222
ap long que,,48,9.7080556,105.6188889
ap long qui,,01,10.5,105.4666667
ap long qui,,06,10.2333333,106.1666667
ap long qui,,37,10.3333333,106.6333333
ap long qui,,48,9.7080556,105.6188889
ap long qui,,65,9.625,105.7055556
ap long qui thuong,,06,10.2,106.0333333
ap long son,,23,10.95,108.3333333
ap long son,,48,9.8588889,105.7183333
ap long thai,,09,10.8,105.3333333
ap long thanh,,01,10.35,105.4666667
ap long thanh,,09,10.8,105.3333333
ap long thanh,,20,10.6333333,106.75
ap long thanh,,33,11.1666667,106.1166667
ap long thanh,,36,11.5333333,108.9666667
ap long thanh,,67,9.5466667,106.4066667
ap long thanh,,69,9.9580556,106.0866667
ap long the,,67,9.7141667,106.4283333
ap long tho,,06,10.1333333,106.0333333
ap long tho,,09,10.7666667,105.3
ap long thoi,,06,10.2,106.0
ap long thoi,,24,10.6333333,106.5833333
ap long thoi,,37,10.3666667,106.2833333
ap long thoi,,40,10.5,107.3166667
ap long thuan,,01,10.5166667,105.4833333
ap long tr,,06,10.0166667,106.2833333
ap long truong,,67,9.725,106.3708333
ap long tuong,,37,10.3833333,106.3333333
ap long vinh,,37,10.4833333,106.0333333
ap long xuan,,40,10.5,107.1333333
ap long xuyen,,40,10.5333333,107.2
ap long yen,,33,11.2333333,106.1333333
ap lo o,,31,11.7166667,106.7
ap lo o,,67,9.7369444,106.4738889
ap lo voi,,40,10.4166667,107.2166667
ap lu ban,,06,9.65,106.3833333
ap luc,,21,9.7691667,105.3205556
ap lung lon,,21,10.2833333,104.6833333
ap lung lon,,73,9.2244444,105.6288889
ap lung sen,,41,9.4333333,105.85
ap luoc ma,,31,11.6666667,106.7333333
ap luong binh,,36,11.2,108.3833333
ap luong hoa,,67,9.815,106.4127778
ap luong loi,,36,11.1833333,108.3833333
ap luong mai,,04,16.6666667,107.3666667
ap luong son,,28,12.3333333,109.2
ap luong tay,,36,11.1833333,108.2833333
ap luu cu,,67,9.7019444,106.2016667
ap mac day,,41,9.3666667,105.7333333
ap mac day,,73,9.3655556,105.7286111
ap mai,,38,21.55,104.95
ap mai giam,,41,9.8333333,105.8333333
ap mai trung,,12,20.95,106.2
ap ma lam cham,,36,11.0833333,108.1333333
ap mang ca,,48,9.7966667,105.8597222
ap man ling,,23,11.9833333,108.4
ap mien ba,,06,10.0333333,106.0333333
ap mieu,,20,10.9666667,106.5166667
ap mieu ba,,06,10.0333333,106.0333333
ap mieu dien,,20,10.65,106.7166667
ap mieu dieu,,20,10.65,106.7166667
ap minh huong,,04,16.65,107.5166667
ap minh nghia,,03,10.05,106.3666667
ap mo cong,,33,11.4166667,106.05
ap moi,,24,10.6833333,106.1
ap moi,,31,11.0333333,106.65
ap moi,,33,11.1833333,106.1833333
ap mot,,04,16.3666667,107.9
ap mot,,29,15.8333333,108.3166667
ap mot,,40,11.0333333,106.9166667
ap mot,,41,9.9166667,105.6333333
ap mot,,48,9.9113889,105.5991667
ap mot,,77,9.2538889,105.2063889
ap mo tin,,40,10.6666667,107.2833333
ap m'rang,,23,11.7833333,108.5166667
ap mui con,,20,10.9833333,106.45
ap mui tram,,25,9.2333333,104.85
ap mung khai,,48,9.6686111,105.8058333
ap muoi,,06,9.9833333,106.1833333
ap muong dieu,,77,9.0480556,105.1683333
ap muong khai,,21,10.4333333,104.5333333
ap muong khai,,67,9.5697222,106.3922222
ap my an,,01,10.4,105.45
ap my an,,06,10.0833333,105.8333333
ap my an,,37,10.4333333,106.4
ap my an,,40,10.45,107.3
ap my,,01,10.4833333,105.4166667
ap my binh,,37,10.3333333,106.1166667
ap my bon,,06,10.0833333,105.8166667
ap my chanh,,06,10.05,105.8166667
ap my chanh,,37,10.3666667,106.1833333
ap my chanh,,48,9.7797222,105.6838889
ap my da,,37,10.4666667,106.0333333
ap my dien,,06,10.05,106.1166667
ap my dien,,37,10.3333333,105.8166667
ap my dinh,,37,10.4666667,106.0333333
ap my dong,,09,10.45,105.7
ap my dong,,73,9.4377778,105.5875
ap my duc,,01,10.4833333,105.3666667
ap my duoc,,03,9.9833333,106.4166667
ap my hai,,36,11.6166667,109.15
ap my hanh,,24,10.6,106.6333333
ap my hiep,,01,10.4166667,105.45
ap my hiep,,09,10.5,105.6
ap my hoa,,01,10.5166667,105.3333333
ap my hoa,,03,10.1666667,106.45
ap my hoa,,06,10.1333333,105.8166667
ap my hoa,,09,10.4,105.75
ap my hoa,,24,10.6166667,106.3166667
ap my hoa,,37,10.35,105.8
ap my hoa,,41,9.9833333,105.6833333
ap my hoa,,48,9.7711111,105.7402778
ap my hoa,,65,9.6027778,105.8105556
ap my hoi,,67,9.7619444,106.4480556
ap my hung,,37,10.2833333,105.9
ap my hung,,48,9.7541667,105.8019444
ap my kiem,,37,10.4,106.1166667
ap my loc,,73,9.4769444,105.6022222
ap my loi,,01,10.4833333,105.5166667
ap my loi,,09,10.4833333,105.6166667
ap my loi,,24,10.9,106.2333333
ap my loi,,37,10.3333333,105.7833333
ap my loi,,41,9.7666667,105.7333333
ap my loi,,48,9.7847222,105.7636111
ap my loi,,65,9.6338889,105.7361111
ap my loi mot,,04,16.4,107.8666667
ap my long,,37,10.3666667,105.9666667
ap my luoc,,37,10.4,105.95
ap my nghia,,37,10.3666667,105.9166667
ap my noi,,67,9.7619444,106.4480556
ap my phu,,04,16.6333333,107.4166667
ap my phu,,06,10.05,105.9666667
ap my phu,,09,10.4166667,105.7666667
ap my phu,,37,10.35,105.9666667
ap my phu,,48,9.8116667,105.7191667
ap my phu nam,,73,9.3536111,105.5441667
ap my phuoc,,41,10.0,105.7166667
ap my phuoc,,73,9.5061111,105.5908333
ap my qui,,01,10.3666667,105.45
ap my qui,,06,10.0333333,105.9833333
ap my qui,,09,10.4833333,105.7666667
ap my qui,,24,10.9666667,106.2833333
ap my qui,,37,10.5,105.9
ap my qui,,65,9.7866667,105.7297222
ap my quo,,01,10.3666667,105.45
ap my quy,,09,10.4833333,105.7666667
ap my quy,,37,10.5333333,105.8
ap my tay,,09,10.45,105.7166667
ap my than,,37,10.95,106.2666667
ap my thanh,,01,10.3333333,105.3
ap my thanh,,06,10.1166667,105.8166667
ap my thanh,,09,10.4166667,105.7166667
ap my thanh,,24,10.5333333,105.9
ap my thanh,,36,11.0,108.1
ap my thanh,,37,10.35,106.1666667
ap my thanh,,65,9.8069444,106.0133333
ap my th,,01,10.4833333,105.55
ap my th,,37,10.45,105.8833333
ap my tho,,37,10.6,105.8333333
ap my tho,,73,9.4525,105.5777778
ap my thoi,,01,10.3166667,105.2833333
ap my thoi,,06,10.0666667,105.8166667
ap my thoi,,09,10.4333333,105.6666667
ap my thuan,,01,10.5,105.4833333
ap my thuan,,09,10.4166667,105.7333333
ap my thuan,,24,10.65,106.2833333
ap my thuan,,37,10.2833333,105.8833333
ap my thuan,,48,9.8211111,105.7677778
ap my thuan,,65,9.6313889,105.8125
ap my thuong,,37,10.45,106.3666667
ap my trach,,03,9.9752778,106.4008333
ap my trinh,,37,10.4166667,106.0
ap my trung,,01,10.4666667,105.5166667
ap my trung,,06,10.0666667,105.9833333
ap my truong,,37,10.45,106.3666667
ap my tuong,,37,10.35,105.9333333
ap my vinh,,37,10.35,106.1166667
ap my xa,,04,16.55,107.55
ap my xuan,,37,10.4,106.4
ap my xuyen,,04,16.6333333,107.3166667
ap nam,,06,10.0833333,105.8833333
ap nam,,21,9.3427778,105.0175
ap nam,,24,10.5333333,106.6833333
ap nam,,37,10.3333333,106.7666667
ap nam,,40,10.5166667,107.2
ap nam,,67,9.9608333,106.1944444
ap nam,,77,9.3025,105.1997222
ap nam hue,,01,10.2333333,105.25
ap nam ly,,38,21.35,105.8166667
ap nam ninh,,36,10.9666667,108.0
ap nam o,,29,16.1166667,108.1333333
ap nam trai,,33,11.2333333,106.1833333
ap nam truong hue,,33,11.2166667,106.1666667
ap nan chau,,01,10.5333333,105.5333333
ap nang chang,,21,9.7930556,105.4469444
ap nang son,,40,10.6666667,107.2333333
ap nga bac,,65,9.5033333,105.8180556
ap nga bac,,73,9.6319444,105.5305556
ap nga cay,,41,9.6166667,105.4833333
ap nga dai,,24,10.5333333,106.6333333
ap nga huu,,67,9.9894444,106.1027778
ap ngai giao,,40,10.6666667,107.25
ap ngai huu,,67,9.9894444,106.1027778
ap ngai loc,,67,9.8005556,106.2902778
ap ngai nhi,,67,9.8877778,106.0275
ap ngai nhin,,67,9.8877778,106.0275
ap ngai phu,,06,10.0333333,106.1
ap ngai thuan,,67,9.7922222,106.2461111
ap ngan dien,,73,9.2177778,105.5294444
ap ngan ro,,65,9.545,106.1733333
ap nga ta,,73,9.1636111,105.4669444
ap nga tu,,21,10.3666667,104.5333333
ap nga tu,,73,9.1636111,105.4669444
ap ngoai lo da,,03,10.1333333,106.5833333
ap ngoc an,,21,9.8897222,105.3619444
ap ngoc bich,,21,9.8766667,105.3911111
ap ngoc binh,,21,9.8766667,105.3911111
ap ngoc hai,,36,10.9333333,108.15
ap ngoc loi,,21,9.9683333,105.3997222
ap ngoc trung,,21,9.9138889,105.3769444
ap ngon,,65,9.4605556,105.8047222
ap ngon cai,,21,9.6280556,105.3077778
ap nguyen binh,,21,10.1666667,104.9666667
ap nguyen thai hoc,,40,10.9666667,107.15
ap nha dong,,65,9.9591667,105.9916667
ap nha mat,,31,11.25,106.55
ap nha may,,25,9.1333333,104.9166667
ap nhan chau,,01,10.5333333,105.5333333
ap nha noi,,31,11.5166667,106.6666667
ap nhan phu,,41,9.95,105.6666667
ap nhan thuan,,48,9.9436111,105.6719444
ap nhan xuan,,48,9.9336111,105.6322222
ap nha ong,,24,10.8166667,105.8833333
ap nha phan,,77,9.0908333,105.0986111
ap nha sap,,21,9.95,105.1666667
ap nhat,,31,11.0666667,106.5666667
ap nhat,,67,9.9380556,106.1663889
ap nha tho,,65,9.5422222,105.7408333
ap nha viec,,03,10.1166667,106.5833333
ap nha viec,,20,11.0,106.6
ap nha viec,,65,9.4947222,106.1763889
ap nhi,,03,10.2333333,106.45
ap nhi,,06,10.0,106.2166667
ap nhi,,09,10.6333333,105.4166667
ap nhi,,20,10.4166667,106.9666667
ap nhi,,24,10.4833333,106.5833333
ap nhi,,31,10.9,106.7166667
ap nhi,,33,11.1666667,106.2166667
ap nhi,,37,10.35,106.6833333
ap nhi,,41,9.9,105.7
ap nhi,,67,9.7833333,106.2763889
ap nhon binh,,41,9.9666667,105.6833333
ap nhon duc,,36,11.0833333,108.4
ap nhon hoa,,01,10.45,105.4333333
ap nhon hoa,,06,9.7833333,106.1833333
ap nhon hoa,,24,10.55,106.4333333
ap nhon hoa,,36,11.0666667,108.4166667
ap nhon khanh,,48,9.9733333,105.715
ap nhon loc,,48,9.9955556,105.6822222
ap nhon loi,,01,10.45,105.4166667
ap nhon long,,36,11.1,108.4666667
ap nhon my,,01,10.4666667,105.4
ap nhon ngai,,01,10.45,105.3833333
ap nhon ngai,,06,10.0833333,106.1166667
ap nhon phu,,41,9.95,105.6666667
ap nhon phuoc,,41,9.9833333,105.7166667
ap nhon qui,,06,10.35,105.6333333
ap nhon tho,,41,9.9833333,105.65
ap nhon thuan,,36,11.1166667,108.1333333
ap n'houar,,31,11.8,107.0333333
ap nhuan oc,,01,10.2833333,105.4833333
ap nhuan trach,,03,10.0166667,106.3666667
ap nhut,,03,10.2666667,106.3833333
ap nhut,,06,10.0,106.1
ap nhut,,09,10.6166667,105.4166667
ap nhut,,24,10.4833333,106.6
ap nhut,,31,11.0166667,106.65
ap nhut,,37,10.4,106.6833333
ap nhut,,40,10.95,106.8
ap nhut,,67,9.7344444,106.2666667
ap nhut tay,,09,10.5,105.5833333
ap ninh binh,,06,9.9333333,106.1166667
ap ninh hoa,,69,9.9852778,106.0497222
ap ninh loi,,21,9.5202778,105.4583333
ap ninh loi,,73,9.3236111,105.5755556
ap ninh thanh,,31,11.8333333,106.6166667
ap ninh thanh chai,,73,9.4955556,105.5097222
ap ninh thanh chua,,73,9.4791667,105.5330556
ap ninh tho,,06,9.7666667,106.1166667
ap ninh thoi,,06,9.7666667,106.1166667
ap ninh thoi,,48,9.8308333,105.9716667
ap ninh thuan,,36,11.0,108.1166667
ap noc nan,,73,9.2583333,105.4172222
ap noi,,06,10.2166667,106.0666667
ap nui com,,21,10.2666667,104.6
ap nui huynh,,21,10.2,104.6166667
ap nuoc chay,,21,9.6166667,105.2611111
ap nuoc man,,65,9.5772222,106.1388889
ap nuoc man ngoai,,65,9.5941667,106.1391667
ap nuoc trong,,21,9.6330556,105.4586111
ap nuoc vang,,40,11.2833333,106.8
ap nuoc xay,,06,10.1,106.0833333
ap o chich,,67,9.92,106.2775
ap o ma,,41,9.4166667,106.1166667
ap ong hien,,21,10.0063889,105.1380556
ap ong kham,,77,9.0088889,105.0275
ap ong lang,,21,10.25,103.95
ap ong muon,,25,9.1666667,105.1
ap ong nam,,25,8.9333333,105.2666667
ap ong quen,,37,10.2833333,106.5333333
ap ong ta,,01,10.4333333,105.1166667
ap ong tan,,73,9.3005556,105.8105556
ap ong tu,,09,10.45,105.6666667
ap ong yen,,21,9.4833333,105.3519444
ap op hoc,,09,10.45,106.6833333
ap o rang,,67,9.7558333,106.4416667
apowan,,13,20.7333333,107.05
ap patt,,04,16.3666667,107.0333333
ap phan boi chau,,40,10.9333333,107.1333333
ap phieu,,67,9.8011111,106.3877778
ap pho,,01,10.7,105.15
ap pho duoi,,65,9.4638889,106.1597222
ap phom mit,,31,11.3833333,106.7333333
ap phong hoa,,06,10.15,106.0333333
ap phong hoa,,24,10.7,106.1333333
ap phong nhuong,,67,9.8405556,106.1275
ap phong phu,,03,10.2333333,106.4833333
ap phong phu,,06,9.8333333,106.0833333
ap phong phu,,37,10.35,106.4
ap pho ninh,,04,16.5333333,107.45
ap pho trach,,04,16.65,107.35
ap phu an,,01,10.45,105.3166667
ap phu an,,06,10.0333333,106.2333333
ap phu an,,36,10.95,108.15
ap phu an,,37,10.3833333,106.1666667
ap phu,,09,10.4666667,105.7166667
ap phu bai,,04,16.3666667,107.7333333
ap phu bai i,,04,16.3666667,107.7166667
ap phu bai vi,,04,16.3666667,107.7333333
ap phu binh,,01,10.6833333,105.3333333
ap phu binh,,06,10.2333333,105.8666667
ap phu binh,,28,12.1166667,109.1
ap phu cat,,40,11.1333333,107.1333333
ap phu cuong,,36,10.9666667,108.15
ap phu dien,,36,10.95,108.05
ap phu dien,,37,10.4666667,106.0833333
ap phu dinh,,03,10.3,106.25
ap phu duc,,65,9.5572222,106.0977778
ap phu duong,,03,10.0,106.4166667
ap phu giao,,65,9.4416667,105.7708333
ap phu hai,,36,11.1666667,108.5666667
ap phu hai,,40,10.5,107.1166667
ap phu hiep,,03,10.2333333,106.2333333
ap phu hiep,,06,10.1666667,105.9666667
ap phu hiep,,36,11.0,108.2666667
ap phu hoa,,01,10.4666667,105.3333333
ap phu hoa,,03,10.05,106.45
ap phu hoa,,06,10.1333333,105.8833333
ap phu hoa,,37,10.4666667,106.4166667
ap phu hoa,,40,10.9,107.2666667
ap phu hoa,,41,9.9666667,105.85
ap phu hoa,,65,9.6930556,106.0755556
ap phu hoa,,67,9.9522222,106.3125
ap phu hoi,,03,10.3,106.2333333
ap phu hoi,,21,10.1,105.15
ap phu hung,,01,10.75,105.1833333
ap phu hung,,03,10.25,106.5833333
ap phu hung,,31,11.7,106.6666667
ap phu hung,,37,10.3833333,106.15
ap phu huu,,01,10.3,105.2833333
ap phu huu,,06,10.05,106.2166667
ap phu huu,,48,9.6988889,105.9694444
ap phu huu,,67,9.6716667,106.4891667
ap phu khuong,,24,10.4833333,106.4333333
ap phu lam,,36,10.9166667,108.0333333
ap phu lan,,67,9.8783333,106.2741667
ap phu le,,04,16.5333333,107.4666667
ap phu le,,65,9.9136111,105.865
ap phu lo,,31,11.6666667,106.55
ap phu loc thuong,,03,10.0833333,106.3666667
ap phu loi,,01,10.9166667,105.1
ap phu loi,,03,10.2333333,106.35
ap phu loi,,06,10.2666667,105.8166667
ap phu loi,,09,10.75,105.35
ap phu loi,,37,10.2333333,106.7
ap phu loi,,65,9.9136111,105.865
ap phu long,,06,10.0833333,105.8833333
ap phu luong,,03,10.2666667,106.2
ap phu luong,,06,10.15,105.95
ap phu ly,,06,10.0,105.8833333
ap phu mieng,,31,11.6833333,106.65
ap phu minh,,36,10.8666667,107.9166667
ap phum lu,,31,11.7666667,106.7333333
ap phu my,,01,10.6333333,105.3333333
ap phu my,,03,10.1666667,106.7333333
ap phu my,,06,10.0833333,105.8666667
ap phu my,,09,10.5333333,105.5666667
ap phu my,,37,10.3666667,106.1166667
ap phu my,,41,9.75,106.0
ap phu my ha,,37,10.25,106.6833333
ap phu ngan,,04,16.5333333,107.5666667
ap phung,,01,10.15,105.3166667
ap phung hiep,,06,10.2833333,105.85
ap phung thuan,,01,10.2166667,105.5333333
ap phu nhon,,41,9.95,105.8166667
ap phu nhou,,41,9.95,105.8166667
ap phu nhuan,,21,10.5,104.5833333
ap phu nhut,,01,10.6333333,104.9666667
ap phu ninh,,36,11.1666667,108.5666667
ap phu ninh,,41,9.6166667,105.95
ap phu nong,,04,16.6833333,107.3833333
ap phuoc,,03,10.2833333,106.25
ap phu oc,,04,16.5333333,107.4666667
ap phuoc binh,,33,11.3,106.2
ap phuoc buu,,40,10.5166667,107.3833333
ap phuoc cang,,40,10.8833333,106.9
ap phuoc chau,,40,10.85,106.8666667
ap phuoc co,,40,10.45,107.1666667
ap phuoc da,,03,10.3,106.3
ap phuoc dinh,,06,10.2666667,106.0
ap phuoc hau,,03,10.2,106.2833333
ap phuoc hien,,40,10.5166667,107.2333333
ap phuoc hoa,,01,10.8833333,105.0833333
ap phuoc hoa,,06,10.1833333,105.95
ap phuoc hoa,,33,11.3833333,106.2166667
ap phuoc hoa,,40,10.65,106.8333333
ap phuoc hoa ii,,40,11.25,106.7666667
ap phuoc hoi,,67,9.6252778,106.4230556
ap phuoc hung,,24,10.5333333,106.5333333
ap phuoc hung,,33,11.0166667,106.2166667
ap phuoc hung,,40,10.55,107.2833333
ap phuoc hung trung,,24,10.6,106.5666667
ap phuoc huu,,40,10.5166667,107.0166667
ap phuoc ke,,24,10.6,106.6333333
ap phuoc khanh,,01,10.9,105.0833333
ap phuoc khanh,,03,10.1,106.4
ap phuoc lai,,65,9.6597222,105.9533333
ap phuoc lam,,40,10.4166667,107.2166667
ap phuoc le,,03,10.2833333,106.25
ap phuoc loc,,06,10.1666667,106.0166667
ap phuoc loc,,31,11.8,107.0333333
ap phuoc loi,,65,9.5833333,105.7238889
ap phuoc long,,41,9.9333333,105.75
ap phuoc ly,,06,10.1333333,106.2
ap phuoc my,,24,10.9666667,106.15
ap phuoc qua a,,31,11.7833333,107.0
ap phuoc qua b,,31,11.7666667,107.0
ap phuoc quan,,01,10.7333333,105.1166667
ap phuoc son,,31,11.8,106.9833333
ap phuoc tan,,33,10.3333333,106.2166667
ap phuoc thanh,,01,10.75,105.1
ap phuoc thanh,,03,10.1,106.6333333
ap phuoc thanh,,23,11.9833333,108.4333333
ap phuoc thanh,,25,9.3,105.6833333
ap phuoc thanh,,40,10.4166667,107.15
ap phuoc thien,,03,10.2833333,106.3833333
ap phuoc thien,,31,12.0333333,106.8333333
ap phuoc thinh,,31,11.8,107.05
ap phuoc tho,,01,10.7166667,105.1166667
ap phuoc tho,,21,9.3877778,105.4191667
ap phuoc thoi,,20,10.4,106.9333333
ap phuoc thoi,,24,10.6166667,106.6833333
ap phuoc thuan,,24,10.5833333,106.6166667
ap phuoc thuan,,29,16.0166667,108.1333333
ap phuoc thuan,,65,9.9086111,105.8019444
ap phuoc tinh,,40,10.4,107.1833333
ap phuoc truong,,21,9.3836111,105.3763889
ap phuoc truong,,65,9.5813889,105.6944444
ap phuoc tu,,03,10.3,106.3333333
ap phuoc tu,,24,10.5833333,106.6833333
ap phuoc tuong,,03,10.2833333,106.3166667
ap phuoc tuong,,24,10.5333333,106.5666667
ap phuoc tuy,,24,10.5166667,106.6
ap phuoc vinh,,24,10.6166667,106.5833333
ap phuong an,,41,9.75,105.65
ap phuong lac,,36,11.0666667,108.1166667
ap phuong lac,,48,9.745,105.6561111
ap phuong ninh,,48,9.7052778,105.7122222
ap phu phong-a,,36,10.95,108.0333333
ap phu phong,,36,10.95,108.0333333
ap phu qui,,06,10.1666667,105.9166667
ap phu son,,03,10.0333333,106.3666667
ap phu son,,36,10.9833333,108.2833333
ap phu sum,,36,10.9166667,108.05
ap phu sung,,36,10.9,107.9666667
ap phu tay,,03,10.0666667,106.3666667
ap phu thanh,,01,10.7333333,105.2833333
ap phu thanh,,03,10.2166667,106.2666667
ap phu thanh,,06,10.0833333,105.7833333
ap phu thanh,,09,10.7166667,105.3333333
ap phu thanh,,41,9.85,105.8666667
ap phu thanh,,65,9.89,105.8675
ap phu thien,,01,10.3333333,105.4
ap phu thinh,,37,10.4166667,106.3666667
ap phu tho,,16,21.05,105.3
ap phu tho,,31,10.9666667,106.6833333
ap phu tho,,36,10.8833333,107.95
ap phu thoi,,06,10.15,106.1833333
ap phu thoi,,67,9.8966667,106.4963889
ap phu thuan,,03,10.2833333,106.2333333
ap phu thuan,,06,10.1166667,105.9
ap phu thuan,,23,11.8333333,108.6333333
ap phu thu,,67,9.7986111,106.5144444
ap phu tinh,,36,10.9666667,108.1666667
ap phu tri,,41,9.9,105.85
ap phu tri,,65,9.9358333,105.8536111
ap phu trung,,36,10.9833333,108.1666667
ap phu xuan,,03,10.3166667,106.2666667
ap phu xuan,,06,10.2333333,105.8166667
ap phu xuan,,41,9.8833333,105.6833333
ap phu xuong,,01,10.7,105.35
ap phu xuong,,28,12.2833333,109.2
ap plei betel,,10,13.6166667,108.1166667
ap quan dieu,,06,10.15,106.1166667
ap quang binh,,06,10.1166667,106.1666667
ap quang dieu,,06,10.15,106.1166667
ap quang gia,,06,9.7166667,106.1833333
ap quang giao,,40,10.6333333,107.3
ap quang nhan,,06,10.1,106.1666667
ap quang ninh,,06,10.1166667,106.1666667
ap quan ha,,36,11.0666667,107.7
ap quan huy,,06,10.0833333,106.1166667
ap quan long,,24,10.5666667,106.6666667
ap quan nam,,29,16.1,108.1166667
ap quan nhan,,06,10.1,106.1666667
ap qui an,,03,9.9394444,106.4772222
ap qui,,01,10.2333333,105.4
ap qui dong,,20,10.65,106.6666667
ap qui thanh,,37,10.4,106.1833333
ap quoi an,,03,9.9394444,106.4772222
ap quy,,01,10.2333333,105.4
ap rach ban,,25,9.05,104.95
ap rach ban,,77,9.2127778,105.1027778
ap rach bang,,06,10.05,106.2666667
ap rach dung,,21,10.1833333,104.6666667
ap rach gau,,24,10.7833333,106.4166667
ap rach giong,,21,10.05,105.0833333
ap rach go,,06,10.1166667,105.9833333
ap rach go,,21,10.4833333,104.5666667
ap rach lang,,25,9.1,104.9833333
ap rach loc,,24,10.5166667,106.6333333
ap rach meo,,21,9.9833333,105.1
ap rach muoc sac,,06,10.1,106.1333333
ap rach muoi,,77,9.1341667,105.0780556
ap rach nhiem,,33,11.3666667,106.3333333
ap rach nhum,,24,10.9,106.3333333
ap rach nui,,21,10.35,104.5166667
ap rach ran,,25,9.2166667,105.4666667
ap rach rung,,41,9.4833333,105.8833333
ap rach so,,21,9.9547222,105.1205556
ap rach soi,,21,9.9547222,105.1205556
ap rach su,,20,10.4833333,106.9166667
ap rach tia,,21,9.7702778,105.2944444
ap ranh hat,,21,9.3452778,105.4061111
ap rat,,65,9.3819444,106.0233333
ap ray,,40,11.2333333,107.35
ap r'loum,,23,11.3833333,108.1
ap rong ri,,25,8.9833333,105.25
ap rung dan,,33,11.1166667,106.15
ap rung dau,,24,10.9333333,106.3666667
ap rung la,,40,10.8166667,107.5666667
ap rung tre,,24,10.95,106.3333333
ap ruong,,31,11.3666667,106.7166667
ap ruong hoi dong,,41,9.8,105.5166667
ap sa chau,,67,9.6811111,106.3930556
ap sai gon,,65,9.4780556,106.1
ap sam pha,,65,9.395,106.1469444
ap samuk,,67,9.8961111,106.3130556
ap sang,,25,9.3333333,105.7166667
ap sao,,41,9.3666667,105.9833333
ap sao luoi,,25,9.2166667,104.85
ap sau,,77,9.3025,105.0272222
ap say nieu,,48,9.8127778,105.7805556
ap sieu quan,,04,16.6833333,107.35
ap soa ao,,21,10.3333333,104.5333333
ap soai kong,,31,11.7,106.4833333
ap so ba,,21,10.05,105.2166667
ap so bau no,,31,11.2,106.4333333
ap so bay,,21,9.3508333,105.2430556
ap soc dich,,41,9.5,106.1
ap soc giua,,21,9.95,105.2
ap soc lao,,33,11.1666667,106.4
ap soc soan,,31,11.6833333,106.7166667
ap soc tranh,,31,11.6,106.6833333
ap soc xiem,,31,11.6666667,106.7166667
ap so do,,24,10.75,105.8833333
ap so hai,,21,9.3413889,105.3572222
ap so mot,,21,9.3477778,105.3747222
ap son,,41,9.3833333,106.0166667
ap son chau,,06,10.2333333,106.1333333
ap son cong,,04,16.5166667,107.4666667
ap song cai,,06,10.0,106.3166667
ap song cai,,77,9.1177778,105.1611111
ap song phan,,36,10.8666667,107.75
ap song tra,,24,10.7833333,106.4333333
ap son hai,,36,10.9333333,108.15
ap son hoa,,03,10.2,106.4166667
ap son hoi,,40,10.45,107.1
ap son qui,,06,10.2666667,106.1333333
ap son tay,,01,10.6166667,105.0166667
ap son tho,,06,9.7333333,106.4
ap son thuan,,03,10.2666667,106.3333333
ap son thuy,,31,11.8,106.95
ap son thuy,,76,11.8333333,106.9666667
ap so tam,,21,9.3608333,105.3402778
ap sre pa,,23,11.35,108.0833333
ap srok rang,,31,11.6,106.6166667
ap sua dua,,21,9.9333333,105.1333333
ap su lo thuong,,04,16.4666667,107.65
ap sung xuan,,36,10.9333333,108.1333333
ap suoi ca,,40,10.8,107.2166667
ap suoi cao,,33,11.1166667,106.3333333
ap suoi cat,,40,10.9,107.3666667
ap suoi soc,,33,11.4,106.0
ap suoi tre,,33,11.4833333,106.2833333
ap ta bam,,65,9.5236111,105.9363889
ap ta bien a,,41,9.55,105.8833333
ap ta bien b,,41,9.5333333,105.8666667
ap tac dong,,41,9.5,105.9333333
ap tac gong,,41,9.5,105.9333333
ap tac thu,,77,9.1991667,105.0883333
ap ta det,,41,10.0833333,105.65
ap ta diep,,65,9.4986111,105.7255556
ap ta don,,21,9.7775,105.3227778
ap ta keo,,21,10.0666667,105.1166667
ap talai,,43,11.4,107.3833333
ap ta lot,,41,9.4833333,105.7
ap ta lot,,48,9.475,105.6905556
ap tam hoa,,67,9.8769444,106.0763889
ap tam hung,,07,12.0333333,107.5166667
ap tam hung,,36,11.0333333,108.15
ap tam lon,,65,9.4630556,105.9516667
ap tam long,,33,11.3,106.0166667
ap tam phuoc,,40,10.7166667,107.0166667
ap tam soc,,65,9.5672222,105.8297222
ap tam tan,,36,10.7166667,107.8666667
ap ta muc,,65,9.4794444,105.7672222
ap ta mum,,21,9.7763889,105.2658333
ap ta mum,,65,9.5497222,106.1325
ap tam vu,,65,9.9922222,105.9936111
ap tan an,,01,10.1833333,105.5666667
ap tan an,,06,10.1,105.75
ap tan an,,21,10.1333333,105.3
ap tan an,,36,10.95,108.1
ap tan an,,37,10.4166667,106.1166667
ap tan an,,77,9.0741667,105.0613889
ap tan an thi,,03,10.3333333,106.3666667
ap tan,,41,9.3833333,106.0166667
ap tan binh,,01,10.1666667,105.55
ap tan binh,,03,10.1166667,106.3666667
ap tan binh,,06,10.1333333,105.7333333
ap tan binh,,09,10.6166667,105.35
ap tan binh,,21,9.95,105.1666667
ap tan binh,,36,10.95,108.0833333
ap tan binh,,73,9.5380556,105.6444444
ap tan binh,,77,9.0261111,105.2941667
ap tan cam,,33,11.25,106.1666667
ap tan chanh,,24,10.5666667,106.0166667
ap tan dai,,24,10.5166667,106.7166667
ap tan dien,,03,10.1833333,106.4
ap tan dien,,21,10.05,105.0666667
ap tan dien,,36,10.9666667,108.1166667
ap tan dien,,77,9.0116667,105.1833333
ap tan dinh,,01,10.25,105.5833333
ap tan dinh,,04,17.3833333,106.7166667
ap tan dinh,,21,10.0666667,105.2333333
ap tan dinh,,40,11.0333333,106.9166667
ap tan dong,,09,10.55,105.5
ap tan dong,,24,10.5333333,106.7
ap tan duc,,77,9.1191667,105.0694444
ap tan duong,,25,9.4,105.2666667
ap tang hem,,73,9.3075,105.4463889
ap tan ha,,23,11.5333333,107.7833333
ap tan hau,,03,10.0666667,106.4
ap tan hiep,,03,10.1166667,106.5166667
ap tan hiep,,06,10.1833333,105.9333333
ap tan hiep,,37,10.2833333,106.55
ap tan hiep hai,,73,9.0108333,105.4175
ap tan hiep loi,,77,9.0455556,105.2602778
ap tan hoa,,06,10.2,105.8
ap tan hoa,,09,10.5833333,105.5
ap tan hoa,,20,10.75,106.5833333
ap tan hoa,,21,10.1333333,105.25
ap tan hoa,,24,10.5,106.6833333
ap tan hoa,,67,9.9172222,106.08
ap tan hoa,,77,9.0083333,105.1205556
ap tan hoa dong,,06,10.4,105.6833333
ap tan hoa tay,,41,9.8833333,105.5833333
ap tan hoa tay,,48,9.8605556,105.5563889
ap tan hoi,,06,10.15,105.8333333
ap tan hoi,,24,10.55,106.7
ap tan hung,,03,10.2833333,106.5
ap tan hung,,06,10.15,105.7166667
ap tan khe,,28,12.4333333,109.1166667
ap tan lam,,36,11.2666667,108.2333333
ap tan lap,,21,10.1333333,105.1666667
ap tan lap,,23,11.8333333,108.6
ap tan lap,,37,10.45,106.3
ap tan lap,,77,9.0877778,105.1194444
ap tan lap phu,,31,11.7,106.6666667
ap tan loc,,06,10.3166667,105.6833333
ap tan loc,,21,9.9861111,105.2033333
ap tan loi,,01,10.2166667,105.55
ap tan loi,,03,10.1166667,106.4666667
ap tan loi,,20,10.7352778,106.5830556
ap tan loi,,31,11.8833333,106.7
ap tan long,,03,10.2,106.3333333
ap tan long,,21,9.3641667,105.2141667
ap tan long,,24,10.5666667,105.95
ap tan long,,36,10.9833333,108.0833333
ap tan long,,38,21.3,105.7666667
ap tan long,,73,9.3225,105.6583333
ap tan my,,09,10.6166667,105.5166667
ap tan my,,16,21.0666667,105.3166667
ap tan my,,21,9.4055556,105.1555556
ap tan my,,25,9.05,105.0
ap tan my,,36,11.7166667,108.8166667
ap tan ngai,,03,10.0333333,106.3833333
ap tan nho,,24,10.4833333,106.5
ap tan nhuan,,03,10.1166667,106.25
ap tan phat,,21,10.1333333,105.3
ap tan phong,,03,10.0333333,106.3333333
ap tan phong,,06,10.1666667,105.6666667
ap tan phong,,40,10.8833333,107.2333333
ap tan phong,,77,9.1436111,105.1647222
ap tan phu,,01,10.8333333,105.2
ap tan phu,,06,10.2333333,105.8166667
ap tan phu,,09,10.5833333,105.4166667
ap tan phu,,21,10.15,105.1833333
ap tan phu,,24,10.7,106.5166667
ap tan phu,,37,10.2666667,106.6666667
ap tan phu,,40,10.9166667,107.3166667
ap tan phu,,41,9.6,105.6
ap tan phu,,48,9.7169444,105.7861111
ap tan phu,,65,9.6616667,105.8075
ap tan phu,,67,9.7552778,106.1263889
ap tan phu dong,,03,10.0666667,106.4166667
ap tan phu ha,,01,10.4833333,105.5166667
ap tan phuoc,,21,9.4052778,105.2055556
ap tan phuoc,,65,9.4327778,105.8272222
ap tan phuoc,,77,9.0127778,105.285
ap tan qu,,06,10.15,106.0666667
ap tan qui,,01,10.4666667,105.5333333
ap tan qui,,03,10.1166667,106.2666667
ap tan qui,,06,10.15,106.0666667
ap tan qui,,24,10.5666667,105.9333333
ap tan qui,,37,10.4833333,106.35
ap tan qui,,48,9.8644444,105.5986111
ap tan qui kinh,,41,9.8333333,105.6333333
ap tan qui rach,,48,9.8680556,105.6522222
ap tan qui tam ngan,,41,9.85,105.6166667
ap tan quy,,24,10.5666667,105.9333333
ap tan son,,21,10.0833333,105.2666667
ap tan thanh,,01,10.2166667,105.5666667
ap tan thanh,,06,10.1333333,105.7666667
ap tan thanh,,09,10.55,105.4166667
ap tan thanh,,21,9.9313889,105.22
ap tan thanh,,24,10.5166667,106.5166667
ap tan thanh,,37,10.2666667,106.6
ap tan thanh,,41,9.9,105.65
ap tan thanh,,77,9.2419444,105.2116667
ap tan thiet,,33,11.4166667,106.2666667
ap tan thoi,,09,10.6833333,105.3666667
ap tan thoi,,37,10.45,106.1833333
ap tan thuan,,01,10.4,105.4666667
ap tan thuan,,03,10.2166667,106.3
ap tan thuan,,06,10.2166667,105.8166667
ap tan thuan,,09,10.5666667,105.5
ap tan thuan,,24,10.5166667,106.5166667
ap tan thuoc,,25,9.2166667,105.2333333
ap tan thuy,,03,10.2833333,106.1833333
ap tan tien,,24,10.5333333,106.0166667
ap tan trach,,40,11.0333333,106.8166667
ap tan vinh,,01,10.85,105.1833333
ap tan xuan,,41,10.0833333,105.65
ap tao lot,,24,10.8333333,106.0
ap ta suon,,21,9.5261111,105.4286111
ap ta ten,,65,9.4616667,105.7347222
ap ta thanh,,37,10.45,106.45
ap ta thiet krom,,31,11.75,106.4833333
ap tau o,,31,11.5166667,106.6333333
ap tay,,06,10.4333333,105.6166667
ap tay,,20,10.8,106.5666667
ap tay,,24,10.4666667,106.6833333
ap tay,,37,10.4,106.2666667
ap tay,,40,10.5166667,107.2166667
ap tay binh,,01,10.25,105.2666667
ap tay dinh,,01,10.25,105.5833333
ap tay ha,,01,10.5,105.5666667
ap tay hoa,,01,10.3666667,105.3833333
ap tay hoang,,04,16.6333333,107.4166667
ap tay ho,,04,16.45,107.6666667
ap tay hung,,01,10.65,105.0166667
ap tay khanh,,01,10.3666667,105.4166667
ap tay lan,,01,10.3,105.3666667
ap tay phu,,01,10.35,105.2666667
ap tay thanh,,09,10.55,105.4666667
ap teurlang dong,,23,11.9833333,108.1166667
ap thach nham,,29,16.0,108.15
ap thai binh,,06,10.1,106.2333333
ap thai binh,,24,10.8333333,105.8833333
ap thai ho,,37,10.3333333,105.9166667
ap thai thong,,33,11.3,106.0833333
ap thai thuong,,33,11.3166667,106.0666667
ap tham thien,,40,10.7,107.0166667
ap than dao,,37,10.4333333,106.3333333
ap thang binh,,06,10.1166667,106.0333333
ap thanh an,,01,10.3166667,105.4833333
ap thanh an,,03,9.9111111,106.5186111
ap thanh an,,21,9.9558333,105.3077778
ap thanh an,,65,9.4533333,106.0297222
ap thanh,,09,10.4833333,105.6666667
ap thanh,,40,10.9666667,106.85
ap thanh,,41,9.3666667,105.9666667
ap thanh bac,,03,10.1666667,106.3
ap thanh binh,,01,10.1666667,105.4666667
ap thanh binh,,03,9.8452778,106.5955556
ap thanh binh,,04,16.5833333,107.5333333
ap thanh binh,,06,10.1166667,106.0333333
ap thanh binh,,21,9.9563889,105.3516667
ap thanh binh,,24,10.4333333,106.5333333
ap thanh binh,,33,11.2333333,106.0833333
ap thanh binh,,40,10.55,107.55
ap thanh can,,04,16.5666667,107.4833333
ap thanh cau,,06,10.0166667,105.9666667
ap thanh chau,,36,11.2,108.4
ap thanh dang,,40,11.0833333,107.1
ap thanh dien,,03,10.0,106.45
ap thanh dien,,06,10.2333333,106.1
ap thanh dien,,25,9.1333333,105.1333333
ap thanh dong,,21,10.05,105.2333333
ap thanh dong,,24,10.7833333,106.4166667
ap thanh dong,,33,11.2833333,106.1
ap thanh duong,,06,9.8,106.2666667
ap thanh duong,,21,10.1166667,105.2833333
ap thanh giang,,40,11.0833333,107.1166667
ap thanh hoa,,03,10.1833333,106.35
ap thanh hoi,,03,10.15,106.6666667
ap thanh hue,,48,9.9630556,105.765
ap thanh hung,,01,10.1333333,105.45
ap thanh hung,,24,10.7666667,106.4166667
ap thanh huong,,23,11.5666667,107.85
ap thanh khuong,,03,9.9833333,106.4833333
ap thanh lap,,09,10.85,105.5
ap thanh loc,,03,9.8177778,106.6197222
ap thanh loc,,21,10.0,105.3166667
ap thanh loi,,01,10.1,105.4333333
ap thanh loi,,41,9.9,105.7833333
ap thanh long,,24,10.5333333,105.9666667
ap thanh long,,37,10.4333333,106.1
ap thanh luong a,,36,11.1833333,108.6
ap thanh luong b,,36,11.2333333,108.6333333
ap thanh my,,03,9.9833333,106.5166667
ap thanh my,,21,9.7447222,105.4213889
ap thanh my,,41,9.9833333,105.7666667
ap thanh my,,65,9.6052778,106.0527778
ap thanh nam,,03,10.1333333,106.3
ap thanh nguyen,,21,9.9561111,105.3697222
ap thanh nguyen,,40,10.8333333,106.9333333
ap thanh nhut,,24,10.7,106.4166667
ap thanh ninh,,06,10.1,105.7666667
ap thanh ninh,,65,9.4816667,105.9808333
ap thanh phu,,01,10.1666667,105.5
ap thanh phu,,06,10.0833333,105.7833333
ap thanh phu,,48,9.9030556,105.6791667
ap thanh phuoc,,03,9.8475,106.6319444
ap thanh phuoc,,67,9.7358333,106.5525
ap thanh qui,,01,10.1833333,105.4666667
ap thanh qui,,65,9.4691667,106.0352778
ap thanh quoi,,65,9.4691667,106.0352778
ap thanh son,,03,10.2333333,106.3166667
ap thanh son,,33,11.3333333,106.1333333
ap thanh tam,,23,11.5333333,107.8
ap thanh tan,,04,16.4833333,107.4
ap thanh tay,,03,10.15,106.2666667
ap thanh tay,,21,10.05,105.3333333
ap thanh thien,,03,10.0833333,106.2833333
ap thanh thoi,,03,9.9905556,106.5294444
ap thanh thoi,,06,10.2,106.05
ap thanh thoi,,48,9.9405556,105.7458333
ap thanh thuan,,41,9.95,105.7666667
ap thanh thuy,,03,10.15,106.3666667
ap thanh tr,,21,9.9166667,105.2833333
ap thanh tr,,25,9.2166667,105.45
ap thanh tri,,21,9.9130556,105.2716667
ap thanh trung,,03,10.1666667,106.2333333
ap thanh trung,,21,9.9166667,105.3333333
ap thanh trung,,48,9.9155556,105.6313889
ap thanh vinh,,29,16.0833333,108.1333333
ap thanh vinh,,31,11.9166667,106.5833333
ap thao lang,,73,9.3163889,105.7997222
ap thap muoi,,37,10.6,105.8333333
ap thay pho,,06,9.9722222,106.1375
ap thi,,06,10.2,106.0166667
ap thien ai,,36,11.0333333,108.3833333
ap thien,,36,10.9666667,108.25
ap thien duc,,01,10.6333333,105.2
ap thien lap,,36,11.5333333,107.8166667
ap thien long,,36,10.9666667,108.2333333
ap thien phat,,31,11.8,106.6
ap thien phuoc,,36,10.95,108.2166667
ap thien son,,36,10.9666667,108.25
ap thi keo,,25,9.05,104.9
ap thi tra du,,09,10.8166667,105.3166667
ap thi tuong,,25,9.0166667,104.9666667
ap thoai thuy,,36,11.2,108.55
ap tho cang,,24,10.5666667,106.4333333
ap tho doi,,06,9.8166667,106.0833333
ap tho duc,,40,10.9833333,107.3333333
ap thoi an,,01,10.3166667,105.4833333
ap thoi an,,41,10.0333333,105.6833333
ap thoi,,37,10.4166667,106.1833333
ap thoi binh,,41,10.05,105.7166667
ap thoi duong,,77,9.3188889,105.0922222
ap thoi hau,,21,9.3477778,105.1061111
ap thoi hiep,,65,9.4911111,106.0344444
ap thoi hoa,,03,10.0666667,106.3166667
ap thoi hoa,,20,10.65,106.7333333
ap thoi hoa,,41,10.05,105.4
ap thoi hue,,41,10.05,105.55
ap thoi hung,,41,10.0666667,105.6833333
ap thoi khanh,,41,10.0833333,105.6
ap thoi loi,,41,10.1333333,105.6666667
ap thoi long,,03,10.2333333,106.5333333
ap thoi long,,77,9.2902778,105.0919444
ap thoi moi,,24,10.8833333,106.4166667
ap thoi my,,06,10.25,105.65
ap thoi my,,21,9.3997222,105.0861111
ap thoi my,,41,10.1666667,105.6
ap thoi phuoc,,21,9.3472222,105.0911111
ap thoi phuoc,,41,10.0833333,105.5833333
ap thoi thanh,,01,10.2833333,105.5166667
ap thoi thanh,,20,10.5833333,106.7666667
ap thoi thanh,,65,9.4691667,106.0352778
ap thoi thien,,21,9.3663889,105.1297222
ap thoi thuan,,21,9.3788889,105.1255556
ap thoi thuan,,41,10.0166667,105.4666667
ap thoi trinh,,41,10.15,105.65
ap thoi xuyen,,41,10.0833333,105.4333333
ap tho mo,,24,10.8333333,106.4166667
ap thom rom,,06,10.0166667,106.0333333
ap thom ron,,06,10.0166667,106.0333333
ap thong luu,,65,9.3513889,105.7280556
ap thong thao,,06,9.9,106.0833333
ap thot lot,,06,9.6,106.3666667
ap thuan an,,48,9.7077778,105.5075
ap thuan,,09,10.4666667,105.6833333
ap thuan bien,,40,10.4666667,107.45
ap thuan duc,,01,10.6166667,105.2166667
ap thuan hoa,,03,9.8666667,106.5522222
ap thuan hoa,,31,11.6166667,106.8833333
ap thuan hoa,,37,10.4,106.4666667
ap thuan hoa,,77,9.0197222,105.3083333
ap thuan loi,,48,9.7127778,105.5522222
ap thuan nghia,,36,10.9166667,108.0166667
ap thuan phu,,41,9.6166667,105.5833333
ap thuan phu,,73,9.6336111,105.6030556
ap thuan phuoc,,03,10.0666667,106.6666667
ap thua phuoc,,20,10.65,106.6666667
ap thu,,37,10.3333333,106.6666667
ap thu cuu,,03,10.1333333,106.4166667
ap thu ho,,21,9.7516667,105.3108333
ap thuong an,,04,16.5333333,107.45
ap thuong,,01,10.6,105.35
ap thuong,,09,10.4833333,105.65
ap thuong hoa,,04,16.5833333,107.4166667
ap thuong lac,,01,10.8833333,105.2
ap thuong phu,,09,10.8666667,105.3333333
ap thuong quoi,,09,10.85,105.3333333
ap thuong tu,,67,9.6675,106.3605556
ap thu sau,,67,9.8458333,106.5408333
ap thu truoc,,67,9.835,106.5302778
ap thuy lap,,04,16.6166667,107.5
ap thuy thuan,,06,10.2,106.1333333
ap thuy trung,,06,9.7666667,106.45
ap thuy tu,,29,16.1333333,108.1
ap tich khanh,,65,9.9361111,105.9636111
ap tich phu,,06,9.9,106.0
ap tich phuoc,,65,9.9261111,105.9813889
ap tien,,20,10.9333333,106.5166667
ap tien loi,,03,10.25,106.2
ap tien my,,21,10.45,104.5666667
ap ting wil,,07,11.9666667,107.75
ap tinh phu,,37,10.45,106.3833333
ap ton dinh,,04,17.3833333,106.7166667
ap tong cang,,65,9.4547222,106.0902778
ap tong khau,,65,9.4522222,106.0427778
ap tra ban,,06,9.65,106.3833333
ap tra bang,,65,9.3758333,105.7175
ap tra chinh,,65,9.4541667,105.8113889
ap trach kien,,33,11.2166667,106.1166667
ap trach pho,,04,16.6333333,107.3666667
ap trach thuan,,24,10.5666667,106.5666667
ap tra co,,40,11.2,107.4333333
ap tra co,,73,9.3194444,105.61
ap tra hat,,65,9.365,105.6844444
ap trai,,20,11.0833333,106.5
ap trai bi,,33,11.5,106.0166667
ap trai den,,33,11.3833333,106.25
ap trai hoa,,33,11.3,106.0833333
ap tra kha,,25,9.3,105.7
ap tra khua,,25,9.3166667,105.7
ap tram,,67,9.7630556,106.3205556
ap tram hanh,,23,11.85,108.5666667
ap tram lac,,20,10.8666667,106.5166667
ap tram mot,,25,9.35,105.65
ap tra mon,,06,9.9833333,105.9666667
ap tra mot,,21,10.0666667,105.05
ap trang,,01,10.25,105.5
ap trang,,20,10.9833333,106.4833333
ap trang,,26,19.1833333,105.2833333
ap trang dau,,33,11.2666667,106.2
ap trang lam,,20,11.0,106.4833333
ap trang luc,,04,16.5833333,107.5333333
ap trang nang,,01,10.1666667,105.3333333
ap tranh,,41,9.3666667,105.9666667
ap tran hung dao,,40,10.9333333,107.1666667
ap tran tao,,40,10.9666667,107.4833333
ap tra ong,,65,9.4747222,106.0719444
ap tra pho,,21,10.45,104.5666667
ap tra tham,,41,9.5,105.7666667
ap tra thanh,,31,11.7166667,106.7166667
ap tra the,,25,9.1833333,105.4
ap tra the,,41,9.4666667,105.95
ap tra tien,,21,10.4333333,104.6333333
ap tra vo,,33,11.1666667,106.2
ap trem trem,,25,9.6,105.4166667
ap trieu duong,,04,16.6,107.45
ap trinh ba,,40,10.7,107.3666667
ap trinh loi,,41,9.8166667,105.8833333
ap trinh loi,,65,9.8241667,105.9041667
ap trinh phu,,48,9.8258333,105.9322222
ap trinh tuong,,41,9.8166667,105.8833333
ap trong van,,21,9.9825,105.1583333
ap tru mat,,24,10.5666667,105.95
ap trum thuat,,25,9.0833333,104.8666667
ap trum toi,,20,10.9833333,106.5166667
ap trum tri,,20,10.9833333,106.5166667
ap trung,,01,10.5333333,105.3
ap trung,,09,10.4833333,105.5666667
ap trung,,24,10.4833333,106.6833333
ap trung,,37,10.4,106.2333333
ap trung,,67,9.79,106.5080556
ap trung binh,,01,10.2666667,105.2333333
ap trung binh nhi,,01,10.35,105.3333333
ap trung chanh,,37,10.3166667,105.8833333
ap trung hoa,,37,10.3166667,105.8833333
ap trung hung,,06,10.0333333,105.9333333
ap trung hung,,41,10.0166667,105.5
ap trung hung,,48,9.9736111,105.5191667
ap trung hung,,73,9.3847222,105.5713889
ap trung kieu,,04,16.6333333,107.4333333
ap trung loi,,41,10.0333333,105.5
ap trung nhi,,09,10.45,105.6
ap trung nhi,,20,10.9666667,106.5833333
ap trung phat,,41,10.0666667,105.5
ap trung phu,,01,10.35,105.3
ap trung son,,29,16.0833333,108.1166667
ap trung thanh,,09,10.5666667,105.4666667
ap trung thanh,,37,10.35,105.8666667
ap truong bang,,67,9.7005556,106.4166667
ap truong dong,,41,10.0333333,105.65
ap truong hiep,,48,9.9230556,105.5402778
ap truong hoa,,41,10.0166667,105.5833333
ap truong hue,,33,11.25,106.1333333
ap truong hung,,48,9.9736111,105.5191667
ap truong ninh,,41,9.95,105.6333333
ap truong phu,,48,10.0005556,105.6172222
ap truong phuoc,,48,9.9497222,105.5913889
ap truong son,,23,11.8666667,108.55
ap truong tay,,41,10.0,105.6
ap truong thanh,,03,10.2333333,106.2833333
ap truong thanh,,41,10.0166667,105.6
ap truong tho,,41,9.9666667,105.6166667
ap truong tho,,67,9.7425,106.3863889
ap truong thuan,,41,10.05,105.55
ap truong thuan,,48,9.9375,105.5283333
ap tu,,06,10.1666667,106.15
ap tu,,37,10.4166667,106.65
ap tu,,67,9.7747222,106.2252778
ap tuk chat,,31,11.7166667,106.4833333
ap tu linh,,37,10.25,106.7333333
ap tuong nhon,,06,10.0666667,106.0
ap tuong thanh,,06,10.0166667,106.0833333
ap tuong tho,,06,10.0166667,106.0666667
ap tuong tinh,,06,10.0,106.05
ap tu tay,,04,16.4333333,107.6
ap tuyen binh,,24,10.8166667,105.8666667
ap tuyen thanh,,24,10.7666667,105.9
ap tuy loc,,24,10.6,106.5666667
ap tuy son,,23,11.9666667,108.5333333
ap tuy tinh cham,,36,11.2666667,108.6833333
ap uat mau,,04,16.5833333,107.5333333
ap ut thuong,,73,9.2736111,105.4916667
ap van duong,,29,16.0833333,108.1
ap van giao,,36,11.05,108.1333333
ap van hien,,31,11.6166667,106.65
ap van huong,,31,11.2833333,106.4666667
ap van khe,,28,12.4333333,109.1166667
ap van nhut,,67,9.87,106.4186111
ap van trinh,,04,16.7,107.3666667
ap van tu tay,,28,12.15,109.1
ap van xuan,,21,9.9833333,105.3666667
ap vi binh,,48,9.7430556,105.5205556
ap vi dong,,48,9.8436111,105.59
ap vinh an,,01,10.7333333,105.1
ap vinh an,,03,10.0333333,106.5833333
ap vinh an,,21,9.8666667,105.1833333
ap vinh an,,25,9.2833333,105.7666667
ap vinh an,,37,10.3333333,106.6166667
ap vinh an,,40,11.2,107.1833333
ap vinh an,,41,9.4333333,105.6666667
ap vinh an,,73,9.5858333,105.55
ap vinh an so,,40,11.2,107.1666667
ap vinh binh,,01,10.45,105.2666667
ap vinh binh,,03,10.2166667,106.2333333
ap vinh binh,,28,12.1,109.1333333
ap vinh binh,,48,9.4988889,105.6447222
ap vinh binh,,73,9.5508333,105.6469444
ap vinh cuu,,67,9.8263889,106.4616667
ap vinh dien,,03,10.0333333,106.45
ap vinh dinh,,21,9.6541667,105.4519444
ap vinh dong,,01,10.6833333,105.0833333
ap vinh dong,,21,9.5166667,105.2666667
ap vinh dong,,41,9.7333333,105.5833333
ap vinh goc,,77,9.0305556,105.0213889
ap vinh hanh cham,,36,11.2333333,108.7333333
ap vinh hao a,,36,11.2833333,108.7666667
ap vinh hao,,36,11.3,108.7666667
ap vinh hiep,,21,9.8833333,105.1333333
ap vinh hinh,,73,9.2777778,105.7380556
ap vinh hoa,,01,10.45,105.2833333
ap vinh hoa,,06,10.2666667,106.05
ap vinh hoi,,01,10.7833333,105.0666667
ap vinh hoi,,03,10.2666667,106.5333333
ap vinh hoi,,24,10.7166667,106.4333333
ap vinh hue ba,,25,9.4,105.5
ap vinh hue hai,,73,9.4338889,105.5591667
ap vinh hue moi,,25,9.35,105.4666667
ap vinh hung,,01,10.6,105.2
ap vinh hung,,41,9.6166667,106.1333333
ap vinh khanh,,69,9.9827778,106.0222222
ap vinh lac,,01,10.5,104.8666667
ap vinh lac,,21,9.9833333,105.1
ap vinh loc,,06,10.2666667,106.0833333
ap vinh loc,,24,10.6,106.7
ap vinh loi,,01,10.4333333,105.2333333
ap vinh loi,,03,10.0166667,106.5666667
ap vinh loi,,06,10.3333333,105.6333333
ap vinh loi,,21,9.8475,105.3094444
ap vinh loi,,69,9.9680556,106.0191667
ap vinh long,,36,11.1833333,108.6833333
ap vinh long,,73,9.4822222,105.6533333
ap vinh my,,73,9.4672222,105.5544444
ap vinh my hai,,73,9.4208333,105.5311111
ap vinh my mot,,21,9.4544444,105.4886111
ap vinh nay,,04,16.6,107.4333333
ap vinh ninh,,73,9.4880556,105.6666667
ap vinh phong,,01,10.7333333,105.1666667
ap vinh phu,,01,10.6833333,105.0666667
ap vinh phu,,28,12.1166667,109.1
ap vinh phuoc,,01,10.85,105.1
ap vinh phuoc,,21,9.5166667,105.2666667
ap vinh phuoc ba,,21,9.3997222,105.4933333
ap vinh phuoc hai,,21,9.4144444,105.4477778
ap vinh qui,,01,10.5833333,105.2333333
ap vinh sac,,24,10.7,106.1333333
ap vinh sao,,24,10.7,106.1333333
ap vinh tay,,01,10.6666667,105.0833333
ap vinh tay,,24,10.5833333,106.6833333
ap vinh tay,,48,9.7247222,105.5363889
ap vinh thanh,,01,10.4333333,105.25
ap vinh thanh,,24,10.5,106.4666667
ap vinh thanh,,48,9.7688889,105.5588889
ap vinh thanh,,65,9.3713889,106.1111111
ap vinh thanh,,67,9.9472222,106.0144444
ap vinh thanh,,73,9.4463889,105.6361111
ap vinh thoi,,01,10.45,105.2666667
ap vinh thoi,,73,9.5911111,105.5638889
ap vinh thuan,,06,10.3333333,105.6166667
ap vinh thuan,,48,9.7363889,105.5491667
ap vinh trieu,,28,12.0666667,109.1833333
ap vinh trinh,,01,10.7666667,105.1333333
ap vinh tuong,,21,9.475,105.2186111
ap vinh tuong hai,,73,9.3638889,105.5208333
ap vinh xuong,,04,16.7,107.4
ap vi qui,,41,9.7666667,105.5166667
ap vom xang,,65,9.4394444,105.7302778
ap vong dong,,01,10.25,105.1833333
ap vu nang,,03,10.05,106.5
ap xa,,04,16.7166667,106.8666667
ap xa bang,,40,10.7166667,107.2833333
ap xa don,,65,9.3855556,105.9697222
ap xa mach,,31,11.3,106.65
ap xam pha,,65,9.395,106.1469444
ap xa trach,,31,11.5833333,106.6333333
ap xa ty,,73,9.2777778,105.5161111
ap xeo la,,25,9.3333333,105.75
ap xeo mui,,65,9.4191667,105.7972222
ap xiem la,,04,16.75,106.6
ap xoai xiem,,06,9.7,106.2666667
ap xom bung,,31,11.8166667,106.6
ap xom chau,,24,10.6166667,106.4333333
ap xom dao,,73,9.2591667,105.6030556
ap xom giua,,65,9.6358333,105.8663889
ap xom hanh,,20,10.9666667,106.6166667
ap xom moi,,24,10.7666667,105.9666667
ap xuan an,,23,11.9333333,108.45
ap xuan duong,,29,16.1180556,108.1266667
ap xuan hoa,,24,10.4166667,106.5666667
ap xuan hoa,,37,10.3333333,106.0833333
ap xuan hoa,,38,21.3,105.8333333
ap xuan hoa,,40,11.0166667,106.8166667
ap xuan khai,,40,10.55,107.35
ap xuan khanh,,24,10.8166667,106.3833333
ap xuan phu,,41,9.8833333,105.6666667
ap xuan sac,,37,10.35,106.0833333
ap xuan sanh,,24,10.5333333,106.3666667
ap xuan son,,06,10.2333333,106.0833333
ap xuan son,,40,10.65,107.35
ap xuan thanh,,23,11.9666667,108.5166667
ap xuan thieu,,29,16.0955556,108.1227778
ap xuan tuy,,04,16.55,107.5166667
ap xuong hoa,,03,9.9666667,106.4333333
ap xuong thanh,,03,9.9833333,106.4333333
ap xuong thoi,,03,9.9841667,106.4497222
ap yan kar dang,,23,11.4333333,108.0833333
ap yan kar dom,,23,11.4166667,108.1
ap yen ha,,48,9.9852778,105.7705556
ap yen thuong,,48,9.9961111,105.7602778
ara,,36,11.2166667,108.0
arbre broye,,23,11.85,108.5666667
a re,,04,16.1166667,107.7666667
a rieng,,07,13.2333333,108.1666667
a ro,,29,15.6,107.4833333
aroh,,04,16.1333333,107.65
aroune babueur,,29,15.7166667,107.5333333
a rouye,,29,15.85,107.5
arpou,,36,11.3333333,107.9833333
a san,,29,15.9,107.6666667
a san young,,29,15.8833333,107.6833333
a sap,,04,16.1166667,107.3333333
a sau,,04,16.1,107.3666667
a shau,,04,16.1,107.3666667
a so,,29,15.9166667,107.65
a so ra amo,,29,15.85,107.6833333
a so ra kadao,,29,15.8333333,107.65
a so ra katoi,,29,15.8333333,107.6666667
a so ro amo,,29,15.85,107.6833333
a so young,,29,15.85,107.6666667
atba village,,29,16.0405556,108.2125
at ech,,67,9.9222222,106.235
a teo,,29,15.9833333,107.6166667
a tep,,29,15.9833333,107.5166667
a tin,,29,15.9666667,107.6833333
a tin tren,,29,15.9833333,107.6666667
a tin young,,29,15.9666667,107.6666667
atium,,29,15.8833333,107.6333333
atiun,,29,15.8833333,107.6333333
atiun young,,29,15.8666667,107.6333333
a toi,,29,15.95,107.65
at son,,17,21.55,105.3333333
a tul,,29,15.95,107.6333333
au ca,,39,21.7666667,106.4166667
auc poh,,32,20.55,104.7833333
au tho,,65,9.3452778,106.0986111
a xa,,04,16.7166667,106.8666667
a xiem,,04,16.1166667,107.7833333
ay cot,,65,9.5502778,106.0352778
ay hlay,,07,13.0833333,108.5666667
ay ho lay,,07,13.0833333,108.5666667
a yin,,29,15.9166667,107.6333333
a yin young,,29,15.9166667,107.6
a yong,,19,22.4666667,104.1166667
a yuan,,29,15.9666667,107.6333333
a yuon,,29,15.9666667,107.6333333
ba ai,,25,9.5333333,105.4
ba ai,,48,9.5236111,105.385
ba,,11,21.3,106.5
ba,,67,9.7266667,106.2294444
ba ba,,34,20.3666667,105.2166667
ba ban,,34,20.5166667,105.2
ba bang,,28,13.25,108.9166667
ba bang,,37,10.3666667,106.1333333
ba bao,,19,21.7166667,103.9
