names,population,state_code,lat,lon
aabayat,,51,15.7666667,120.4166667
aasowao,,21,10.7333333,123.95
aaygayon,,55,11.5694444,125.0327778
aba,,16,13.6666667,123.0666667
aba,,30,10.95,122.5666667
ababut,,28,18.1569444,120.6958333
abaca,,06,10.4961111,121.9619444
abaca,2480,11,9.9163889,124.4994444
abaca,,14,17.5772222,121.8305556
abaca,,21,10.2166667,123.75
abaca,,23,11.6666667,125.0833333
abaca,,24,7.5141667,125.7244444
abaca,,28,18.5311111,120.7577778
abaca,2139,30,11.1380556,122.7111111
abaca,,37,11.0869444,124.9177778
abaca,,39,12.05,123.95
abaca,,45,10.55,123.4
abaca,,48,16.0094444,121.2083333
abaca,,54,12.55,122.1166667
abaca,,70,6.0652778,124.4661111
abacai,,28,18.5311111,120.7577778
abacca,,29,17.0333333,120.5666667
abaccan,,29,17.0333333,120.5666667
abachanan proper,,11,9.8072222,124.3238889
abacjanan,,11,9.7113889,124.3602778
abad,,H2,14.63,121.9377778
abaga,,34,7.9338889,123.7738889
abaga,,57,7.1666667,124.8166667
abaga,,62,8.9402778,125.9958333
abagai,,34,7.8,123.9
abagao,,14,18.2166667,121.7
abagao,,59,10.1777778,124.9886111
abagatanen,,51,16.1666667,119.7666667
abagon,,63,15.6102778,120.6083333
abagu,,34,7.8,123.9
abahid,,12,7.9666667,125.3166667
abalete,,40,13.5166667,120.4333333
abalos,,51,15.95,120.8333333
abanaban,,49,12.3119444,119.9230556
abane,,55,11.5988889,125.0813889
abang,,01,17.5166667,120.7333333
abang-abang,,30,10.8166667,122.4166667
abang,,H2,14.1333333,121.55
abangan norte,,13,14.7722222,120.94
abangan sur,,13,14.7686111,120.9463889
abangay,,18,11.2666667,122.4833333
abangay,2207,30,10.9666667,122.6333333
abango,,37,11.25,124.75
abangu,,37,11.25,124.75
abani,,55,11.5988889,125.0813889
abanon,,51,15.8833333,120.3166667
abanon sur,,51,15.8833333,120.3166667
abaquid,,01,17.6966667,120.6663889
abar 1,,47,15.7861111,120.9730556
abar,,47,15.7861111,120.9730556
abar primero,,47,15.7861111,120.9730556
abarriongan,,14,17.95,121.6
abarrongan,,14,17.95,121.6
abar segundo,,47,15.7833333,120.9666667
abas,,01,17.5,120.7666667
abas,,58,12.9627778,123.6680556
abat,,30,10.95,122.6333333
abatan,,10,16.8052778,120.83
abaton,,67,12.4788889,125.0427778
abaya,,29,17.1833333,120.4666667
abaya,,34,7.9338889,123.7738889
abay,,30,10.9,122.4333333
abbag,,68,16.2730556,121.6583333
abbangaran,,14,18.4333333,121.3666667
abbatuan,,31,16.9816667,122.0561111
abbeg,,14,17.84,121.6186111
abbeg norte,,14,17.84,121.6186111
abbeg sur,,14,17.8319444,121.6108333
abbel,,32,18.1166667,121.0666667
abbey,,01,17.2,120.75
abbey sur,,14,17.8319444,121.6108333
abbigoy,,32,17.5833333,121.35
abbot,,44,17.6833333,121.4166667
abbuatan,,31,17.3002778,121.8022222
abec,,28,18.35,120.6333333
abejao,,23,11.1833333,125.6166667
abel,,32,18.1166667,121.0666667
abella,,05,13.1166667,123.4166667
abelo,,09,13.9219444,120.9591667
abelo,,14,17.8261111,121.7136111
abgao,,59,10.1777778,124.9886111
abiacao,,09,13.8363889,120.9458333
abian,,48,16.4283333,121.1341667
abian-abian junction,,48,16.4211111,121.1261111
abiang,,10,16.5736111,120.7008333
abiawin,,H2,14.7333333,121.7
abibiray,,40,13.7166667,120.2166667
abibling,,05,13.25,123.6
abiera,2394,06,11.5722222,122.0902778
abihao,,19,13.6666667,124.35
abihid,,11,9.65,124.15
abihilam,,11,9.66,124.2858333
abihilan,,11,9.66,124.2858333
abijae,,37,11.1513889,124.4002778
abijao,,23,11.1833333,125.6166667
abijao,,37,11.1513889,124.4002778
abijid,,37,10.4666667,124.75
abijilan,,11,9.66,124.2858333
abijo,,23,11.1833333,125.6166667
abilay,2195,30,10.7333333,122.5
abilla,,46,9.5872222,123.0775
abilo,,09,13.9219444,120.9591667
abinuan,,27,16.8463889,121.2141667
abis,2603,46,9.7227778,122.9294444
ablang,,51,16.2666667,119.9666667
ablayan,,21,9.8252778,123.4475
ableg,,01,17.4613889,120.9333333
ableg,,32,17.3883333,121.1788889
ablos,,51,15.95,120.8333333
abo,,33,14.1166667,121.4333333
aboabo,,49,9.1572222,118.1175
abo-abo,,H2,14.2166667,121.6833333
abobo,,37,11.3666667,124.3666667
abocay,,18,11.2666667,122.5833333
abod-abod,,49,11.8011111,120.04
abogan,,19,13.8666667,124.3
abognan,,05,13.0666667,123.6833333
abolan,,31,16.4,121.7333333
abolo,,14,17.8261111,121.7136111
abon-abon,,24,7.7833333,125.8166667
abonagan,,51,15.9166667,120.4166667
abong,,30,11.5427778,123.1236111
abongabong,,66,7.4558333,123.3902778
a bonifacio,,45,10.9166667,123.25
aborlan,4790,49,9.4330556,118.5563889
abot,,01,17.7097222,120.6769444
abra de ilog,2971,40,13.45,120.7333333
abre,,37,11.0666667,124.9
abrecia,,59,10.3666667,125.1666667
abri,,05,13.2166667,123.55
abu,,17,9.2333333,124.7
abu,,43,8.5666667,124.75
abuac,,30,11.25,123.0166667
abuag,,32,17.65,121.3666667
abualan,,01,17.7047222,120.7575
abuanan,,27,16.8894444,121.0147222
abuanan,,H3,10.5258333,122.9925
abuatan,,31,17.3002778,121.8022222
abuaya,,11,9.8333333,124.0333333
abubo,,16,13.8,122.9666667
abubutan,,29,17.0333333,120.7666667
abucay,35508,07,14.7222222,120.5383333
abucay,,11,9.65,123.9666667
abucay,,28,18.1666667,120.7333333
abucay,2863,58,12.9475,123.6491667
abucay,,H2,14.8597222,122.0544444
abucayan,2204,11,9.9269444,123.9027778
abucayan,,16,13.6986111,123.4588889
abucayan,,21,10.5,123.7166667
abucay hacienda,,07,14.7333333,120.4833333
abucay norte,,11,9.6833333,123.9827778
abucay north,,11,9.6833333,123.9827778
abucay sur,,11,9.65,123.9666667
abuer,,29,17.4166667,120.4833333
abugon,,21,10.0519444,123.5997222
abulalas,,13,14.8333333,120.7333333
abulan,,31,16.5591667,121.7366667
abulog,,14,18.4452778,121.4533333
abulug,2412,14,18.4452778,121.4533333
abunabun,,35,7.4666667,124.1333333
abung,,09,13.77,121.4163889
abungabung,,22,6.4869444,121.9136111
abungabung logging camp,,22,6.4869444,121.9136111
abungon,,21,9.6833333,123.3833333
abuor,,29,17.4166667,120.4833333
aburas,,39,12.5097222,123.7252778
abut,,01,17.7097222,120.6769444
abut,2387,31,17.3575,121.6063889
abut,,36,16.65,120.35
abuyo,,48,15.8833333,121.2333333
abuyod,,53,14.5966667,121.2363889
abuyog,,15,14.1666667,122.7
abuyog,,16,13.8333333,122.8333333
abuyog,15632,37,10.7352778,125.0213889
abuyog,3377,58,12.9466667,124.0552778
abuyogay,,37,10.75,125.0
abuyoin,,H2,14.9055556,121.8575
abuyon,4342,H2,13.6,122.5333333
acaban,,37,11.6888889,124.5005556
acacia,,31,17.0952778,121.6591667
acacia,,B4,14.6752778,120.9680556
acala,,14,17.9052778,121.6544444
acala,,D5,13.1666667,123.7166667
acao,,30,10.8522222,122.4627778
acao,4307,36,16.5255556,120.3763889
acapan,,37,11.6888889,124.5005556
acbo,,18,11.4333333,122.6833333
accusilian,2377,14,17.7552778,121.4647222
accusillian,,14,17.7552778,121.4647222
acedillo,,67,12.4375,124.3408333
acedillo,,B3,12.1013889,124.5591667
acereda,,67,12.4583333,124.5408333
acerida,,67,12.4583333,124.5408333
achila,,11,10.0758333,124.4475
acilip,,01,17.8166667,120.8333333
aclan,,02,8.9913889,125.3119444
acle,,09,14.0166667,120.7333333
acle,,13,15.0472222,121.0747222
acle,,40,13.8166667,120.1333333
acle,,50,15.1255556,120.6436111
acli,2555,50,15.1255556,120.6436111
acliang,,41,12.7,121.3666667
acnal,,10,16.5333333,120.8166667
acocolao,,63,15.6666667,120.5666667
acogon,,54,12.0625,121.9591667
acop,,51,15.8711111,120.6561111
acops place,,10,16.4833333,120.6333333
acsimao,,01,17.7822222,120.9441667
acuit,,30,10.8833333,122.6666667
acupan,,10,16.345,120.6697222
ad-adan,,06,11.2494444,122.0838889
adagap,,29,17.5,121.2833333
adagapi,,29,17.5,121.2833333
adala,,10,16.5166667,120.6936111
adam,,28,18.4666667,120.9
adams,,28,18.4666667,120.9
adaoag,,14,17.9027778,121.7694444
adaoay,,10,16.5833333,120.8333333
adata,,10,16.5166667,120.6936111
adaway,,10,16.5833333,120.8333333
addalam,,31,16.5263889,121.6744444
addalem,,48,16.5,121.0
addang,,32,17.4166667,121.4
addition,,H2,14.5955556,121.0405556
addition hills,,H2,14.5955556,121.0405556
adduas,,47,15.5,120.9666667
adela,,21,10.6797222,124.435
adela,3926,40,12.4436111,120.9722222
adgao,,30,10.75,122.3166667
adgao,,B3,12.0666667,124.5833333
adia,,13,15.0,120.9333333
adia-bitaog,,H2,13.85,122.0833333
adiagnao,,16,13.7225,123.6963889
adiao,,31,16.9061111,122.0211111
adjid,,60,5.9922222,121.0097222
adjied,,60,5.9922222,121.0097222
adlaon,,B7,10.4438889,123.8719444
adlao-tubang,,30,10.9,122.4166667
adlauan,,11,9.6333333,124.2
adlauan,,18,11.4780556,123.0208333
adlauan,,F3,11.5052778,122.7625
adlawan,,11,9.6333333,124.2
adlawan,,F3,11.5052778,122.7625
adlawon,,B7,10.3,123.9
adlay,2548,62,9.4097222,125.8975
adloan,,B7,10.4438889,123.8719444
adlusan,,06,11.7666667,122.0166667
adoy,,24,7.3275,126.1330556
adtoyon,,12,7.8127778,124.8522222
adtugan,,12,7.8127778,124.8522222
adtuyon,3380,12,7.8127778,124.8522222
aduas,,47,15.5,120.9666667
aduas,,63,15.6833333,120.5
adud,,10,16.6,120.85
adugao,,01,17.6166667,120.9833333
aduyongan,,27,16.9272222,121.2094444
aduyungan,,27,16.9166667,121.1755556
advincula,,30,11.2483333,122.8855556
adya,,09,13.8863889,121.1361111
afga,,04,11.7833333,122.25
afusing,3541,14,17.8666667,121.7166667
afusing bato,,14,17.8513889,121.6513889
afusing batu,,14,17.8513889,121.6513889
afusing daga,,14,17.8561111,121.6411111
aga,5218,09,14.1016667,120.8088889
aga,,16,13.8333333,122.9666667
agaban,,37,11.6836111,124.5041667
agaga,,28,18.45,120.65
agagan,,59,10.55,125.1666667
ag-agat,,10,16.6,120.5833333
agagrao,,29,17.3833333,120.5166667
ag-aguman,,29,16.9286111,120.4722222
agahang,,37,11.2972222,124.5322222
agahay,,11,9.7333333,123.85
agahun,,60,5.9841667,120.9397222
agakan,,56,7.0666667,124.6666667
agal agal,,60,6.2972222,120.5772222
agalusanan,,32,17.5,121.4833333
agalusuanan,,32,17.5,121.4833333
agambulong,2300,18,11.37,122.4708333
agamham,,23,11.85,125.3333333
agamitan,,24,7.8947222,126.0713889
agamulong,,18,11.37,122.4708333
aganan,2522,30,10.7833333,122.5333333
aganan,,C5,9.3311111,123.3088889
aganhaw,,41,13.4055556,121.2155556
agani,,14,17.9188889,121.7172222
aganlan,,32,17.5616667,121.3108333
aganopol,,H2,14.2666667,121.7
agantan,,32,17.5616667,121.3108333
agaoob,,37,11.1833333,124.4333333
agapang,,28,18.2333333,120.7166667
agape,,11,9.6166667,124.0166667
agapi,,11,9.6166667,124.0166667
agapita hacienda,,46,10.3833333,123.3333333
agar,,16,13.8455556,122.9786111
agas,,01,17.5,120.8833333
agas,,09,13.6377778,121.3302778
agas,,49,8.5786111,117.4897222
agasasan,,01,17.4886111,120.8875
agata,,61,9.6666667,125.4
agat,,51,16.25,120.5333333
agatuya,,49,11.1486111,120.9422222
agawa,,44,17.1141667,120.8672222
agay,3977,02,9.0536111,125.5866667
agayan,,37,11.2166667,124.5333333
agay-ay,,59,10.2513889,125.2258333
agay-ayan,,37,11.2166667,124.5333333
agay-ayan,,43,8.8636111,125.0572222
agayayon,,37,11.2166667,124.5333333
agbabadiang,,18,11.4666667,122.8
agbadiang,,18,11.4666667,122.8
agbadiang,,54,12.5894444,122.0036111
agbagacay,,46,9.0666667,123.1
agbagacay,,H3,10.4738889,123.3797222
agbago,,04,11.8166667,122.15
agbagon,,B7,10.3,123.9
agbahoan,,45,10.5666667,123.4166667
agbalagon,,54,12.5333333,122.1
agbalanga,,21,9.9119444,123.4216667
agbaliga,,54,12.4811111,122.2877778
agbalo,,18,11.5052778,122.8088889
agbalogo,,04,11.7166667,122.2833333
agbaluto,,54,12.5633333,122.2788889
agban,,19,13.7130556,124.3830556
agbanawag,,47,15.6786111,121.0838889
agbanawan,,04,11.5986111,122.3375
agbanban,,F3,11.5505556,122.7736111
agbanga,,E4,11.0833333,124.45
agbannaoag,,47,15.6786111,121.0838889
agbannawag,3186,32,17.3847222,121.5258333
agbannawag,3782,47,15.6786111,121.0838889
agbannaway,,47,15.6786111,121.0838889
agbanug,,18,11.8166667,122.8166667
agba-o,,30,11.1705556,122.5694444
agbao-ud,,04,11.5,122.3
agbatong,,54,12.9116667,121.7044444
agbatuan,,30,10.9833333,122.7166667
agbauo,,30,11.1705556,122.5694444
agbobolo,,18,11.4,122.8333333
agbobolo,,30,11.19,122.9572222
agboboto,,30,11.19,122.9572222
agbonan,,11,9.8758333,123.9491667
agbonon,,11,9.8758333,123.9491667
agboy,,30,10.7666667,122.4
agboy norte,,30,10.7666667,122.4
agboy sur,,30,10.7833333,122.3666667
agbuakan,,B7,10.3,123.9
agbuaya,,11,9.8333333,123.9666667
agbuayan,,11,9.8333333,123.9666667
agbudia,,54,12.6075,122.2925
agbulu,,32,18.1166667,121.0666667
agbun-od,,18,11.4408333,122.4133333
agbunud,,18,11.4408333,122.4133333
agcad,,57,6.8955556,124.8466667
agcadarao,,30,11.2166667,123.0
agcagay,,18,11.4333333,122.5333333
agcagay,,54,12.3611111,122.0752778
agcanilan,,04,11.7,122.3166667
agcanni,,14,17.5858333,121.6322222
agcarope,,30,10.95,122.5
agcauayan,,40,13.7577778,120.2652778
agcawayan,,40,13.7577778,120.2652778
agcawilan,,04,11.7,122.3166667
agcococ,,18,11.3166667,122.5166667
agcogon,,54,12.0625,121.9591667
agcuyauan,,30,10.89,122.7183333
agcuyawan,,30,10.89,122.7183333
agdagnan,,16,13.4958333,123.3252778
agdahon,,18,11.3047222,122.72
agdajon,,18,11.3047222,122.72
agdajon,,30,11.1166667,122.6166667
agdaleran,,30,11.2972222,123.1036111
agdalipe,,18,11.4666667,122.8166667
agdalipi,,18,11.4666667,122.8166667
agdaliran,,30,11.2972222,123.1036111
agdangan,3918,H2,13.8725,121.9152778
agdao,,25,6.4883333,125.5880556
agdao,,50,15.9166667,120.45
agdao,,51,15.9108333,120.3283333
agdayao,,30,11.0955556,122.5663889
agdeppa,,36,16.8833333,120.4166667
agdugayan,,04,11.7666667,122.15
agdum,,30,10.6666667,122.2
aggao,,28,18.6,120.8833333
aggasi,,28,18.5430556,120.8291667
aggasian,,31,17.15,121.8833333
aggassian,,31,17.1061111,121.9269444
aggay,,29,17.5833333,120.4
aggub,,31,17.4166667,121.7333333
aggub,,48,16.5616667,121.2025
aggugadaan,,14,17.7030556,121.8061111
aggugadan,,14,17.7030556,121.8061111
aggugaddah,,14,17.7030556,121.8061111
aggugaddan,2364,14,17.7030556,121.8061111
agguirit,,14,17.8333333,121.7166667
aggumitan,,14,18.0333333,121.6166667
aggunatan,,14,17.9969444,121.62
aggunetan,,14,17.9969444,121.62
aggungan,,14,18.2333333,121.8
aghao,,11,9.7530556,123.8788889
agibawa,,24,7.6566667,126.1205556
agikik,,70,6.2336111,125.4244444
agipawa,,43,9.0027778,125.175
agipo,,11,9.8913889,124.5211111
agkalangan,,56,7.2588889,124.3558333
agkawayan,,40,13.7577778,120.2652778
agkayamet,,56,6.8816667,124.6808333
agkilo,,18,11.45,122.7666667
aglagtang,,54,12.2,122.0
aglahag,,30,11.2308333,123.0538889
aglahog,,30,11.2308333,123.0538889
aglahug,,46,9.9833333,123.2333333
aglalana,,18,11.2666667,122.6833333
aglalana,2868,30,11.1772222,122.6566667
aglao,,64,14.9955556,120.28
aglayan,5761,12,8.0541667,125.1358333
aglibacao,,18,11.4166667,122.5166667
aglibacao,,30,11.1333333,122.5333333
aglicabao,,18,11.4319444,122.4672222
aglimocon,,18,11.3377778,122.9241667
aglinab,,18,11.2008333,122.5333333
aglinob,,18,11.2008333,122.5333333
aglipay,,68,16.4663889,121.6527778
agloloma,,07,14.4666667,120.4166667
agloloway,,18,11.4166667,122.5166667
aglosong,,30,11.25,123.0666667
aglubong,,30,11.0166667,122.35
agmailig,,04,11.4666667,122.2666667
agmalobo,,18,11.5288889,122.6669444
agman,,39,12.1797222,123.4036111
agmanaphao,,30,10.9166667,122.6
agmanic,,54,12.1238889,122.0058333
agna,,D5,13.0833333,123.7333333
agnaga,,30,11.1997222,123.1005556
agnaga,,54,12.5072222,122.3211111
agnag,,54,12.5072222,122.3211111
agnalobo,,18,11.5288889,122.6669444
agnas,,05,13.3552778,123.8169444
agnas,,15,14.0616667,123.0244444
agnawe,,B7,10.3,123.9
agnaya,,13,14.8833333,120.8666667
agnay,,54,12.5666667,122.25
agnayon,,03,8.5536111,125.7108333
agnipa,,54,12.5116667,122.2711111
agno,,10,16.4833333,120.5833333
agno,2638,51,16.1194444,119.7991667
agnocnoc,,54,12.3361111,121.9744444
agnoknok,,54,12.3361111,121.9744444
agnonoc,,54,12.4952778,122.5588889
agnos,,09,13.8333333,120.95
ago,,30,10.7833333,122.3
ago,,39,12.65,123.65
agobob,,37,11.1672222,124.4438889
agoho,,17,9.2422222,124.6666667
agoho,,19,13.6016667,124.0602778
agoho,,21,11.2677778,124.0077778
agoho,,53,14.5413889,121.0652778
agoho,,54,12.2136111,121.9741667
agoho,,H2,13.9833333,122.2
agojo,,05,13.2227778,124.1697222
agojo,,17,9.2422222,124.6666667
agojo,,18,11.5716667,122.8516667
agojo,,19,13.6016667,124.0602778
agojo,,21,11.2677778,124.0077778
agojo,,39,12.0375,123.6677778
agojo,,53,14.5413889,121.0652778
agojo,,H2,13.9833333,122.2
agokan,,56,7.0552778,124.7088889
agol,,05,13.0847222,123.4552778
agomanay,,01,17.3,120.65
agoncillo,,09,13.935,120.9366667
agong-ong,,02,8.9333333,125.3833333
agongong,,43,8.8333333,125.0666667
agoo,,36,16.325,120.3686111
agoo,28971,51,16.0833333,120.1
agopo,,H2,14.0,122.2
agopop,,64,15.5411111,119.9722222
agora,,32,18.1833333,121.2666667
agos,,16,13.3666667,123.3666667
agosagos,,H2,14.7333333,121.6166667
agos,,D4,10.2775,123.9841667
agosipan,,30,10.8166667,122.55
agot,,38,13.45,121.8333333
agotayan,,30,10.8166667,122.5166667
agpahan,,06,10.8988889,121.9794444
agpanabat,,54,12.4969444,122.2711111
agpange,,H3,10.57,123.4197222
agpangi,,37,11.5922222,124.3961111
agpangi,2150,H3,10.57,123.4197222
agparale mountain,,30,11.1333333,122.5333333
agpipile,,30,11.2333333,122.9166667
agpipili,,30,11.2333333,122.9166667
agponge,,H3,10.57,123.4197222
agpudlos,,54,12.5630556,122.0036111
agquilo,,18,11.45,122.7666667
agriculture college,,33,14.1833333,121.2166667
agrupacion,,16,13.7972222,122.8197222
agsalanan,,30,10.9833333,122.6666667
agsalay,,18,11.25,122.7
agsalin,,41,12.8791667,121.485
agsam,,23,12.1666667,125.4
agsaman,,67,12.3333333,125.1833333
agsao,,54,12.4794444,122.4569444
agsilab,,04,11.5161111,122.5669444
agsilab,,18,11.5,122.5833333
agsimao,,01,17.7822222,120.9441667
agsinapot,,30,11.25,123.0333333
agsing,,30,10.8355556,122.3936111
agsirab,,30,11.0391667,122.3755556
agsoso,,11,9.7944444,123.8188889
agsowao,,21,10.7333333,123.95
agsungot,,B7,10.4344444,123.9061111
agsuwao,,21,10.7333333,123.95
agta,,30,10.8,122.3666667
agta,,59,10.3833333,124.9833333
agtalos,,04,11.5961111,122.2427778
agtambi,,18,11.35,122.7
agtambo,,30,11.1644444,122.6519444
agtangao,,01,17.5666667,120.6333333
agtanguay,,18,11.4,122.7333333
agtatacay,,18,11.5097222,122.5616667
agtatacay,,30,11.0333333,122.6666667
agtatacay norte,,04,11.5183333,122.5597222
agtatacay sur,,18,11.5097222,122.5616667
agtipal,,36,16.7333333,120.3666667
agtipod,,54,12.5522222,122.095
agtiwa,,54,12.4505556,122.4308333
agtongo,,54,12.5955556,122.2680556
agtugop,,21,10.5991667,123.7858333
agtuman,,30,11.0183333,122.4986111
aguada,,16,13.5166667,123.05
aguada,,39,11.8944444,123.9069444
aguada,,54,12.6508333,122.1091667
aguada,2552,58,12.8166667,123.8333333
aguadahan,,67,12.5833333,125.0333333
aguadajan,,67,12.5833333,125.0333333
aguadan,,24,7.3138889,126.1269444
aguado,,39,12.0680556,123.7122222
aguanta,,14,18.35,121.45
aguat,,27,16.7783333,121.1816667
aguaton,,27,16.785,121.2361111
agubay,,E4,11.0277778,124.4772222
aguho,,39,13.16,122.8694444
aguho,,53,14.5413889,121.0652778
aguiauan,,30,10.65,122.2333333
aguiguican,,14,18.0988889,121.6580556
aguila,,06,11.5091667,122.0866667
aguilar,,16,13.5333333,122.9833333
aguilar,,30,10.63,122.6783333
aguilar,9801,51,15.8888889,120.2386111
aguilisin,,13,14.7833333,120.7666667
aguimatang,,64,15.0666667,120.0666667
aguinaldo,,59,10.0561111,124.9597222
aguing,,51,15.8,120.35
aguingay,,30,10.9666667,122.5166667
aguingayan,,55,12.05,125.05
aguinin,,11,10.0858333,124.5938889
aguining,2488,11,10.0858333,124.5938889
aguino,,04,11.8261111,122.1061111
aguino,,42,8.6047222,123.69
aguioas,,36,16.5333333,120.4
aguipawa,,43,9.0027778,125.175
aguipo,,11,9.8913889,124.5211111
aguire,,28,17.9119444,120.5327778
aguisan,11798,45,10.1655556,122.8605556
aguisan hacienda,,45,10.1655556,122.8605556
aguitap,,28,18.1166667,120.7833333
aguiting,,E4,11.1305556,124.5980556
agumaymayan,,38,13.45,121.8333333
agumbayan subdivision,,53,14.6080556,121.08
agumingan,,32,18.1666667,121.1333333
agumo,,42,8.6047222,123.69
agunit,,28,18.0333333,120.7333333
agupalo este,,47,15.85,120.9
agupalo oeste,,47,15.8394444,120.8852778
agupalo west,,47,15.8394444,120.8852778
agupit,,16,13.4225,123.3247222
aguran,,17,9.1,124.75
agus,,23,11.4,125.5166667
agus,,D4,10.2775,123.9841667
agusan,,A8,8.9747222,125.5236111
agusan,,B2,8.4883333,124.7405556
agusan pequeno,,A8,8.9747222,125.5236111
agusi,,14,18.2833333,121.6833333
agusipan,,30,10.8166667,122.55
aguso,,63,15.5333333,120.6
agustin,,11,9.6208333,123.9555556
agusuhin,,64,14.8163889,120.2094444
agutaya,4989,49,11.1486111,120.9422222
agutay,,37,11.8133333,124.3352778
agutay,,54,12.4605556,122.435
agutayan,,30,10.8166667,122.5166667
agutayan,,49,8.0,117.0
agutayandelic,,49,11.4522222,119.8622222
agutayon,,46,9.9833333,123.2166667
aguzzao,,14,17.9555556,121.8805556
ahan,,56,6.9286111,124.3266667
ahin,,27,16.7666667,120.9
ahnan,,30,10.4166667,122.5166667
airmen village,,E9,14.5277778,121.0144444
ajid,,60,5.9922222,121.0097222
ajjao,,14,17.8927778,121.8702778
ajong,,46,9.3769444,123.2644444
ajos,,30,11.25,123.0333333
ajos,,H2,13.55,122.3666667
ajos catanauan,,H2,13.5486111,122.3566667
ajos mulaney,,H2,13.5480556,122.38
ajuy,8695,30,11.1683333,123.0180556
ajuy town,,30,11.1683333,123.0180556
ajuz,,30,11.25,123.0333333
akbual,,70,5.8641667,125.3427778
akle,3381,13,15.0472222,121.0747222
akli,,50,15.1255556,120.6436111
akol,,71,6.265,124.1691667
akot,,71,6.265,124.1691667
alabaan,,28,18.0166667,120.6666667
alab,,44,17.0594444,120.9425
alabang,,53,14.4169444,121.0483333
alabang hills village,,53,14.435,121.0347222
alabat,7910,H2,14.1027778,122.0152778
alabel,43312,70,6.0894444,125.2755556
alabiao,,14,17.75,121.4833333
alabidham,,30,11.335,123.0119444
alabidhan,,30,11.335,123.0119444
alabog,,29,17.7275,121.4758333
alabug,,29,17.7275,121.4758333
ala buna,,60,6.15,120.45
alacaac,,47,15.3166667,121.1833333
alac,,45,10.4666667,122.9833333
alac,3430,51,15.9886111,120.8066667
alacan,,51,15.9166667,120.4
alacaygan,,30,11.0,122.8
alacaygan,2598,45,10.8666667,123.0833333
alacaygan,2598,H3,10.8411111,123.0586111
alad,,41,13.3680556,121.0822222
alad,2543,54,12.62,122.2416667
alae,5121,12,8.4211111,124.8116667
alagan,,07,14.5386111,120.6025
alagan,,56,7.0852778,124.3230556
alagao,,09,13.8075,120.9675
alagao,,49,11.995,120.2983333
alagingay,,30,11.2333333,122.9166667
alaguisoc,,30,10.6666667,122.5666667
alahag,,37,11.1833333,124.8166667
alah,,70,6.1977778,124.7719444
alah,,71,6.6830556,124.5652778
alahog,,30,11.2308333,123.0538889
alah valley,,70,6.1977778,124.7719444
alai,,12,8.4211111,124.8116667
alainao norte,,36,16.5166667,120.4166667
alainao sur,,36,16.5,120.4166667
alajag,,37,11.1833333,124.8166667
alakaygan,,30,11.0,122.8
alala village,,E9,14.5469444,121.0105556
alalay,,51,15.85,120.55
alalay grande,,47,15.8333333,120.8666667
al-alinao norte,,36,16.5166667,120.4166667
al-alinao sur,,36,16.5,120.4166667
alallutan,,28,17.9,120.5666667
alaludig,,01,17.4961111,120.7
al-aludig,,29,17.2666667,120.4666667
al-aluding,,29,17.2666667,120.4666667
alalum,,09,13.8225,121.03
alamada,4987,57,7.3333333,124.5666667
alamag,,23,11.3580556,125.5266667
alamagui,,31,17.4461111,121.7866667
alam,,32,18.2836111,121.4175
alamao,,56,7.3333333,124.3833333
alambihud,,21,9.9172222,123.5397222
alambijod,,21,9.9172222,123.5397222
alambijud,,21,9.9172222,123.5397222
alambre,,C3,7.0641667,125.4686111
alaminos,,04,11.5486111,122.2733333
alaminos,31427,33,14.0627778,121.2480556
alaminos,10488,51,16.1561111,119.9811111
alamog,,23,11.3580556,125.5266667
alancao basud,,15,14.1825,122.7427778
alang,,48,16.2,120.9
alang alang,,21,10.3333333,123.9333333
alangalang,8095,37,11.2061111,124.8466667
alangalang,,59,9.9166667,125.2833333
alang-alang,,61,9.7877778,125.4347222
alangan,,06,10.7833333,122.0333333
alangan,,07,14.5386111,120.6025
alangan,,29,17.6833333,120.3666667
alangan,,56,7.15,124.2166667
alangasel,,21,9.7666667,123.35
alang-dang,,66,7.9352778,123.5863889
alangilan,,09,13.75,121.05
alangilan,,17,9.1044444,124.7452778
alangilan,,37,10.75,125.0
alangilan,4613,46,9.2775,122.8833333
alangilan,,H2,13.8333333,122.1333333
alangilanan,2365,46,9.64,123.1075
alangilang,,46,9.2775,122.8833333
alanguigan,,31,16.7455556,121.7105556
alanib,4207,12,8.0236111,124.9861111
alanjin,,29,17.6833333,120.3666667
alanjino,,29,17.6833333,120.3666667
alannay,2128,14,18.05,121.5666667
alanogan,,44,17.0972222,121.2486111
alaoa,,01,17.7525,120.825
alaoao,,28,18.4969444,120.7180556
alapang,,10,16.4666667,120.5833333
alapan primero,,20,14.4219444,120.9161111
alapan segundo,,20,14.4294444,120.9169444
alapasco,,30,11.4333333,123.05
alasaguin,,18,11.4666667,122.8166667
alasaguing,,18,11.4666667,122.8166667
alas,,39,12.2233333,123.3186111
alas-as,,04,11.4952778,122.2616667
alasas,,39,12.2233333,123.3186111
alasasin,,07,14.4261111,120.5597222
alassitan,,14,18.5108333,121.3227778
alauihao,,15,14.1091667,122.9169444
alauihao,,21,9.8275,123.3805556
alauihao,,30,11.25,123.0333333
alauihao,,45,10.6333333,123.4333333
alauihao,,46,9.7066667,123.135
alauli,,50,14.8666667,120.7166667
alaum,,09,13.8225,121.03
alava,,51,16.1616667,120.5161111
alawihao,,15,14.1091667,122.9169444
alawihao,,30,11.25,123.0333333
alawihao,,46,9.7066667,123.135
alawijao,,21,9.8275,123.3805556
alayan,,48,16.3166667,121.4333333
alayao,2406,15,14.2772222,122.5444444
alayo,,01,17.45,120.7666667
alayonan,,18,11.3833333,122.8166667
alayunan,,18,11.3833333,122.8166667
alba,,04,11.7333333,122.3333333
alba,,62,8.9694444,126.1319444
albalate,,55,11.8475,124.9116667
albasan,,04,11.7252778,122.3330556
albian,,10,16.2827778,120.6611111
albiga,,46,9.0666667,123.1
albuara,,37,10.9166667,124.6966667
albuera,4968,37,10.9166667,124.6966667
album,,07,14.75,120.45
albuna,,03,8.0705556,125.815
albuquerque,2730,11,9.6080556,123.9580556
alburqerque,,11,9.6080556,123.9580556
alburquerque,,11,9.6080556,123.9580556
alcala,4668,14,17.9052778,121.6544444
alcala,8883,51,15.8472222,120.5241667
alcala,,D5,13.15,123.7166667
alcantara,,18,11.2333333,122.8666667
alcantara,4447,21,9.9755556,123.4061111
alcantara,2251,54,12.2666667,122.05
alcoba,,49,11.01,120.8213889
alcoy,3016,21,9.7119444,123.5066667
ale,,24,7.75,125.35
alegeria,,E4,11.0113889,124.5972222
aleges,,06,10.8913889,122.1808333
alegna,,21,10.6875,123.8311111
alegre,,06,11.2644444,122.0655556
alegre,,37,10.9333333,125.0
alegre,,C9,10.6833333,122.5
alegre,,F8,10.7833333,123.05
alegria,4578,03,8.5066667,126.0119444
alegria,,04,11.8519444,121.8897222
alegria,,06,10.85,122.1333333
alegria,,11,9.6008333,123.9883333
alegria,2539,21,9.7302778,123.3433333
alegria,,30,10.4494444,122.6186111
alegria,,37,10.9333333,124.95
alegria,,39,11.7852778,124.0547222
alegria,,42,8.5169444,123.7302778
alegria,,45,10.5225,122.8558333
alegria,,54,12.8194444,122.0808333
alegria,,55,11.3738889,124.995
alegria,,58,12.8666667,124.1333333
alegria,5891,61,9.4669444,125.5772222
alegria,,66,7.5294444,122.9894444
alegria,5811,67,12.3977778,124.3297222
alegria,,E4,11.0113889,124.5972222
alegria,2780,H3,10.6477778,123.0841667
alegria hacienda,,45,10.65,123.1
alegria norte,,11,9.6008333,123.9883333
alegria sur,,11,9.6166667,123.9833333
alejal,8075,24,7.3841667,125.66
alejandria,,45,10.4166667,122.9666667
alejandro pascual,,47,15.7166667,120.9833333
alejipan,,06,11.3997222,122.1169444
alejos,,37,10.3458333,124.8186111
alemania,,11,9.6283333,124.1572222
alemania,,47,15.7166667,120.6833333
alfaco,2599,21,10.2541667,123.6713889
alfonso,,04,11.4141667,122.34
alfonso,9446,20,14.1408333,120.8538889
alfonso,,29,17.1694444,120.6108333
alfonso castaneda,,48,15.8036111,121.3061111
alfonso xii,,04,11.3833333,122.3333333
alfonso xiii,,49,9.2411111,118.0313889
alfonzo,,20,14.1408333,120.8538889
alga,,17,9.1208333,124.6825
algeciras,4007,49,11.4205556,120.8138889
algeria,,61,10.0552778,126.0688889
algeria,,66,7.8988889,123.4236111
algongan,,39,11.8555556,124.0655556
aliaga,34020,47,15.5,120.8444444
aliaga,,51,15.9,120.45
aliag,,30,10.8666667,122.7333333
aliagaro,,23,11.0597222,125.7063889
aliang,,05,13.2005556,123.4691667
aliang,2642,G6,14.2833333,120.8833333
aliangaw,,21,9.7166667,123.4
alianza,,16,13.5502778,123.1077778
aliaugon,,48,16.6166667,121.05
aliawan,,44,17.1188889,121.2936111
alibadabad,,31,17.0,122.0333333
alibago,,14,17.5705556,121.7494444
alibago,,31,17.1,121.85
alibagon,,04,11.7333333,122.2833333
alibagon,,54,12.3513889,122.6763889
alibagu,4446,31,17.1,121.85
alibangbang,,29,17.4833333,120.4333333
alibangbang,,47,15.52,120.9386111
alibangon,,54,12.3513889,122.6763889
alibangsay,,36,16.6,120.4333333
alibasao,,H3,10.5977778,123.1416667
alibayan,,57,7.1666667,125.1833333
alibayog,,30,11.2577778,123.0075
alibeng,,51,16.1169444,120.5941667
alibijaban,,H2,13.3327778,122.7236111
alibog,2576,40,12.2305556,121.2280556
alibon,,19,13.6166667,124.0666667
alibuag,,19,13.6025,124.0827778
alibueng,,51,16.1169444,120.5941667
alibug,,40,12.2305556,121.2280556
alibumbungan,,33,14.1333333,121.4166667
alibunan,2798,30,11.15,122.4833333
alibunbungan,,33,14.1333333,121.4166667
alicad,,68,16.2369444,121.6066667
alicante,8606,H3,10.8869444,123.0230556
alicia,4415,11,9.8969444,124.4430556
alicia,,31,16.7780556,121.7013889
alicia,3306,66,7.5138889,122.93
alicomoban,,43,8.9413889,124.7872222
aliga,,51,15.9,120.45
alige,,51,15.8333333,120.4333333
aliguay,,11,9.75,123.8666667
aliguay,,21,10.7333333,123.8333333
aliguayan,,33,14.1366667,121.5347222
aliguian,,H2,14.1163889,121.5505556
aligway,,11,9.8286111,124.4397222
alihawan,,11,9.6666667,124.35
alijauan,,11,9.6666667,124.35
alijawan,,11,9.6855556,124.3997222
alijis,2132,45,10.4436111,122.8655556
alijis hacienda,,45,10.45,122.8666667
alijogan,,38,13.4166667,121.8166667
alikad,,68,16.2369444,121.6066667
alilao,,51,15.985,119.8730556
alilem,,29,16.8880556,120.5291667
alilintao,,32,17.9672222,121.2116667
alilinu,,14,18.2958333,121.6619444
alilio,,H2,14.1166667,121.55
alima,,20,14.4583333,120.925
alim,3732,H3,9.5655556,122.4894444
aliman,,14,18.5841667,121.0955556
alimango,,54,12.2219444,122.0466667
alimango,,69,9.2841667,123.64
alimango,,H3,10.8369444,123.5233333
alimanguan,3324,49,10.61,119.3275
alimannao,,14,17.65,121.7666667
alimawan,,41,12.2658333,121.2630556
aliminos,,51,16.1561111,119.9811111
alimit,,27,16.9002778,121.25
alimoan,,14,18.5841667,121.0955556
alimodian,7302,30,10.8213889,122.4311111
alimoneng,,51,16.05,120.8
alimono,2708,30,11.1855556,122.7147222
alimosgan,,01,17.6833333,120.7333333
alimsog,,05,13.2333333,123.85
alin,,58,12.9905556,123.5302778
alinao,,15,14.1166667,122.8666667
alinasan,,32,18.2566667,121.0458333
alinauan,,19,13.9102778,124.33
alinawan,,19,13.9102778,124.33
alincaoeg,,29,17.1166667,120.45
alinea,,47,15.4333333,121.1333333
alingadyon,,H3,9.6013889,122.4972222
alingag,,32,17.5,121.2
alingaro,,20,14.2419444,120.8880556
alingarog,,23,11.0597222,125.7063889
alinguigan,,31,16.7455556,121.7105556
alinguigan i,,31,17.1266667,121.9327778
aliniwan,,19,13.9102778,124.33
alinsolong,,21,11.4833333,124.1
alinta,,32,17.5833333,121.4333333
alinunu,,14,18.4333333,121.45
alioecoec,,51,16.0166667,120.2333333
alipaciauan,,18,11.2913889,122.6558333
alip,,56,6.745,124.8516667
alipangan,,51,16.1,120.5666667
alipangang,,51,16.1,120.5666667
alipangpang,,51,16.1,120.5666667
alipao,,61,9.4997222,125.5825
alipaoy,,40,13.4380556,120.4766667
alipasapas,,01,17.5833333,120.7166667
alipasiauan,,18,11.2913889,122.6558333
alipasiawan,,18,11.2913889,122.6558333
alipat,,H2,14.1266667,121.7622222
alipato,,30,11.4388889,123.2547222
alipion,,45,10.3166667,123.0333333
alipion hacienda,,45,10.2833333,123.0166667
alipit,,33,14.2333333,121.4166667
alipuaton,,43,8.8547222,124.8105556
alipuluan,,45,10.5111111,122.9541667
aliputos,,04,11.7,122.3166667
aliquay,,11,9.75,123.8666667
alisit,,32,18.1,121.0833333
alisoso,,39,12.5666667,123.7
alitagtag,3960,09,13.865,121.0052778
alitao,,H2,14.0333333,121.55
alitap,,09,13.5975,121.275
alitap,,H2,14.1266667,121.7622222
alitas,,H2,14.7136111,121.6588889
alitasy,,H2,14.7136111,121.6588889
alitaya,,51,16.05,120.4
alitaytay,,40,12.4272222,121.1244444
alitazan,,42,8.3816667,123.7847222
alitock,,H2,14.1333333,121.75
alitongtong,,14,17.6861111,121.8913889
alitungan,,40,13.2166667,120.7666667
aliuagon,,48,16.6166667,121.05
aliuniun,,32,18.1833333,121.1
aliwanay,,21,10.5166667,123.7166667
aliwe,,30,10.9166667,122.7333333
alkuino,,37,10.6980556,124.8102778
allabon,,51,15.975,119.8052778
allacapan,3645,14,18.25,121.5833333
allaguia,,32,17.5833333,121.3666667
al-lalabang,,28,18.0694444,120.5819444
allang,,05,13.2005556,123.4691667
allang,,G6,14.2833333,120.8833333
allangigan,,28,18.0333333,120.5666667
allangigan,2219,29,17.1666667,120.5
al-langigan,,36,16.6666667,120.3333333
allangigan primero,,29,17.1666667,120.5
allangigan segundo,,29,17.1666667,120.5
allappangan,,14,18.4833333,121.3666667
allasitan,,14,18.5108333,121.3227778
allassitan,,14,18.5108333,121.3227778
allauan,,48,16.2752778,121.0419444
allavan,,48,16.2752778,121.0419444
al-lay,,10,16.6166667,120.6833333
allen,7502,67,12.5005556,124.2866667
allissitan,,14,18.5108333,121.3227778
alloy,,48,16.3166667,121.3
almacen,,07,14.8386111,120.5161111
almacen,,31,17.2833333,121.8
almacen,,B4,14.6833333,120.9333333
almacen,,H2,13.8661111,121.9955556
almacon,,07,14.8386111,120.5161111
almagro,,55,11.9144444,124.2866667
almaguer,3368,48,16.35,121.0833333
alman,,30,10.4166667,122.5166667
alman sur,,30,10.4166667,122.5166667
almanza,,53,14.4833333,120.9833333
almarco,,37,11.0833333,124.4
almendras,2626,63,15.2833333,120.7
almenia,,37,11.6202778,124.3816667
almeria,2960,37,11.6202778,124.3816667
alo,,21,9.4955556,123.3919444
aloang,,28,18.0833333,120.75
alobijod,,30,10.5333333,122.5166667
alobo,,38,13.4755556,122.0977778
aloe,,34,8.0719444,124.2297222
alogtog,,01,17.6313889,120.7472222
aloguinsan,2721,21,10.2194444,123.55
alojipan,,06,11.3997222,122.1169444
alola,,05,13.3333333,123.7333333
alolayag,,60,5.9583333,120.8788889
aloleng,2389,51,16.1166667,119.7666667
alomatagnipa,,60,5.9833333,120.8833333
aloneros,,H2,13.9927778,122.3708333
alongongan,,39,11.8555556,124.0655556
alonjiro,,H2,13.2702778,122.6775
alonogan,,44,17.0972222,121.2486111
alo-on,,34,8.0719444,124.2297222
aloquinsan,,21,10.2194444,123.55
aloran,,42,8.4183333,123.8202778
alos,,51,16.095,119.9627778
aloyan,,H2,14.8788889,121.9663889
aloyum,,H2,14.8788889,121.9663889
aloyun,,H2,14.8788889,121.9663889
alpaco,,21,10.2541667,123.6713889
alpako,,21,10.2541667,123.6713889
alsam,,H2,14.0333333,121.6166667
alsem,,28,18.2672222,120.725
altavas,2736,04,11.5369444,122.4863889
altavista,,21,10.6486111,124.4405556
altavista,,37,10.6833333,124.7833333
alteza,,16,13.7947222,122.96
alto,,31,17.3647222,121.8180556
altura,,09,14.1302778,121.0883333
alua,4943,47,15.3166667,120.8833333
alu,,60,5.7166667,121.0
alu ben'a,,60,6.15,120.45
alubihid,,02,8.9627778,125.4258333
alubihid,,43,8.5733333,124.4736111
alubihon,,34,8.2866667,124.2972222
alubijid,2700,02,8.9627778,125.4258333
alubijid,3320,43,8.5733333,124.4736111
aludaid,,36,16.6666667,120.3333333
aludapdap,,60,5.6822222,120.8797222
alu duyung,,60,5.6738889,120.86
aluduyung,,60,5.6833333,120.8666667
alugan,2131,23,12.2186111,125.4797222
alugmaua,,30,11.1166667,122.4666667
alugmawa,,30,11.1166667,122.4666667
alugon,,23,12.2186111,125.4797222
alula,,47,15.7213889,120.8069444
alulayag,,60,5.9583333,120.8788889
alulin,,29,16.9788889,120.7619444
alulod,,20,14.2058333,120.8905556
alulud,,20,14.2058333,120.8905556
alum,,46,10.15,123.25
alumani,,32,18.0466667,121.1755556
alumbrado,,33,14.1333333,121.3833333
alunero,,H2,13.9927778,122.3708333
aluntayan,,68,16.0761111,121.4705556
alunupan,,44,17.0833333,121.2666667
alu-on,,34,8.0719444,124.2297222
alupat,,48,16.2833333,120.8666667
alupay,3981,09,13.8419444,121.2958333
alupay,,H2,14.0333333,121.5833333
alupaye,,H2,13.9369444,121.6925
alupidian,,30,10.6833333,122.3833333
alupipeu,,68,15.97,121.4594444
alupipey,,68,15.97,121.4594444
alusiman,,45,10.2208333,122.9655556
aluyon,,H2,14.8788889,121.9663889
aluyun,,H2,14.8788889,121.9663889
alvindia,,63,15.5,120.5833333
alzate,,36,16.9,120.4
alzate,,47,15.75,120.7666667
alzateu,,47,15.75,120.7666667
amacalan,,51,15.9166667,120.4166667
amacalan,2693,63,15.5833333,120.6166667
amacpecan,,51,15.7833333,120.45
amadeo,16618,20,14.1705556,120.9236111
amadeo,,56,7.3133333,124.2252778
amaga,,06,12.5166667,121.4
amaga,,18,11.4377778,122.6794444
amaga,,46,10.0,123.2
amaga,,59,10.3166667,125.2333333
amaga,2230,62,8.5308333,126.0702778
amaga,,H2,14.8263889,122.1397222
amagbagan,2443,51,16.1,120.5333333
amagusan,,59,10.2608333,125.2558333
amahit,,16,13.7558333,122.8441667
amahit,,37,11.2802778,124.7547222
amakalan,,51,16.0166667,120.0333333
amalbalan,,51,15.9727778,119.8613889
amaling,,51,16.1166667,120.5333333
amaloy,,22,6.4413889,122.1233333
amamaros,,30,10.9233333,122.6227778
amamarus,,30,10.9233333,122.6227778
amambahag,,37,11.6697222,124.5361111
aman,,30,10.4166667,122.5166667
amancoro,,51,16.0,120.2666667
amancosiling see amancosiling sur,,51,15.7833333,120.45
amancosiling sur,,51,15.7833333,120.45
amandangay,,37,11.0666667,124.8833333
amandayehan,,55,11.2758333,124.9994444
amandiego,,51,16.1386111,119.9658333
amangbangan,,51,16.1666667,119.9166667
amanoaoac,,51,16.15,120.4333333
amanparan,,64,15.7666667,120.0
amanperez,,51,15.8655556,120.535
amansabina,,51,16.05,120.4166667
amansabino,,51,16.05,120.4166667
amansic,,51,16.1166667,120.4166667
amantoc,,36,16.6575,120.4658333
amanumbus,,56,6.9772222,124.7075
amarao,,29,17.0602778,120.4852778
amarga,,29,17.3333333,120.5
amaronan,,51,15.9666667,120.8333333
amas,,49,8.7752778,117.8141667
amas,6219,57,7.0583333,124.9827778
amasion,,57,7.0433333,125.0063889
amat,,16,13.4,123.3
amatong,,54,12.3605556,122.0466667
amatugan,,21,10.6794444,123.8708333
amaya,,20,14.3841667,120.8302778
amayong,,30,11.3638889,123.0686111
ambabaay,,51,16.1666667,119.8666667
ambabu,,31,17.0166667,122.1666667
ambacan,,11,10.0666667,124.0666667
ambacon,,02,8.7127778,125.6294444
ambacon,,59,10.3833333,125.2
ambag,,27,16.7836111,121.085
ambagan,,A8,8.9805556,125.5133333
ambago,,02,8.95,125.5333333
ambago,,A8,8.9805556,125.5133333
ambagon,,A8,8.9805556,125.5133333
ambagsang,,28,17.95,120.6833333
ambagsong,,28,17.95,120.6833333
ambaguio,,44,17.1213889,120.8452778
ambaguio,,48,16.5097222,121.0169444
ambakan,,37,10.6833333,124.7833333
ambakon,,02,8.7127778,125.6294444
ambakon,,A8,8.7666667,125.5833333
ambalatunga,,31,16.7252778,121.555
ambalatungan,,31,16.7252778,121.555
ambalayat,,29,16.9205556,120.4938889
ambalingit,,47,15.8833333,120.8833333
ambalingit,,63,15.6166667,120.3833333
ambalite,,36,16.3,120.4666667
amballo,,48,16.5733333,121.3161111
ambalo,,48,16.5733333,121.3161111
ambangan,,48,16.3666667,120.8666667
ambangig,,10,16.5336111,120.8330556
ambangonan,,36,16.2902778,120.4797222
ambangunan,,36,16.3,120.4833333
ambao,,59,10.3333333,125.25
ambaracao norte,,36,16.5333333,120.4
ambaracao sur,,36,16.5333333,120.4
ambarihon,,30,10.75,122.3166667
ambasio,,44,17.1213889,120.8452778
ambassing,,44,17.0725,120.9008333
ambayoan,,44,17.0166667,121.0166667
ambigaton,,44,17.1666667,121.25
ambil,,40,13.8066667,120.3283333
ambilay,,18,11.3975,122.7619444
ambitacay,,36,16.3,120.3833333
ambito,,31,17.05,121.8333333
amblan,,46,9.4636111,123.2266667
ambo,,39,12.3166667,123.6333333
ambocao,,29,17.3,120.4166667
ambogao,,44,17.1166667,121.3833333
ambolong,,18,11.5683333,122.5022222
ambolong,,40,13.8,120.1333333
ambonao,,51,16.0205556,120.3780556
ambongdolan,,10,16.5333333,120.6166667
amboyo-an,,30,10.5611111,122.085
ambuan,,11,9.7966667,124.0022222
ambucao,,29,17.3,120.4166667
ambuclao,2822,10,16.4833333,120.75
ambudbod,,24,7.5375,125.7380556
ambuete,,51,15.9833333,120.3333333
ambuetel,,51,15.9833333,120.3333333
ambugat,,29,17.3333333,120.4833333
ambuiogan-labuac,,29,17.455,120.4838889
ambuklao,,10,16.4833333,120.75
ambuldan,,70,6.5680556,124.6530556
ambulogan,,29,17.455,120.4838889
ambulogan-labuac,,29,17.4666667,120.4833333
ambulong,9074,09,14.0919444,121.06
ambulong,,18,11.5683333,122.5022222
ambulong,,30,11.2666667,123.0666667
ambulong,,40,12.2225,121.0230556
ambulong,,54,12.4886111,122.4841667
ambulosan,,29,17.455,120.4838889
ambuludan,,70,6.5680556,124.6530556
ambulugan,,29,17.455,120.4838889
amcalan,,51,15.9166667,120.4166667
amdangle,,27,16.7880556,121.1938889
amdos,,46,9.8833333,123.1
amduntog,,27,16.7358333,121.0897222
amdus,2247,46,9.8833333,123.1
america,,16,13.5666667,123.4
america,,37,10.9,124.95
americahay,,37,10.9,124.95
ames,,25,6.7236111,125.3030556
amganad,,27,16.9166667,121.0666667
amgayan,,29,16.9666667,120.7166667
amgayang,,29,16.9666667,120.7166667
amguhan,,37,10.6833333,124.7833333
amguid,,29,17.2,120.45
amguilem,,44,17.0525,120.8977778
amica,,10,16.4833333,120.4833333
amigos,,H3,10.9361111,123.3133333
amihanan,,53,14.4219444,121.2247222
amiles,,46,10.0166667,123.1333333
amiligan,,18,11.8166667,122.8166667
amilong,,48,16.3333333,120.8833333
amilongan,,29,16.8597222,120.58
amio,2349,46,9.3577778,122.9397222
amirang,,30,10.8666667,122.5
amiroy,,30,10.9166667,122.5666667
amistad,,31,16.8625,121.6666667
amistad,,51,16.0333333,120.75
amitty ville,,53,14.7452778,121.1311111
amlan,,46,9.4636111,123.2266667
amlang,,36,16.25,120.4333333
amlao,,32,17.4,121.3166667
amlimay,2405,10,16.7,120.8333333
ammacian,,32,17.6333333,121.35
ammagacan,,14,18.6086111,121.1833333
ammobocan,,31,16.8405556,121.8058333
ammoboocan,,31,16.8405556,121.8058333
ammubuan,,14,18.3966667,121.5358333
amnay,,40,13.0263889,120.9425
amoguis,,H2,13.4772222,122.4213889
amoingan,,38,13.4,121.8283333
amoingon,,38,13.4,121.8283333
amoloc,,44,17.1666667,121.2666667
amolongin,,H2,14.7069444,121.6358333
amomonting,,58,12.9313889,123.8530556
amomoting,,58,12.9313889,123.8530556
among,,67,12.3844444,124.3472222
amonoy,,33,14.1166667,121.5
amontay,,02,8.9875,125.3163889
amontay,,61,9.7088889,125.3988889
amontay,,H2,13.7327778,122.1572222
amonting,,58,12.9313889,123.8530556
amontoc,,36,16.6575,120.4658333
amorebieta hacienda,,45,10.35,122.9666667
amorogtong,,30,10.7166667,122.2833333
amoroy,,39,12.2838889,123.7202778
amoslog,,61,9.6375,125.6
amot,,H2,14.8533333,121.9633333
amoyloi,,22,6.4413889,122.1233333
ampalang,,10,16.7166667,120.8166667
ampalioh,,01,17.3333333,120.7166667
ampaliok,,01,17.35,120.7333333
ampandula,,29,17.4833333,120.4333333
amparo,,06,10.9,122.0
amparo,,59,10.09,124.9077778
amparo,,A8,8.865,125.5575
ampatuan,3962,56,6.8666667,124.4666667
ampayao,,29,17.1666667,120.5666667
ampayoc,,01,17.35,120.7333333
ampayon,,A8,8.9669444,125.6044444
ampenican,,43,8.8986111,124.7869444
ampid,,53,14.6830556,121.1180556
ampihanon,,37,10.6833333,124.7833333
ampinikan,,43,8.8986111,124.7869444
ampoagan,,29,17.35,120.5
ampongol,,21,10.8011111,123.9461111
amposungan,,10,16.7816667,120.7258333
ampoya,,B8,7.1675,124.2538889
ampuagan,,29,17.35,120.5
ampuan,,56,6.8666667,124.4666667
ampusungan,,10,16.7816667,120.7258333
amsalsal,,10,16.4852778,120.5966667
amsawan,,29,17.0855556,120.6727778
amsic,,A1,15.1552778,120.5705556
amsuling,,10,16.6666667,120.6666667
amti,,01,17.3666667,120.8666667
amtic,,05,13.3,123.6333333
amtuagan,,01,17.2666667,120.7166667
amucao,2478,63,15.4658333,120.6855556
amugao,,32,18.1333333,121.1333333
amugis,,41,12.4730556,121.4052778
amuguis,,41,12.4730556,121.4052778
amuguis,,H2,13.4772222,122.4213889
amulong,,14,17.8380556,121.7255556
amulung,2354,14,17.8380556,121.7255556
amungan,12357,64,15.3675,119.9566667
amungen,,64,15.3675,119.9566667
amunitan,,14,18.3166667,122.05
amuntay,,H2,13.95,122.4833333
amurao,,30,10.8666667,122.5
amuslog,,61,9.6375,125.6
amusrog,,61,9.6375,125.6
amutag,,39,12.3752778,123.2633333
amuyong,,33,14.4666667,121.3833333
amya,,21,10.7575,123.92
amyan,,H3,9.855,122.8452778
anaao,,29,16.8833333,120.55
anaaon,,61,9.7769444,125.4247222
anaba,,27,16.9147222,121.1511111
anabat,,47,16.0069444,120.965
anabel,,44,17.1333333,121.0666667
anablan,,48,16.2833333,120.9666667
anablo,,30,11.215,122.915
anabo,,30,11.215,122.915
anabu primero,,20,14.3966667,120.945
anabu segundo,,20,14.3780556,120.9433333
anahao,,21,9.8666667,123.5666667
anahao,,46,9.8833333,123.1094444
anahao,,54,12.2041667,121.9675
anahao daan,,62,8.9636111,126.155
anahauan,,37,11.165,124.9452778
anahauay,,37,11.1527778,124.9477778
anahaw,,54,12.2041667,121.9675
anahawan,,30,11.0188889,122.395
anahawan,2640,37,10.35,124.8666667
anahawan,,59,10.2772222,125.2625
anahaway,,37,11.1527778,124.9477778
anajao,,11,9.8263889,124.5266667
anajao,,21,9.8666667,123.5666667
anajao,,45,10.3,122.8808333
anajao,,54,12.3722222,121.9663889
anajaon,,16,13.7333333,122.9833333
anak,,68,16.3038889,121.6738889
anakan,3825,43,8.8477778,125.1513889
ana maria hacienda,,45,10.35,123.0
anambongan,,51,15.8833333,120.3666667
an-ana-ao,,29,17.1477778,120.6147222
anan,,59,10.3833333,125.2441667
anandaku,,59,10.3833333,125.2441667
anandayehan,,55,11.2758333,124.9994444
anangca,,14,18.55,121.2333333
anangui,,28,18.1,120.5666667
anan-nam,,29,17.5833333,120.3833333
ananonas sur,,51,16.05,120.7
ananong,,19,13.85,124.3166667
anaoan,,61,9.7769444,125.4247222
anao,,04,11.5666667,122.3833333
anao,,21,10.7647222,124.5055556
anao,,27,16.8666667,121.2833333
anao,,31,17.4333333,121.7666667
anao,4669,50,15.1408333,120.6944444
anao,,63,15.7288889,120.6261111
anaoaon,,61,9.7769444,125.4247222
anap,,01,17.2,120.75
anapao,,51,16.1,119.85
anapla,,49,12.1427778,120.0258333
anapog-alemania,,11,9.6283333,124.1572222
anapog,,11,9.6283333,124.1572222
anapog,,21,10.6775,123.9361111
anapog,,54,12.5311111,122.1227778
anapog,,G5,10.31,123.6391667
anapog-sibucao,,38,13.4833333,121.8666667
anapul,,63,15.2911111,120.5730556
anas,,11,9.6044444,124.2294444
anas,,37,10.6530556,125.0338889
anas,,39,12.4294444,123.565
anas,,H2,13.95,122.2833333
anatam,,13,15.1011111,120.9408333
anato,,H2,14.0333333,121.7166667
anauan,,16,13.5833333,123.4333333
anavan,,H2,14.81,121.9030556
anawan,,H2,14.81,121.9030556
anawang,,68,16.1261111,121.4863889
anawan malaki,,H2,14.8,121.9
anawan munti,,H2,14.8,121.9
anayan,,01,17.8722222,120.9258333
anayan,,16,13.5416667,123.2861111
anayan-pauili,,16,13.55,123.2666667
anayasan,,40,13.0333333,120.8333333
ancheta,,29,17.3333333,120.5166667
anciray,,40,12.2661111,121.0722222
anda,,11,9.7463889,124.5758333
anda,3160,51,16.2888889,119.9513889
andabet,,56,7.0288889,124.4777778
andagao,,04,11.6958333,122.3641667
andagaw,,04,11.6958333,122.3641667
andalan,2644,60,5.9594444,121.3902778
andales,,43,8.5219444,124.3336111
andangin,,51,15.7322222,120.3602778
andarayan,,14,17.6875,121.7225
andarayan,,31,16.9502778,121.8125
andarayan burgos,,31,16.9891667,121.9583333
andavit,,56,6.9930556,124.4508333
andayan,,31,17.1777778,121.9363889
andelanto,,24,7.7,125.65
anderson,,16,13.8797222,123.6966667
andil,,34,8.0016667,123.815
andil,,43,8.5158333,124.4647222
andili,4400,24,7.45,125.9666667
andingan,,G6,14.2686111,120.9088889
anding,,66,7.9547222,123.5138889
ando,,23,11.6433333,125.4791667
andoon,,F4,10.4833333,123.3975
andop,,24,7.8611111,125.7538889
andrade,,31,16.9386111,121.8616667
andres,,60,5.9677778,121.3138889
andres boniface,,45,10.9333333,123.4166667
andres bonifacio,,30,10.6,122.1166667
andres bonifacio,,37,10.7333333,124.9666667
andres bonifacio,6493,45,10.9166667,123.25
andres bonifacio,,47,15.7080556,121.0097222
andulawan,,45,10.0333333,122.7833333
anduyanan,,40,13.4291667,120.5119444
anduyan,,36,16.3488889,120.4430556
anepahan,,49,9.7333333,118.4666667
angabong,,56,6.8055556,124.7105556
angadanan,4487,31,16.7558333,121.7505556
angadanan viejo,,31,16.7833333,121.7
angad,2223,01,17.5833333,120.6333333
angadangan,,31,16.7558333,121.7505556
angadauan,,31,16.7558333,121.7505556
angaki,,29,17.1555556,120.67
angalatan,,51,15.8833333,120.3666667
angaleyguey,,10,16.7166667,120.8333333
angancasilian,,31,17.4333333,121.7666667
angapat,,10,16.535,120.6047222
angare,,30,11.0666667,122.6333333
angarilla,,31,17.15,121.9166667
angas,,04,11.53,122.5108333
angas,,15,14.0616667,123.0244444
angas,,38,13.4333333,122.1166667
angatan,,C5,9.3,123.3
angat,41235,13,14.9280556,121.0305556
angatel,2359,51,15.8,120.3333333
angayan,,51,15.9,120.7
angcaoay,,51,16.4833333,120.45
angeb,,H2,14.8666667,121.9666667
angela,,31,16.9833333,122.0161111
angeles,,06,10.8333333,122.1
angeles,298948,A1,15.1358333,120.5911111
angeles,,A8,9.0125,125.6080556
angeles,,D6,14.0,121.0833333
angeles,,H2,14.1313889,121.9775
angeles city,,A1,15.1358333,120.5911111
anggakan,,32,17.3125,121.2391667
ang-gapang,,28,17.9833333,120.5
anggapang sur,,28,17.9833333,120.5
angib,,H2,14.8666667,121.9666667
angilan,,11,9.7452778,124.3616667
angilan,,21,10.2219444,123.5758333
angilan,,60,5.9813889,121.3736111
angin,,36,16.5113889,120.4002778
angio,,51,16.1158333,120.4291667
angit,,15,14.1166667,122.9666667
angit,,27,16.9005556,121.2311111
angkayamat,,56,6.8816667,124.6808333
angkupan,,56,7.0666667,124.65
anglag,,37,10.5833333,125.05
anglas,,33,14.2666667,121.4833333
angolon,,40,12.8541667,120.8047222
angono,87199,53,14.5255556,121.1497222
angoton,,40,12.8541667,120.8047222
angsikan,,C3,7.4194444,125.4633333
anguapan,,31,17.2833333,121.8
angub,,18,11.3333333,122.6666667
anguira,,14,17.8225,121.73
angur,,18,11.35,122.65
anguray,,14,17.8225,121.73
angyapat,,10,16.535,120.6047222
anhauan,,18,11.5363889,122.7922222
anhauan,,30,10.9666667,122.5166667
anhauan,,46,9.1833333,123.25
anhauon,,18,11.5363889,122.7922222
anhawon,,18,11.5363889,122.7922222
aniba,,31,17.0666667,121.85
aniban,,20,14.4619444,120.9725
anib,,16,13.8058333,123.0480556
anibongan,,03,8.5611111,125.8677778
anibongan,,11,9.7166667,124.4
anibongan,2468,24,7.3933333,125.7188889
anibongan,,26,7.1988889,126.4375
anibongan,,37,10.6261111,125.0563889
anibongan,,62,8.075,126.4258333
anibong,,33,14.2166667,121.4333333
anibong,,37,11.0016667,124.9930556
anibong,,46,9.8361111,123.1291667
anibong,,G1,11.2588889,124.9869444
anibong,,H2,14.7105556,121.6441667
anibongon,,37,10.6261111,125.0563889
anibongon,,55,11.4661111,124.9966667
anibun,,72,7.0333333,118.4666667
anibungan,,11,9.7166667,124.4
anibungan,,37,11.2166667,124.75
anibungan,,55,11.4661111,124.9966667
anibungan,,62,8.075,126.4258333
anibung,,33,14.2166667,121.4333333
anibung,,37,11.0016667,124.9930556
anibung,,H2,14.7105556,121.6441667
aniburan,,H2,14.9791667,121.8547222
ani-e,3324,43,8.6136111,124.8705556
anii,,43,8.6136111,124.8705556
anilac,,59,10.1572222,125.1419444
anilanan,,30,10.7333333,122.2666667
anilan,,59,10.1572222,125.1419444
anilao,,09,13.7575,120.93
anilao,,13,14.85,120.8166667
anilao,,30,10.9777778,122.7522222
anilao,2677,41,12.7152778,121.5122222
anilao,,59,10.1572222,125.1419444
anilao,,C9,10.7666667,122.5666667
anilao,,D6,13.8916667,121.1852778
anilauan,,06,11.0636111,122.1030556
anilawan,,30,10.7166667,122.2833333
aningalan,,21,10.9544444,123.9216667
aningatan,,30,10.8333333,122.2333333
aningoay,,64,14.9141667,120.2291667
aninguay,,64,14.9141667,120.2291667
aniniry,,06,10.4386111,121.9197222
anini-y,,06,10.4386111,121.9197222
aniniy town,,06,10.4386111,121.9197222
aniog,,16,13.6,123.5166667
aniog,,31,16.7516667,121.7258333
aniog,,58,12.8011111,124.0144444
anipa,,31,16.9486111,121.9488889
anisesieg,,B3,12.1036111,124.5338889
anislagan,,37,11.5169444,124.3172222
anislagan,,61,9.6169444,125.5458333
anislag,,11,9.6983333,123.9094444
anislag,,21,10.2833333,123.6
anislag,,37,10.935,124.4391667
anislag,4061,D5,13.0766667,123.7030556
anislangan,,37,11.5169444,124.3172222
anislang,,37,10.935,124.4391667
anistag,,D5,13.0766667,123.7030556
anita hacienda,,45,10.45,122.9166667
anitan,,31,17.4697222,121.7877778
anitap,,26,6.6413889,126.0755556
anitit,,10,16.5333333,120.9
anito,,17,9.2288889,124.7480556
anito,2070,67,12.4508333,125.2883333
anjauan,,30,11.0705556,122.5955556
anjauan,,46,9.1833333,123.25
anjawan,,30,11.0705556,122.5955556
anlabo,,51,15.9,120.3666667
anlipolo,,45,10.3586111,122.9680556
anlubi,,19,14.0666667,124.1833333
annabatan,,14,18.4811111,121.3919444
annabuculan,,14,17.8333333,121.7166667
annafatan,,14,17.8022222,121.665
annafunan,,14,17.64,121.7188889
annafunan,,31,16.7166667,121.7236111
annam,,51,15.955,120.8591667
annanuman,,31,17.4288889,121.8222222
annatunan,,31,16.7166667,121.7236111
annayatan,,14,17.9325,121.8677778
annhanan,,53,14.4219444,121.2247222
anoatusia,,31,17.2533333,121.7530556
anogal,,60,6.0166667,120.9
anog,,37,11.4786111,124.5563889
anog,,58,12.8119444,123.9919444
anolid,,51,16.05,120.3858333
anoling 1,,63,15.6644444,120.4038889
anolingan,,06,11.0333333,122.05
anoling,,03,8.3558333,126.0186111
anoling,2670,05,13.2130556,123.6730556
anoling,,11,9.7588889,124.5775
anoling,,63,15.6644444,120.4038889
anoling,,H2,14.7666667,121.6333333
anoling primero,,63,15.6644444,120.4038889
anoling segundo,,63,15.65,120.3833333
anoling tercero,,63,15.65,120.3833333
anomang mayor,,29,17.55,120.3833333
anomang menor,,29,17.55,120.3833333
anomlid,,51,15.8666667,120.3666667
anomon,,67,12.3,124.65
anona,,64,15.1333333,120.05
anonang,,05,13.2294444,124.0494444
anonang,,11,10.0852778,124.1677778
anonang,,16,13.5333333,123.0
anonang,5660,21,11.0,124.0333333
anonang,,25,6.8088889,125.2227778
anonang,,30,10.7666667,122.3833333
anonang,,37,10.9833333,124.8833333
anonang,7036,51,16.1166667,120.4333333
anonang,,64,15.1333333,120.05
anonang,,H2,13.6166667,122.45
anonangin,,H2,13.8047222,122.1463889
anonang mayor,,29,17.55,120.3833333
anonang menor,,29,17.55,120.3833333
anon,,50,14.9194444,120.4791667
anonay,,25,6.8088889,125.2227778
anongan,,21,9.7666667,123.35
anongo,,67,12.3619444,125.1291667
anono-o,,30,10.6666667,122.3
anopog,,46,10.25,123.25
anopog,,G5,10.31,123.6391667
anopol,,01,17.4,120.6833333
anoring,2860,30,11.25,123.0333333
anoron,,23,11.0863889,125.7175
anos,,33,14.1833333,121.2166667
anos,,H2,13.8333333,122.1833333
anoun,,50,14.9194444,120.4791667
anoyon,,11,9.6333333,124.2
anpagan,,A8,8.8905556,125.555
anqui,,63,15.2833333,120.6833333
anquilen,,44,17.0525,120.8977778
anquiray,,14,17.8225,121.73
ansacuit,,36,16.6666667,120.5
ansad,,29,17.3166667,120.45
ansipsip,,48,16.3247222,120.8458333
antadao,,44,17.0833333,120.9166667
antagan,4065,31,17.2772222,121.9127778
antalanga,,H3,10.2461111,123.0308333
antalon,,30,10.6166667,122.1166667
antamok,,10,16.3988889,120.6627778
antao,,62,9.2397222,125.9913889
antapoc,,48,16.25,120.8666667
antatet,,31,16.9725,121.7302778
antatet-kalinga,,31,16.9833333,121.7333333
anteguera,,11,9.78,123.8988889
anteng,,36,16.3833333,120.3666667
antequera,,11,9.78,123.8988889
anti,,66,7.7166667,123.3333333
anticala,3246,A8,9.0044444,125.6452778
antihon,,11,9.6608333,124.14
antikin,,H2,14.7333333,121.6666667
anti mabalacat,,64,15.4166667,119.9
antimonan,,H2,13.9958333,121.905
antipalo,,23,11.3838889,125.5322222
antipolo,,03,8.15,125.8166667
antipolo,,04,11.7666667,122.1333333
antipolo,,11,9.6308333,124.3008333
antipolo,2257,16,13.395,123.5263889
antipolo,,19,13.5469444,124.2038889
antipolo,4530,21,11.1666667,123.95
antipolo,,23,11.3838889,125.5322222
antipolo,,27,16.6833333,121.0833333
antipolo,,33,14.1333333,121.3833333
antipolo,,37,11.2997222,124.6286111
antipolo,,39,12.2108333,123.6088889
antipolo,7398,45,10.3586111,122.9680556
antipolo,3486,47,15.6180556,121.1888889
antipolo,549541,53,14.5863889,121.1752778
antipolo,,61,9.8144444,126.0136111
antipolo,,62,8.7772222,126.2786111
antipolo,,64,14.95,120.0833333
antipolo,,D6,13.9125,121.1830556
antipolo,,H2,13.6166667,122.4666667
antique,,06,10.7022222,121.9716667
anti rancheria,,56,7.0166667,124.7166667
antobayan,,H3,10.6513889,123.4955556
antol,,55,11.5780556,125.0744444
antolin,,51,16.0166667,120.7833333
antolon,,16,13.7930556,123.7608333
antonio luna,,02,9.0816667,125.5919444
antonio luna,,39,12.55,123.7333333
antoniotigtig,,21,9.5333333,123.3166667
antuagan,,01,17.3,120.7333333
anuang,,30,10.8666667,122.5
anubas,,46,9.75,122.9411111
anulid,2177,51,15.8333333,120.4833333
anuling,,11,9.8441667,124.4380556
anuling,3905,20,14.1202778,120.8783333
anuling,10039,60,6.0355556,121.0066667
anuling,,H2,14.7666667,121.6333333
anuling segundo,,63,15.65,120.3833333
anuling tercero,,63,15.65,120.3833333
anumari,,32,18.1163889,121.1377778
anunanag,,51,16.1,120.45
anunang,,11,9.6625,124.2125
anunang,,57,7.2186111,124.5838889
anunang,,H2,13.6166667,122.45
anunas,,A1,15.15,120.55
anungan,,65,7.46,122.0777778
anupul,,63,15.2911111,120.5730556
anus,,09,13.8833333,121.05
anus,,33,14.1833333,121.2166667
anus,,H2,13.8333333,122.1833333
anuyao,,51,16.05,120.5666667
anyatam,,13,15.1011111,120.9408333
aoan,,32,18.25,121.0166667
aoang,,28,18.0833333,120.75
aokalangan,,56,7.2588889,124.3558333
aola,,05,13.3333333,123.7333333
aom,,11,10.0833333,124.1666667
apa-apaya,,01,17.45,120.6166667
apacay,,09,13.8833333,120.9166667
apad,2755,16,13.8133333,122.7641667
apad,,30,11.5,123.2
apad,,H2,14.0447222,122.1030556
apadi,,32,18.0763889,121.1213889
apad lutao,,H2,14.05,122.3333333
apad quezon,,H2,14.05,122.3333333
apaguen,,32,18.25,121.0166667
apalan,,21,10.7522222,123.8358333
apale,,16,13.8036111,122.7808333
apale,,37,10.8666667,124.4833333
apalen,,51,15.7833333,120.4166667
apaleng,,28,18.0694444,120.5819444
apaleng,,36,16.6166667,120.3166667
apali,,16,13.8036111,122.7808333
apalit,77418,50,14.9533333,120.77
apalot,,28,17.95,120.4833333
apanangan,,46,9.6833333,123.0833333
apanangon,,46,10.0333333,123.1166667
apang,,29,16.8833333,120.5833333
apao,,01,17.75,120.8333333
apao,,46,9.505,123.1575
apapaya,,01,17.4333333,120.6333333
apar,,09,13.6833333,121.3
apare,,64,15.1333333,120.05
aparicio,,04,11.7125,122.1677778
aparri,,14,18.3561111,121.6408333
aparri,,31,16.9325,121.5713889
aparri,,64,15.1333333,120.05
apasan,,H2,14.1666667,121.6333333
apas,,70,5.9113889,125.3175
apatan,,32,17.5333333,121.3333333
apat,,44,17.0833333,121.2666667
apat,,H2,14.0113889,122.3472222
apatot,,28,17.95,120.4833333
apatot,,29,17.3,120.4166667
apatot,,36,16.7888889,120.3786111
apatot,,51,15.9166667,120.8666667
apaya,,28,17.9,120.4333333
apaya,,29,16.8838889,120.5858333
apaya,,51,15.9166667,120.4166667
apayao,,14,17.8225,121.4897222
apayao,,36,16.6666667,120.4666667
apdo,,06,10.6333333,122.0
apero,,18,11.2666667,122.5166667
apgahan,,06,10.8988889,121.9794444
apgajan,,06,10.8988889,121.9794444
apganan,,06,10.8833333,121.9666667
apiag,,54,12.3894444,122.4963889
apian,,30,10.7666667,122.3666667
apiapi,,49,8.8216667,117.4563889
apiat,,31,16.95,121.6125
apid,,37,10.5352778,124.6422222
apikon,,24,7.4166667,125.8333333
apis,,49,9.4411111,118.4463889
apis,,67,12.6172222,124.4433333
apitan,,H3,10.7611111,123.5436111
apitong,2402,41,13.2380556,121.1819444
apitong,,H2,13.8333333,121.8333333
apla,,70,5.7722222,125.2141667
aplas,,H3,10.2019444,123.0730556
aplaya,9737,09,13.7741667,121.0255556
aplaya,,25,6.7397222,125.3797222
aplaya,3446,33,14.3211111,121.1194444
aplaya,3730,43,8.6086111,124.7680556
apo,,21,9.95,123.55
apo,,30,11.1775,122.7952778
apo,,46,9.0797222,123.2705556
apo-apo,,64,15.1833333,120.05
apoaporawan,,49,9.3341667,118.4972222
apo cayo,,43,8.6611111,124.9669444
apo island,,46,9.0797222,123.2705556
apokon,,24,7.4013889,125.8205556
apolong,,46,9.2833333,123.2333333
apolonia hacienda,,45,10.3333333,123.0833333
apoloy,2127,46,9.1666667,123.0166667
aporawan,2943,49,9.5994444,118.35
aposaga,,30,11.25,123.0333333
apos,,70,5.9113889,125.3175
aposingbato,,14,17.8666667,121.7166667
appari,,31,16.9325,121.5713889
apparri,,14,18.3561111,121.6408333
apsayan,,63,15.6,120.6
apuang,,62,9.2577778,126.1705556
apud,2071,05,13.1408333,123.2936111
apugan,,13,14.75,120.9166667
apugan,,47,15.3166667,121.0833333
apuled,,63,15.6866667,120.5841667
apulid,,63,15.6866667,120.5841667
apunan,,10,16.5666667,120.8333333
apunan,,27,16.65,120.7666667
apunit,,51,15.8333333,120.3333333
apurahuan,,49,9.5994444,118.35
apurauan,,49,9.5994444,118.35
aputan,,32,18.1166667,121.05
apwao,,15,14.1166667,123.0166667
aquib,,14,17.8,121.4666667
aquib,,29,17.45,120.4833333
aquiliquilao,,14,17.75,121.7333333
aquino,2607,04,11.8261111,122.1061111
aquino,,42,8.6047222,123.69
aquipo,,11,9.8913889,124.5211111
aquiting,,E4,11.1305556,124.5980556
aquizzao,,14,17.9555556,121.8805556
ara-al,2630,H3,10.4219444,123.0469444
ara,,31,16.9738889,121.9813889
arab,,01,17.5166667,120.6
arabiat,,31,16.6422222,121.6111111
arabo,,37,10.9333333,124.9666667
arac,,30,11.1166667,122.6333333
aracat,,14,18.35,122.1
araceli,3111,49,10.5561111,119.9927778
arado,,37,10.95,125.0333333
arado,,39,12.1461111,123.7866667
araeat,,14,18.35,122.1
aragao,,14,18.2666667,121.8833333
aragao,,38,13.55,121.8666667
aragon,,26,7.7872222,126.3913889
arajat,,14,17.7247222,121.6569444
aramayuan,,49,9.1530556,118.1472222
aramaywan,3487,49,9.1530556,118.1472222
aran,,16,13.5713889,122.9563889
aran,,49,12.1183333,120.1702778
aranas,4479,04,11.5666667,122.4
aranaya,,29,17.7,120.4166667
aranda,3100,45,10.2411111,122.9488889
arangin,,29,17.1166667,120.5166667
arangin-dinaratan,,29,17.1116667,120.5266667
aranguren,,63,15.3522222,120.5741667
aranguring,,63,15.3522222,120.5741667
aranio,,28,18.1666667,120.5333333
araniw,,28,18.1666667,120.5333333
aranjuez,,21,11.4833333,124.1
aranquel,,18,11.4433333,122.9177778
arap,,05,13.1666667,123.5333333
arapison,,55,12.0833333,124.6833333
ar-arampang,,36,16.7833333,120.4166667
ara rancheria,,56,7.0255556,124.315
ar-aro,,29,17.1166667,120.45
ar-aro-o,,28,18.6166667,120.7833333
ar-arumpang,,36,16.7833333,120.4166667
arasaas,,51,16.05,119.8333333
aras,,56,7.4333333,124.2166667
arasasan,,06,10.5886111,121.9697222
aras-asan,,06,11.5275,122.085
aras-asan,,62,8.8908333,126.3033333
arasto,,37,11.0383333,124.9961111
aratoc,,56,7.3908333,124.3525
araya,,61,9.8,125.45
araya dilausan,,35,7.9072222,124.1802778
araya lumbayao,,35,7.9077778,124.2022222
arayat,,50,15.1508333,120.7730556
arbiat,,31,16.6422222,121.6111111
arbili,,04,11.7833333,122.2333333
arcangel,3470,04,11.5361111,122.3461111
arellano,,61,10.15,125.5
arenas,4108,50,15.1744444,120.6833333
areno norte,,36,16.5,120.45
areno sur,,36,16.5,120.45
arevalo,,37,11.3583333,124.3608333
arevalo,,C9,10.6852778,122.5163889
argao,,04,11.9147222,121.9475
argao,,21,9.8794444,123.5955556
argao,,38,13.55,121.8666667
argauanon,,21,11.05,123.9833333
argawanon,,21,11.05,123.9833333
argosino,,H2,14.0166667,122.1833333
aricomo,,39,12.4333333,123.7833333
arigi,,06,11.8647222,121.4394444
arimal,,47,15.8644444,120.9188889
ariman,,58,12.9166667,124.1166667
arimbay,,D5,13.1913889,123.7558333
aringay,29825,36,16.3963889,120.3591667
aringay,,57,7.1286111,124.8333333
aringin,,63,15.7713889,120.5822222
aripip,,32,18.0916667,121.3252778
ariquen,,37,11.4783333,124.5480556
aristog,,37,11.5497222,124.5886111
ariston,,51,16.0,120.6666667
aritao,7972,48,16.2983333,121.0408333
ariuan,,37,11.0666667,124.9666667
armena,,21,9.6666667,123.3333333
armenia,,21,9.6666667,123.3333333
armenia,3658,39,12.255,123.7411111
armenia,3468,63,15.4272222,120.5736111
arminia,,39,12.255,123.7411111
arnap,,29,17.6166667,120.45
arnedo,,51,16.3825,119.8816667
aroganga,,23,12.0483333,125.3925
aroganga,,67,12.5833333,125.0166667
aroio,,39,12.5111111,123.3977778
aroman,,57,7.2888889,124.7847222
aron,,21,10.6333333,124.0
aropag,,45,10.8666667,123.35
aropong,,10,16.3666667,120.6
aropong camp four,,10,16.3111111,120.62
aroro,,39,12.5111111,123.3977778
arorogon,,62,8.7841667,126.2886111
aroroy,,39,12.5111111,123.3977778
aroroy,,58,12.8166667,124.0
arpili,,21,10.4588889,123.6897222
arraal,,45,10.4166667,123.0333333
arrabal,,B7,10.3,123.8833333
arrado,,41,12.5313889,121.43
arrasasan,,62,8.8908333,126.3033333
arraval jagnaya,,18,11.3888889,122.5391667
artacho,,51,16.2,120.5166667
artadi,,43,8.9813889,125.1811111
arteche,5025,23,12.2672222,125.3708333
arteche,,55,11.8875,124.8308333
artuz,,18,11.3252778,122.4941667
arty subdivision,,B4,14.6825,120.9730556
arua-ay,,28,18.1666667,120.7166667
arubub,,10,16.5333333,120.6833333
arubub,,31,16.5419444,121.6841667
arumaha,,09,13.9266667,120.86
arumahan,,09,13.9266667,120.86
arupay,,40,12.3697222,121.1513889
arurogan,,62,8.7841667,126.2886111
arurugam,,62,8.7841667,126.2886111
arusip,,31,17.1038889,121.8375
arvarga,,28,18.6297222,120.8147222
arwab,,51,16.2666667,119.9666667
aryargo,,28,18.6297222,120.8147222
asa,,32,17.52,121.3147222
asabero,,40,13.85,120.1
asan,,51,16.15,120.5166667
asan,,H2,15.0411111,121.9891667
asan norte,,51,16.1666667,120.5166667
asan sur,,51,16.15,120.5166667
asassi,,14,17.9133333,121.7741667
ascension,,26,6.4836111,126.1038889
asdam,,15,14.0697222,122.8347222
asdum,,15,14.0697222,122.8347222
asgad,,23,11.1786111,125.6741667
asia,23547,H3,9.5516667,122.5175
asibanglan,,32,17.45,121.2833333
asid,,39,12.2680556,123.5422222
asiga,,32,17.6,121.2833333
asilang,,29,17.7,120.45
asilap,,48,16.5458333,121.21
asinan,,64,14.8833333,120.2166667
asin,,10,16.4366667,120.5091667
asin,,28,17.2833333,120.55
asin,3550,51,15.8333333,120.45
asin,,60,5.9205556,121.2475
asin boji,,31,17.3375,121.7875
asinga,,14,17.9,121.9833333
asingan,,51,16.005,120.6680556
asis,,09,13.8327778,121.0047222
asis,,20,14.1330556,120.9055556
asisig,,30,11.1166667,122.6666667
aslom,,04,11.8166667,122.4833333
aslom,,37,10.9666667,124.8666667
aslong,,16,13.7,123.0666667
asluman,,06,10.6333333,121.9763889
asluman,,37,11.6016667,124.5438889
aslum,,04,11.8166667,122.4833333
aslum,,37,10.7166667,125.0833333
aslun,,37,11.1677778,124.8847222
ason,,16,13.8816667,123.6397222
asong,,47,15.6666667,120.95
aspangi,,37,11.5922222,124.3961111
assace,,28,18.55,120.8166667
assantu,,31,17.2861111,121.8502778
assasi,,14,17.9133333,121.7741667
asset,,32,18.2333333,121.05
asta,,47,15.75,120.95
astorga,2702,18,11.2572222,122.7969444
astorga,10712,25,6.9072222,125.4558333
astorga,,30,10.9666667,122.5833333
astorga,,37,11.1541667,124.8597222
astorga,,55,11.6663889,124.7738889
asturias,7779,21,10.5672222,123.7161111
asturias,,60,6.05,121.0
asturias,,63,15.4702778,120.6597222
asuacan,,31,17.3333333,121.7833333
asue-pabriaga,,30,11.2666667,123.0333333
asuncion,,03,8.3086111,125.7136111
asuncion,,24,7.5341667,125.7666667
asuncion,,50,15.1,120.8166667
asuncion,,59,10.1338889,124.8613889
asung,,63,15.3666667,120.7
asuyan,,06,10.75,122.0166667
ata-atahon,,02,8.9833333,125.35
atabayan,2362,30,10.6833333,122.4166667
atabay,,06,10.535,121.9530556
atabay,,21,9.7025,123.5072222
atabay,,29,17.15,120.5333333
atabay,,30,10.8,122.4166667
atabay,,46,9.85,123.1166667
atabuy,,06,10.535,121.9530556
atainan,,51,15.8316667,120.4563889
atate,,47,15.5605556,121.0988889
atayao,,14,17.65,121.6333333
atbo,,48,16.15,120.95
atel,,51,15.8666667,119.9
atelong,,31,16.6119444,121.6136111
atemonan,,30,11.0533333,122.3611111
atencio,,63,15.7333333,120.5666667
atga,,A8,8.8433333,125.6902778
ati,,19,14.0666667,124.2166667
atic,,36,16.45,120.4333333
atimonan,,H2,13.9958333,121.905
atimon,,28,18.2,120.5833333
atin,,57,7.2602778,124.5997222
atindo,,63,15.3166667,120.7333333
atio,,36,16.45,120.4333333
atio,,57,7.2602778,124.5997222
atiotis,,06,10.5833333,122.0166667
atipolo,,18,11.4333333,122.6
atipolo,,37,11.5730556,124.3958333
atipolo,,67,12.5288889,125.0577778
atipuluan,3940,45,10.5111111,122.9541667
atipuluhan,,45,10.5111111,122.9541667
atlag,,13,14.8183333,120.825
atlubola,,50,15.2333333,120.5833333
atogan,,H2,14.0166667,122.35
atok,2092,10,16.5822222,120.6986111
atolinao,,H2,14.1333333,121.6
atong-atong,,22,6.6616667,121.8988889
atop-atop,2844,21,11.2316667,123.7608333
atos,,56,6.8558333,124.3908333
atotes,,46,9.7541667,123.0725
atrojillo,,67,12.45,124.5333333
attalimauan,,32,17.4833333,121.4833333
atulayan,6374,14,17.6313889,121.7238889
atulayan,,16,13.6,123.5166667
atulayan,,H2,14.7,121.9833333
atulut,,14,17.75,121.7333333
aturan,,38,13.4905556,121.975
atuyan,,59,10.35,125.1
auang,,05,13.3833333,123.7
auasan,,H2,13.2863889,122.5227778
auayan,,16,13.7447222,122.9922222
auile,,51,16.2708333,119.9872222
auitan,,31,17.4675,121.7972222
auiz,,30,10.8,122.3666667
aulo,,47,15.5333333,121.1
aumbay,3397,24,7.1,125.7833333
aundanao,,24,7.1166667,125.7833333
aupagan,,A8,8.8905556,125.555
aureliana,2172,06,10.8911111,121.9761111
aurellana,,06,10.8911111,121.9761111
aurora,2681,03,8.5930556,125.8375
aurora,4500,31,16.9919444,121.6372222
aurora,,37,11.3858333,124.3363889
aurora,3481,41,13.2311111,121.1219444
aurora,,54,12.4275,122.0558333
aurora,9157,66,7.9494444,123.5838889
aurora,16177,H2,13.3480556,122.5205556
aurora plateau,,66,7.9483333,123.5708333
australia,,31,16.8786111,121.5580556
austria,,51,15.7833333,120.3
auyan,,11,10.0991667,124.3072222
auyaoyao,,16,13.6333333,123.4833333
ava,,16,13.4833333,123.1
avancena,,71,6.5538889,124.8830556
avenzada,,30,10.8,122.3666667
avila,2349,30,10.6922222,122.7091667
awaan,,46,9.8722222,123.1458333
awa,,03,8.6422222,125.9072222
awa,,27,16.8086111,120.9961111
awag,,51,16.3186111,119.9425
awallan,2144,14,17.96,121.94
awan,,32,18.2666667,120.9833333
awang,,05,13.3833333,123.7
awang,8417,56,7.1530556,124.2211111
awasan,,H2,13.9333333,122.5166667
awayan,,16,13.7,123.0666667
awayan,,47,16.1019444,121.0394444
away,,15,14.1666667,122.8833333
awayon,,59,10.4908333,125.1816667
aweg,,51,16.3186111,119.9425
awihao,,G5,10.3666667,123.6333333
awijao,,11,9.7833333,124.0833333
awingan,,32,17.3,121.2333333
awis,,30,10.8,122.3666667
awitan,,15,14.2,122.85
ayaas,,H2,14.0333333,121.6
aya,2924,09,13.9,121.1166667
aya-aya,,34,8.35,124.3166667
ayabang,,30,10.8,122.3666667
ayagao,,16,13.7333333,123.7
ayahag,,59,10.2666667,125.1833333
ayala,,G7,6.9583333,121.9494444
ayala sugar central,,09,13.8666667,120.65
ayaman,,30,10.9027778,122.4925
ayam,,07,14.5208333,120.6072222
ayan,,16,13.5333333,123.2833333
ayangan,,27,16.9,121.2
ayangan,,30,10.65,122.6
ayaoan,,36,16.8125,120.3577778
ayaoiyao,,09,13.8833333,120.9166667
ayasan,,40,13.3833333,120.5
aya-son,,40,13.3833333,120.5
ayat,,39,12.1627778,123.2855556
ayogan,,16,13.5486111,123.3222222
ayom,,48,16.3666667,120.9333333
ayon,,24,7.1333333,125.9333333
ayon-dao,,41,13.355,121.0469444
ayong,,30,10.8666667,122.5
ayos lomboy,,47,15.7,120.7666667
ayson,,63,15.5888889,120.5597222
ayubo,,30,10.8,122.3333333
ayudante,,29,17.1683333,120.4452778
ayugan,2613,16,13.5486111,123.3222222
ayugon,,46,9.8602778,123.1475
ayung,,32,17.4666667,121.2
ayungon,,45,10.45,122.8333333
ayungon,,46,9.8602778,123.1475
ayuquitan,,46,9.4636111,123.2266667
ayuquitan viejo,,46,9.4166667,123.2333333
ayusan,3715,H2,14.0166667,121.4
ayusan norte,,29,17.5666667,120.3833333
ayusan sur,,29,17.5666667,120.3833333
ayutay,,06,10.7,122.0333333
ayuti,,H2,14.1166667,121.55
ayuyan,,30,11.1166667,122.6333333
ayzoan,,36,16.8125,120.3577778
azagra,4688,46,9.4833333,123.1475
azagra,,54,12.2786111,122.6291667
azarga,,54,12.2786111,122.6291667
azpetia,,03,8.6377778,125.9466667
azpitia,,03,8.6377778,125.9466667
azufre,,33,14.3794444,121.4075
azupre,,33,14.3794444,121.4075
ba-a,,24,7.7333333,126.0333333
baaba,,22,6.6730556,121.94
baac,,01,17.6,120.5666667
ba-ac,,30,11.0666667,122.6166667
baac,,32,17.5127778,121.3783333
baalingajili,,64,15.2833333,120.0333333
baanan,,33,14.1666667,121.4333333
ba-an,,48,16.3333333,120.9833333
ba-an,,A8,8.9572222,125.5622222
baang,,11,9.8,124.0166667
baang,,29,17.2375,120.5894444
baao,19613,16,13.4563889,123.3641667
baao,,H2,14.15,121.7
baasan,,41,12.7769444,121.4708333
baas,,21,10.3333333,123.95
baas,,37,10.3747222,124.7813889
baau,,B3,12.1538889,124.4530556
baauwan,,72,5.15,120.2833333
baayad,,49,10.8055556,121.0158333
ba-ayan,,36,16.55,120.6333333
ba-ay,,01,17.5463889,120.8744444
baay,,15,14.1,122.7333333
baay,,27,16.7833333,121.1
baay,3045,28,18.1230556,120.5794444
baay,,36,16.6166667,120.45
baay,,51,16.0166667,120.2166667
baay,,B3,12.1538889,124.4530556
bababing,,20,14.2027778,120.9361111
babaddi,,48,16.4166667,120.9333333
babag,,11,9.9658333,124.3247222
babag,3215,24,7.7311111,126.0708333
babag,,60,5.9166667,120.9166667
babag,,B7,10.3841667,123.8555556
babag,,D4,10.2833333,123.9472222
babagiohan,,12,8.2166667,124.65
babagonon,,41,13.1947222,121.2763889
babaguan,,19,13.9463889,124.3291667
babaingon,,37,11.4233333,124.8461111
babakayoar,,57,7.1130556,124.5544444
babak,,24,7.1363889,125.6875
babak,,25,6.5261111,125.5655556
babalag,,31,17.5238889,121.5866667
babalanga,,37,10.8833333,124.75
baballasioan,,29,17.3833333,120.5333333
babal-lasiuan,,29,17.3833333,120.5333333
babal-losa,,36,16.6666667,120.4
baban,,30,10.6705556,122.6686111
babancal,,64,15.6166667,119.9333333
babanga,,66,7.5333333,123.2666667
babangcal,,64,15.6166667,119.9333333
babang-talitay,,56,7.0666667,124.65
babantoon,,67,12.4166667,125.0333333
babaon,,H2,15.0288889,121.8783333
babasit,,51,16.0525,120.4733333
babatangon,,37,11.4233333,124.8461111
babatgon,,15,13.8333333,123.05
babatngon,,37,11.4233333,124.8461111
babatnin,,13,14.7666667,120.8333333
babato,,56,6.7561111,124.0425
babatuan,,13,14.9,121.1333333
babawan,,14,18.2163889,121.6547222
babayoan,,29,17.0833333,120.45
babayongan,,11,9.8166667,123.8
babayongan,,21,9.8219444,123.48
babayuan,,14,17.8166667,121.7166667
babayugan,,28,18.2333333,120.5666667
babba,,44,17.1833333,121.3333333
babbalag,,32,17.4166667,121.3
babiasan,,26,6.9008333,126.2738889
babiera,,45,10.95,123.4166667
babinag,,70,6.4333333,124.6666667
babing ilog,,13,14.7652778,120.9522222
babog,,24,7.9308333,126.0722222
babolosan,,67,12.5333333,125.0
babo-pangulu,,50,15.0833333,120.5166667
baboyan,,09,13.9833333,121.1
baboy,,11,10.1258333,124.3216667
baboy,,49,11.9233333,119.8797222
babuang,,48,16.3166667,120.95
babuqan,,49,9.9930556,118.8983333
babuyan,,07,14.4333333,120.5666667
babuyan,,09,13.9833333,121.1
babuyan,,33,14.1711111,121.1044444
babuyan,,49,9.9930556,118.8983333
babuyan,,51,15.8666667,120.0
babuyan,,62,9.3475,125.8983333
babuy,,C9,10.7166667,122.5666667
babuyon,,51,15.8666667,120.0
bacaba,,51,15.9788889,120.2191667
bacabaca,,49,8.2808333,117.2305556
bacabac,,51,15.9788889,120.2191667
bacabac,2190,63,15.7333333,120.4166667
bacabgan,,37,11.3666667,124.35
bacacao,,66,7.5794444,122.9180556
bacacay,,05,13.2947222,123.7933333
bacac,,19,13.9166667,124.3
bacagan,,14,17.9330556,121.8997222
bacagan,,39,12.1686111,123.8963889
bacag,,01,17.7222222,120.9069444
bacag,5509,51,15.93,120.5822222
bacak,,19,13.9536111,124.2836111
bacalan,2060,06,11.5475,122.0877778
bacalan,,66,7.8077778,122.6555556
bacal,,15,14.2705556,122.8502778
bacal,,47,15.5833333,120.9166667
bacalio,,51,15.8505556,120.2591667
bacaloa,,14,17.9141667,121.7227778
bacalod,,A2,10.6661111,122.95
bacalon,,39,12.8336111,123.8747222
bacan,,04,11.6144444,122.3333333
bacan,,30,10.8833333,122.4666667
bacane,,11,9.9702778,124.0466667
bacangan,,29,17.0666667,120.55
bacang,,11,9.9369444,123.945
bacan hacienda,,45,10.2166667,122.9333333
bacani,,11,9.9702778,124.0466667
bacao,,04,11.7180556,122.3780556
bacao,,09,13.7291667,121.23
bacao,,20,14.4066667,120.8819444
bacao,,47,15.5833333,121.1833333
bacao,,49,10.4502778,119.8061111
bacao,,66,7.5519444,123.0141667
bacaoc,,01,17.6666667,120.7833333
bacaolio,,51,15.8505556,120.2591667
bacaon-matampay,,56,7.2166667,124.3
bacaran,,49,10.8666667,121.05
bacaran,,66,7.9833333,123.35
bacari,,44,17.2666667,121.3666667
bacarra,9636,28,18.2533333,120.6136111
bacasahin,,12,7.9333333,124.7166667
bacasanon,,12,7.9333333,124.7166667
bacas,,55,11.9133333,124.4241667
bacat,,56,6.9494444,124.5455556
bacauan,,30,10.65,122.2333333
bacawan,,41,13.1272222,121.5430556
bacawan,,66,7.5975,123.3111111
bacayan,,11,10.0102778,124.0586111
bacayan,,B7,10.3863889,123.9211111
bacayao,,47,15.6666667,120.75
bacayao,,51,16.0,120.35
bacayaouan,,35,7.8591667,124.3744444
bacayauan,,23,11.3675,125.5958333
bacayawan,,23,11.3675,125.5958333
bacayawan,3234,35,7.7666667,124.2333333
bacayawan,,66,7.5302778,123.3747222
bacay,,30,10.7969444,122.7336111
baccuit,,14,17.8566667,121.7094444
baccuit,,36,16.5344444,120.3186111
bachao,,23,11.1,125.4336111
bachao,,37,11.3833333,124.4833333
bachao,,38,13.3083333,121.8563889
bachao,,55,11.5980556,124.7625
bachauan,,54,12.4666667,122.1061111
bachawan,,41,12.9308333,121.6897222
bachawan,,54,12.4666667,122.1061111
bachaw norte,,04,11.7180556,122.3780556
baciad,,21,11.1888889,123.9166667
bacjao,,23,11.0008333,125.6186111
bacjao,,30,10.7333333,122.7
bacjao,,55,11.9491667,124.3175
bacjauan norte,,30,11.2166667,123.1
bacjauan sur,,30,11.2166667,123.1
bacjawan,,41,12.9308333,121.6897222
backiling,,14,18.25,121.5666667
baclaran,,53,14.5319444,120.9941667
baclas,,09,13.9902778,120.8563889
baclayan,,06,11.1833333,122.0833333
baclayan,,30,10.8666667,122.5833333
baclayan,,55,11.5966667,124.8430556
baclayan,,56,7.15,124.2166667
baclay,,66,7.8772222,123.6102778
baclayon,,05,13.2833333,123.7833333
baclayon,,11,9.6263889,123.8941667
baclayon,,12,8.0144444,125.0063889
baclayon,,25,6.5841667,125.3694444
baclayon,,30,10.8666667,122.5833333
baclayon,,55,11.5966667,124.8430556
baclion,,12,8.0144444,125.0063889
baclungay,,48,16.3,120.95
bacnag,,61,9.6080556,125.6388889
bacnar,4606,51,15.8833333,120.3333333
bacnaton,,36,16.7222222,120.3525
bacnit,,17,9.1336111,124.7197222
bacnit,,51,16.0630556,119.9319444
bacnono,,51,15.8261111,120.4875
bacnor,2216,31,16.9833333,121.6333333
bacnotan,3142,36,16.7222222,120.3525
baco,,37,11.4125,124.4852778
baco,2903,41,13.3597222,121.0977778
bacog,,43,8.585,124.3755556
bacog,,47,15.3252778,121.0986111
bacol,,37,11.4,124.95
bacolod,,05,13.2705556,123.4430556
bacolod,,06,10.75,121.9333333
bacolod,,14,17.7872222,121.7322222
bacolod,,16,13.3166667,123.3166667
bacolod,,30,10.6666667,122.1666667
bacolod,,31,17.1686111,121.8686111
bacolod,5294,34,8.1166667,123.9166667
bacolod,,35,7.8575,124.1369444
bacolod,2773,39,12.2327778,123.505
bacolod,,43,9.0636111,125.1847222
bacolod,,56,7.3666667,124.2611111
bacolod,,58,12.7833333,124.0
bacolod,2171,62,8.9316667,126.2894444
bacolod,453954,A2,10.6661111,122.95
bacolod chico,,35,7.8575,124.1369444
bacolod chico,,E1,7.9894444,124.2816667
bacolod city,,A2,10.6661111,122.95
bacolod grande,,35,7.8575,124.1369444
bacolod hacienda,,45,10.5,123.0
bacolog,,43,9.0636111,125.1847222
bacolor,,50,15.0013889,120.6538889
bacon,,19,13.8591667,124.1391667
bacon,,35,7.9819444,124.2686111
bacon,5010,58,13.0377778,124.0411111
bacondao,,51,15.9166667,120.5
bacongan,,65,8.1505556,122.9261111
bacong,,05,13.1236111,123.4633333
bacong,,06,11.8436111,121.5213889
bacong,2287,11,9.7372222,124.5566667
bacong,,30,10.7166667,122.3
bacong,5091,46,9.2458333,123.2947222
bacong,,56,7.2111111,124.3263889
bacong,,71,6.1377778,124.3116667
bacongbacong,,38,13.2872222,121.8730556
bacong,,G8,15.7363889,121.5094444
bacong,,H2,13.65,122.2166667
bacong ibaba,,H2,13.6272222,122.2388889
bacooc,,01,17.6666667,120.7833333
bacoor,356987,20,14.4577778,120.9425
bacot,,36,16.6666667,120.5166667
bacoy,,03,8.09,125.8911111
bacquiaran,,55,11.6175,125.0125
bacqui,,36,16.75,120.3833333
bacradan,,31,16.6244444,121.6861111
bacring,,14,17.8258333,121.5983333
bacsan,,11,10.1,124.2333333
bacsayan,,29,17.0666667,120.4666667
bacsayan,,36,16.6833333,120.3833333
bacsay,,14,18.5241667,121.2283333
bacsay,,32,18.3333333,121.35
bacsay,2615,63,15.65,120.3333333
bacsay,,H3,10.3455556,123.0394444
bacsil,,28,18.0666667,120.6666667
bacsil,,29,17.7,120.45
bacsil,,36,16.6166667,120.3666667
bacsil,,51,16.15,119.8333333
bactacan,,16,13.6,122.8833333
bactad,,27,16.6338889,120.9705556
bactad,3610,51,15.9791667,120.6186111
bactad west,,51,15.9791667,120.6186111
bactalan,,14,18.0619444,121.5666667
bactan,,15,14.0952778,122.975
bactas,,15,14.0952778,122.975
bactas,,21,10.6944444,123.9886111
bactig,,F8,10.7688889,123.0605556
bactol,,D5,13.15,123.7166667
bacton,,41,13.2333333,121.1
bactul dos,,59,10.1333333,124.8333333
bactul uno,,59,10.1666667,124.8
bacuag,5420,61,9.6080556,125.6388889
bacubac,,55,11.2833333,125.0333333
bacud,,61,9.7741667,125.4725
bacuit,7801,49,11.1858333,119.3955556
baculin,2971,26,7.4525,126.5841667
baculin,,62,8.5194444,126.3386111
baculod,,14,17.9052778,121.6708333
baculod,,31,17.1686111,121.8686111
baculod,,62,8.9316667,126.2894444
baculongan,11742,10,16.8,120.8333333
baculong,3655,63,15.5341667,120.6375
baculud,,14,17.7872222,121.7322222
baculud,,35,7.8575,124.1369444
bacundao weste,,51,15.9166667,120.5
bacungan,,41,13.3238889,121.2636111
bacungan,3975,49,9.9105556,118.7022222
bacungan,3771,65,8.1505556,122.9261111
bacungan,,H2,13.8666667,122.3166667
bacungay,,41,13.3238889,121.2636111
bacuranan,,30,10.9,122.4333333
bacuyangan,7506,H3,9.6366667,122.4736111
bac-yang,,04,11.5405556,122.2530556
bacyaran,,55,11.6175,125.0125
bacyawan,,21,10.7,123.8666667
bada,,28,18.0758333,120.5975
badac,,29,17.15,120.6166667
badack,,56,6.8275,124.7547222
badajoz,,54,12.5666667,122.1333333
badak,,35,7.7333333,124.0166667
badak,6653,56,6.8275,124.7547222
badak,,70,6.5327778,124.8763889
badang,,06,10.7333333,121.9666667
bad-ang,,61,9.6352778,125.9197222
badao,,21,10.1833333,123.7166667
badao,,56,7.0877778,124.4341667
badap,,14,17.8833333,121.9127778
badas,,01,17.6833333,120.7333333
badas,,15,14.1166667,122.95
bad-as,,30,10.6833333,122.15
badas,,61,9.6327778,125.5708333
baday,,31,16.6469444,121.5058333
badbad,,11,9.8,123.8166667
badbaranan,,30,11.2333333,122.7608333
badebe,,57,7.15,124.8166667
badia,,14,18.3333333,121.6833333
badia,,22,6.3427778,122.0197222
badian,2706,05,13.0316667,123.3077778
badian,,11,9.6013889,124.235
badian,3613,21,9.8647222,123.3963889
badiangan,,04,11.5636111,122.3183333
badiangan,,06,10.6833333,122.0333333
badiangan,,30,10.9166667,122.5666667
badiang,,02,9.3344444,125.4919444
badiang,,06,10.75,121.9333333
badiang,,11,9.6013889,124.235
badiang,,21,11.1783333,123.9944444
badiang,,25,6.7741667,125.3777778
badiang,,30,10.8833333,122.6
badiang,,37,10.2027778,124.7913889
badiang,,39,12.2883333,123.6077778
badiang,,46,9.3,123.2
badiang,,58,12.5566667,123.9783333
badiang,,59,10.1333333,124.8166667
badiang daco,,37,11.1377778,124.4005556
badiango,,59,10.1333333,124.8166667
badiangon,,18,11.3922222,122.9386111
badiangon,,59,10.5,125.1833333
badiaugan,,30,11.0166667,122.5
badi,,16,13.7783333,122.7844444
badibadi,,56,7.1833333,124.2166667
badigan,,34,7.85,123.85
bading,,A8,8.9575,125.5252778
badio,,04,11.7333333,122.3166667
badio,,28,17.9538889,120.5119444
badio,,47,15.8666667,121.1333333
badio-laud,,28,17.9538889,120.5119444
badiongan,,56,7.5119444,124.3897222
badiong,,58,12.5566667,123.9783333
badlan,2041,30,11.1425,122.5155556
badlang,,30,11.1425,122.5155556
badlan grande,,30,11.1425,122.5155556
badlan pequeno,,30,11.1166667,122.5333333
badling,,39,12.2127778,123.8044444
bado,,30,11.1333333,122.4666667
badoc,4319,28,17.9277778,120.4747222
badognoy,,05,13.1666667,123.4166667
badok,,70,6.4808333,124.8825
badong,,62,8.95,126.0980556
badtasan,2174,70,6.0058333,124.6133333
baduang,,28,18.57,120.8086111
baduat,,32,17.9833333,121.2033333
baduios,,29,16.9166667,120.75
baduto,,29,16.9166667,120.75
badya,,22,6.5513889,122.1508333
badyang,,11,10.0488889,124.3252778
bae,,21,9.9833333,123.55
bae,,46,9.95,123.1833333
baecao,,30,10.7333333,122.7
baeng,,49,10.785,119.4463889
baesa,,B4,14.6630556,121.0097222
baetan,,29,17.5166667,120.4333333
baeto point,,40,13.5,120.65
bagaan,,66,7.5244444,122.4147222
bagaas,,40,12.2833333,121.1461111
bagaas,,45,10.3,122.9166667
bagaba,,46,9.1844444,123.1677778
baga,,51,16.05,120.75
baga,,66,7.77,123.3933333
baga,,E6,8.0988889,123.7580556
bagabag,,27,16.6166667,121.0166667
bagabag,,31,17.1166667,121.9333333
bagabag,24967,48,16.5,121.1833333
bagabangan,,65,8.1347222,122.8830556
bagabansalan,,39,12.5333333,123.6333333
bagabao,,37,11.3005556,124.4413889
bagabas,,B2,8.5141667,124.6388889
bagabonot,,16,13.8519444,122.8011111
bagacayan,,30,10.7166667,122.2666667
bagacay,,04,11.8,122.15
bagacay,,05,13.0666667,123.5833333
bagacay,,06,11.45,122.0666667
bagacay,3090,11,10.1666667,124.25
bagacay,,15,14.1833333,122.85
bagacay,2991,16,13.7772222,123.305
bagacay,,18,11.545,122.8130556
bagacay,,23,11.4958333,125.3394444
bagacay,,24,6.9025,125.71
bagacay,,30,10.7,122.35
bagacay,,37,10.8977778,124.9069444
bagacay,,38,13.2416667,121.9744444
bagacay,,39,12.2925,123.675
bagacay,,43,8.9833333,124.7833333
bagacay,,46,9.2,123.2666667
bagacay,,54,12.575,122.2597222
bagacay,,55,11.5997222,124.8163889
bagacay,3158,58,12.9886111,124.1411111
bagacay,,59,10.4175,125.1505556
bagacay,,69,9.2611111,123.5963889
bagacay,,B3,12.0666667,124.5833333
bagacay,,C5,9.3,123.3
bagacay,,D5,13.0744444,123.7616667
bagacay,,F8,10.7666667,123.0
bagacay,,G1,11.2544444,124.965
bagacay,,H2,13.9166667,122.25
bagacay catipohan,,11,9.8,123.7833333
bagacay cawayan,,11,9.8,123.7833333
bagacay east,,30,10.9,122.4333333
bagacayon,,46,10.0166667,123.1833333
bagacay saong,,11,9.8,123.7833333
bagacay west,,30,10.9,122.4333333
bagac,3969,07,14.5980556,120.3930556
bagaccay,,21,10.8,123.9333333
bagacy,,16,13.7772222,123.305
bagadion,,16,13.7,123.0666667
bagaen,,48,16.6,120.95
bagagnan,,16,13.8,122.9166667
bagaguimbal,,39,12.6166667,123.65
bagahanglad,2649,39,12.5941667,123.6694444
bagahanlad,,39,12.5941667,123.6694444
bagahupi,,37,11.3588889,124.9530556
bagakay,,21,10.1666667,123.65
bagakay,,37,11.3,124.3666667
bagakay,,38,13.2416667,121.9744444
bagakay,3136,E6,8.1386111,123.8044444
bagakay,,G1,11.2822222,124.9594444
bagalamatan,,66,7.5736111,122.8194444
bagalangit,,09,13.7091667,120.8808333
bagalayag,,58,12.9333333,123.8333333
bagalay,,01,17.6166667,120.7
bagalay,,19,13.8,124.4166667
bagalibas,,55,11.4,125.0
bagalinga,,21,10.7,124.0
bagalingo,,21,10.7,124.0
bagalnga,,21,10.7,124.0
bagalnga,,C1,10.5,123.9833333
bagalongon,,E4,11.1625,124.6111111
bagamanoc,,19,13.9408333,124.2858333
bagamilon,,16,13.6,123.0333333
baganainip,,64,15.25,120.3166667
bagan,2230,56,6.9255556,124.4202778
baganga,10106,26,7.5738889,126.56
baganga,,56,7.5213889,124.2522222
baganga,,66,7.5333333,123.2666667
bagang,,50,14.8833333,120.7
bagani,,29,17.2030556,120.4552778
baganito,,16,13.6,123.3166667
baganot,,16,13.8519444,122.8011111
bagaobauan,,05,13.235,124.0572222
bagaobawan,,05,13.235,124.0572222
bagapayong,,39,12.4588889,123.5163889
bagapuso,,16,13.4666667,123.15
bagara,,28,17.9833333,120.7
bagar,,29,17.2166667,120.45
bagasacay,,H2,13.555,122.5563889
bagasang,,62,9.3455556,125.9380556
bagasauc,,21,10.7652778,123.8377778
bagasaue,,21,10.7652778,123.8377778
bagasawe,,21,10.7652778,123.8377778
bagas,,16,13.8988889,123.8363889
bagas,,42,8.3497222,123.7794444
bagasbas,,15,14.1383333,122.9794444
bagasico,,39,12.6333333,123.6666667
bagatoon,,E4,11.1633333,124.6280556
bagaubauan,,05,13.1833333,124.1166667
bagawang,,19,14.0341667,124.1733333
bagay,,14,17.6269444,121.7008333
bagay,4977,21,11.195,124.0361111
bagay,,30,10.75,122.2166667
bagaycay,,16,13.725,123.4583333
bagbacay,,37,11.2477778,124.4691667
bagbag,,09,13.8,121.4333333
bagbag,,20,14.4166667,120.85
bagbag,,28,18.1166667,120.75
bagbag,,36,16.4666667,120.35
bagbag,,53,14.6963889,121.0313889
bagbag este,,36,16.4666667,120.35
bagbago,,28,18.0833333,120.7333333
bagbag oeste,,36,16.4666667,120.3333333
bagbagotot,,29,17.2333333,120.4833333
bagbaguin,,13,14.7166667,121.0
bagbaguin,,B4,14.65,120.9666667
bagbag west,,36,16.4666667,120.3333333
bagbakan,,71,6.6447222,124.08
bagcay town,,30,11.3483333,123.1066667
bagea,,58,12.8261111,123.8147222
baggao,,14,17.9341667,121.7755556
baghari,,06,11.2027778,122.0666667
bagho,,31,17.0077778,121.6655556
bagianga,,02,9.3344444,125.4919444
bagiangon,,56,7.5119444,124.3897222
bagigon,,34,7.6972222,123.8283333
bagimbing,,48,16.6,120.9833333
bagingon,,16,13.6333333,122.8333333
bagja,,16,13.5833333,122.9166667
baglamatan,,66,7.5736111,122.8194444
baglanan,,12,8.0763889,124.76
baglos,,H2,14.7666667,121.6166667
bagna,,13,14.8166667,120.8166667
bagna,,45,10.5072222,122.8394444
bagna caves,,16,13.7722222,122.8266667
bagnen,,44,17.0327778,120.8913889
bagnon,,16,13.7372222,122.835
bagnor,,31,17.0308333,121.7044444
bagnos,,31,16.8066667,121.6316667
bago-aplaya,,C3,7.045,125.5333333
bago,,09,13.8,121.1
bago,,18,11.52,122.7788889
bago,,21,10.6494444,123.7794444
bago,,25,5.9752778,125.6369444
bago,,28,18.3438889,120.73
bago,,36,10.75,122.5
bago,,37,10.3333333,124.7833333
bago,,47,15.4094444,121.0919444
bago,,58,12.655,123.8966667
bago,76721,A3,10.5377778,122.8333333
bago,,C3,7.0430556,125.4730556
bago,,F3,11.5827778,122.7483333
bago bantay,,53,14.6625,121.04
bagoboso,,16,13.4666667,123.15
bagobuso,,16,13.4666667,123.15
bagochiquita,,18,11.5305556,122.7841667
bago-chiquito,,18,11.5305556,122.7841667
bago city,,A3,10.5377778,122.8333333
bago-enged,,70,6.2,125.0
bago-grande,,18,11.52,122.7788889
bagoinged,,56,7.0138889,124.7163889
bago-inged,,56,7.0666667,124.65
bagoingod,,56,7.4852778,124.3330556
bago-ingud,,35,8.0177778,124.1694444
bago ingud,,56,7.5333333,124.3666667
bago-inigo,,C3,7.0480556,125.5213889
bagokoy,,40,12.2,121.0666667
bagoladio,,16,13.4666667,123.2666667
bagolatao,,16,13.4666667,123.15
bagolayoco,,54,12.4,121.95
bagol,,45,10.2825,122.8883333
bagolibas,,55,11.4,125.0
bagolig,,36,16.6333333,120.4166667
bagombayan,,06,11.7333333,122.0833333
bagombayan,,30,10.8333333,122.5333333
bagombong,,16,13.5325,123.1941667
bagombong,,30,11.0666667,122.6166667
bagombong,,53,14.3422222,121.3775
bagon,,13,14.9,120.95
bagon,,55,11.5866667,124.9869444
bagonbanua island,,11,10.05,123.9
bagonbayan,,05,13.45,123.6666667
bagonbon,,11,9.6166667,123.9166667
bagonbong,,16,13.5325,123.1941667
bagongabong,,30,10.95,122.6666667
bagong,,13,14.9,120.95
bagong,,31,16.9869444,121.6144444
bagong,,34,7.8847222,123.8002778
bagong,,56,6.9052778,124.4522222
bagong,,66,7.8205556,123.3222222
bagong,,67,12.5108333,124.4602778
bagong,,E4,11.05,124.6166667
bagong baluarte,,A9,15.4727778,121.0236111
bagongbanua island,,11,10.05,123.9
bagong barrio,,04,11.7166667,122.2833333
bagong barrio,4205,13,14.9,120.95
bag-ong-barrio,,18,11.25,122.3833333
bagong barrio,,B4,14.65,120.9666667
bagongbayan,,09,14.0666667,121.1166667
bagong bayan,,13,14.85,120.8166667
bagongbayan,,33,14.2677778,121.3983333
bagong bayan,,47,15.8,120.9833333
bagong bayan,,49,10.4452778,119.6255556
bagongbayan,,53,14.5211111,121.1522222
bagongbong,,16,13.5325,123.1941667
bagongbong,,30,10.9583333,122.6708333
bagong cambangay,,11,10.0061111,124.3447222
bagong ilog,,53,14.5625,121.0694444
bagong katipunan,,53,14.55,121.0666667
bagong mandawe,,66,7.9461111,123.5569444
bagong misamis,,66,7.7236111,123.4525
bagongonan,,H2,14.1833333,122.25
bagongon,,55,11.8022222,124.7027778
bagong oroquite,,66,7.7213889,123.2913889
bag-ong pardo,,34,7.9,123.8833333
bagongpooc,,09,13.8375,121.1855556
bagongpooc,,D6,13.9333333,121.1
bagongpook,,09,13.8375,121.1855556
bagong pook,,41,13.3875,121.2133333
bagong sicat,,47,15.4802778,121.3066667
bagong sikat,5468,40,12.3677778,121.0633333
bagong-sikat,,47,15.7333333,121.0333333
bagong sikat,2665,47,15.4802778,121.3066667
bagong sikat,,A9,15.5216667,121.0236111
bagong silang,,A9,15.6833333,121.0833333
bagong silang,,H2,13.95,122.2833333
bagong silao,,66,7.7247222,123.4633333
bagongsirang,,16,13.7333333,123.5166667
bagongsirang,,58,12.95,123.9
bagong tanza,2404,31,16.9869444,121.6144444
bagong tapay,,57,6.9152778,124.8591667
bagong tubig,,09,13.8413889,120.9216667
bagong-tubig,,09,13.9166667,120.8
bagong tudela,,66,8.1908333,123.4725
bagontapay,6747,57,6.8588889,124.9088889
bagontubig,,09,13.9166667,120.8
bagorebas,,57,7.105,124.5602778
bagouahan,,58,12.9166667,124.0666667
bagroy,2361,45,10.2025,122.9355556
bagsa,,05,13.2663889,123.5108333
bagsac,,72,5.0,120.0
bagsagan,,58,12.7166667,124.0333333
bagsag,,25,5.7994444,125.5097222
bagsak,,24,7.0375,125.7216667
bagsak,,25,6.4727778,125.5766667
bagsak,,60,5.8952778,120.9330556
bagsak,,72,5.0,120.0
bagsanan,,29,17.7033333,120.4252778
bagsangan,,58,12.7166667,124.0333333
bagsay,,37,11.4,124.3833333
bagsit,,64,15.3977778,119.9347222
bagsulay,,11,9.5994444,124.1222222
bagtangan,,10,16.75,120.75
bagtasan,,06,11.0030556,122.0830556
bagtason,,06,11.0030556,122.0830556
bagtayan,,32,17.4,121.1333333
bagtiag,,13,14.9080556,120.7769444
bagtiao,,13,14.9080556,120.7769444
bagtic,,21,10.9044444,123.9377778
bagtic,3835,46,9.6972222,123.0094444
bagtig,,F8,10.7688889,123.0605556
bagtikan,,59,10.15,124.8833333
bagtik,,21,10.6,123.7833333
bagtik,,46,9.6972222,123.0094444
bagting,19206,47,15.5541667,121.2472222
bagtingon,,16,13.6333333,122.8333333
bagtingon,,38,13.2861111,121.9380556
bagto,,04,11.7,122.3166667
bagto,,54,12.2361111,122.0238889
bagto,,61,9.2169444,125.5661111
bagtong,,23,11.1402778,125.6761111
bagua,,23,11.0308333,125.7658333
bagua,,56,7.15,124.2166667
bagua,,B8,7.2166667,124.2333333
bagua-ingud,,35,7.9333333,124.3833333
baguan,,32,17.45,121.3166667
baguan,,72,6.1,118.45
baguang,,32,17.5666667,121.2166667
baguang,,44,17.1666667,121.05
bagu,,10,16.8333333,120.6666667
bagu,2120,14,18.4227778,121.3583333
bagubantay,,53,14.6625,121.04
bagubay,,H2,14.0833333,121.8166667
baguer,3228,57,7.2561111,124.5041667
baguhan,,11,10.0,124.1666667
baguiad,,37,11.35,124.35
baguiad,,39,12.5166667,123.65
baguianga,,02,9.3344444,125.4919444
baguiangan,,35,7.5569444,124.1288889
baguiang,,56,6.7525,124.7922222
baguier,,57,7.2408333,124.3694444
baguilaua,,09,13.7933333,120.9552778
baguilawa,,09,13.7933333,120.9552778
baguilingued,,56,7.0394444,124.7116667
baguinay,,51,16.05,120.4833333
baguinbin,,37,10.9811111,124.4133333
baguingay,,27,16.7483333,121.0894444
baguinge,2078,27,16.7838889,121.1130556
baguingin,,30,10.6833333,122.4
bagu-ingud,,35,8.0177778,124.1694444
baguio,,25,7.3402778,125.3338889
baguio,272732,A4,16.4163889,120.5930556
baguio,,C3,7.1725,125.4011111
baguio,,H2,14.0333333,121.5833333
baguio city,,A4,16.4163889,120.5930556
baguiongan,,35,7.5372222,124.1252778
baguitan,,66,7.7727778,123.3263889
bagulaizo,,16,13.45,123.15
bagulangsang,,37,11.5022222,124.2941667
bagulansang,,37,11.5022222,124.2941667
bagulayag,,54,12.3952778,121.9511111
bagulayag,,H2,13.4666667,122.4166667
bagulin,,36,16.6083333,120.4394444
bagumbang,,42,8.0347222,123.6513889
bagumbayan,2990,05,13.45,123.6666667
bagumbayan,,06,10.5,121.95
bagumbayan,,07,14.6666667,120.5666667
bagumbayan,,13,14.7833333,120.8666667
bagumbayan,2163,14,18.1908333,121.665
bagumbayan,2095,16,13.4563889,123.4072222
bagumbayan,,30,10.5833333,122.1
bagumbayan,,33,14.2677778,121.3983333
bagumbayan,,37,10.3833333,124.75
bagumbayan,2577,45,10.45,122.85
bagumbayan,,53,14.4830556,121.0608333
bagumbayan,,56,6.7736111,124.6686111
bagumbayan,,71,6.5375,124.5625
bagumbayan,,B4,14.65,120.95
bagumbayan,,E2,13.6166667,123.1666667
bagumbayan,,H2,14.7166667,121.6166667
bagumbay,,45,10.4561111,122.8544444
bagumbayon,,11,9.6583333,124.0447222
bagumbong,,13,14.7791667,121.0386111
bagumbong,2984,53,14.3422222,121.3775
bagumbungan ibaba,,H2,13.9666667,121.6833333
bagumbungan ilaya,,H2,13.9666667,121.6833333
bagunana,,45,10.4166667,122.8666667
bagunanay,,30,10.7666667,122.3166667
bagunaua,,45,10.4166667,122.8666667
bagun banga,,60,5.9158333,121.1097222
bagunot,,14,17.9475,121.7716667
bagunsikat,,47,15.7333333,121.0333333
bagunta-as,,12,7.95,125.1
baguntubig,,09,13.8413889,120.9216667
bagunut,,14,17.9475,121.7716667
bagupaye,2578,H2,13.5397222,122.4219444
bagutari,,31,17.4333333,121.7666667
bagut,,28,18.1333333,120.7
bagutong,,32,18.2333333,121.4166667
bagutot,,36,16.7166667,120.3666667
bagvilava,,09,13.7933333,120.9552778
bagwang,,44,17.1666667,121.05
baha,,09,13.875,120.7044444
baha,,66,7.5841667,123.2941667
baha,,B3,12.1586111,124.5633333
bahabaha,,11,10.1402778,124.3769444
bahac-bahac,,E3,14.8333333,120.2833333
bahan,,11,9.9333333,124.1166667
bahao,,16,13.6441667,122.8355556
bahao,,62,8.9880556,126.1541667
bahay,2501,16,13.5402778,123.0319444
bahay,,21,10.0044444,123.6163889
bahay,,23,12.15,125.4333333
bahay,,37,11.1227778,124.8616667
bahay,,45,10.1,122.8833333
bahay,,55,11.9227778,124.83
bahay,,59,10.0933333,125.2266667
bahaybahay,,11,9.7166667,123.9833333
bahay,,H2,13.4519444,122.6419444
bahaybare,,13,14.7333333,120.9666667
bahay nayon,,38,13.35,122.05
bahay pare,,13,14.7333333,120.9666667
bahay pare,9726,50,15.0322222,120.8833333
bahay pary,,50,15.0322222,120.8833333
bahaytoro,,53,14.6666667,121.0333333
bahay toro,,53,14.6708333,121.0341667
bah-bah,,03,8.6072222,125.9144444
baheli,,49,9.9913889,118.7836111
bahet,,29,17.6166667,120.3833333
bahian,,11,9.65,124.0333333
bahian,,67,12.35,125.0833333
bahi,,11,9.6158333,123.9441667
bahi,,16,13.8866667,123.6294444
bahi,,38,13.3725,121.8269444
bahi,,62,8.5108333,126.0438889
bahid,,55,11.5152778,125.1266667
bahiguhay,,37,11.2833333,124.7
bahile,2255,49,9.9913889,118.7836111
bahinga,,30,11.0230556,122.6983333
bahisan,,03,8.3761111,126.0047222
bahit,,18,11.4891667,122.7627778
bahoy,,E4,11.1569444,124.4825
bahuan,,40,13.4,120.4666667
bahugan,,12,8.0758333,124.6613889
bahuyan,,06,11.1855556,122.0352778
bahyan,,10,16.5166667,120.6166667
bai,,01,17.735,120.7469444
bai,,32,17.2502778,121.3575
baikingon,2164,43,8.4722222,124.5536111
bailan,2885,18,11.4611111,122.8277778
bailan,,39,12.2666667,123.7166667
bailan,,61,9.9838889,126.0572222
bailat,,70,5.9430556,125.0952778
baila-uwak,,60,5.9366667,121.3372222
bail,,32,17.3,121.2333333
bail,2120,36,16.2666667,120.35
bailen,,20,14.1841667,120.7958333
bailon,,54,12.5061111,122.0916667
bailong,,70,5.9830556,124.6480556
bairan,,21,10.1994444,123.7266667
bairan,,30,11.2666667,123.0333333
ba-iran,,35,7.8,124.2166667
bairan,,37,11.2586111,124.8141667
bairan,,45,10.7166667,123.4666667
bairan,,46,10.3666667,123.3
bairan,,H3,10.7952778,123.4125
bairao,,H3,10.7952778,123.4125
bais,,29,16.8833333,120.55
bais,,30,10.7666667,122.2416667
bais,65594,46,9.5911111,123.1227778
bais city,,46,9.5911111,123.1227778
bai sirafmang,,70,6.4402778,124.6269444
baisong,,H2,13.9077778,121.8566667
bait bait,,60,6.0038889,121.4022222
bait-bait,,60,6.2966667,120.5819444
baja,,09,13.875,120.7044444
bajao,,62,8.9880556,126.1541667
bajay,,55,12.0786111,124.7116667
baj,,32,17.2502778,121.3575
baje,,30,10.7833333,122.3833333
baje san julian,,30,11.1166667,122.6166667
baje san nicolas,,30,11.1269444,122.5680556
bajo,,18,11.2188889,122.8338889
bajo,,30,11.25,123.0166667
bajo,,64,15.3144444,120.0261111
bajoian,,06,11.1855556,122.0352778
bajojan,,06,11.1855556,122.0352778
bajucan,,26,6.8972222,126.1525
bajungpandan,,C5,9.3,123.3
bajuyan,,06,11.1855556,122.0352778
baka,2404,56,7.2761111,124.2641667
bakag,,01,17.7222222,120.9069444
bakaid,,15,14.15,122.8333333
bakalan,,66,7.8077778,122.6555556
bakal,,15,14.2705556,122.8502778
bakal,,47,15.7,120.9
bakao,,H2,13.3355556,122.6141667
bakari,,44,17.2666667,121.3666667
bakat,,56,6.9925,124.5177778
bakat,,57,7.1833333,124.5333333
bakayan,,B7,10.3863889,123.9211111
bakayawan,,35,7.7666667,124.2333333
bakhao,,04,11.7180556,122.3780556
bakhao,,30,10.7333333,122.7
bakhauan,,21,11.2061111,123.9641667
bakhawan,2661,21,11.2061111,123.9641667
bakhawan,,41,12.9308333,121.6897222
bakhaw,,04,11.7180556,122.3780556
bakhaw,,15,14.1166667,122.9666667
bakhaw,,38,13.3083333,121.8563889
bakhaw,,55,11.9491667,124.3175
bakia,,33,14.15,121.4666667
bakiad,,15,14.15,122.8333333
