names,population,state_code,lat,lon
aamba,,02,0.7666667,20.7166667
aba,,09,3.8666667,30.2333333
ababi,,00,2.9,23.1333333
abaka,,00,2.95,25.9833333
abakodu,,09,2.5,28.5166667
abakuasimbo,,09,0.6,28.7166667
abakuba,,00,2.6,28.2666667
abakwasimbo,,09,0.6,28.7166667
abanengo,,00,2.6833333,27.7666667
abango,,00,2.6833333,27.7666667
abanusi,,00,3.45,28.0833333
abasani,,11,-1.1333333,27.15
abati,,00,2.6333333,27.8166667
abaye,,07,-1.3,28.9333333
abdallah,,00,4.4333333,27.3666667
abebekombo,,00,2.15,28.0166667
abelkoso,,09,1.8833333,30.0666667
abia,,09,0.8666667,29.6666667
abiana,,11,-0.0666667,27.8333333
abianonzi,,00,2.6666667,26.3166667
abiengama,,00,1.8333333,27.5
abiengama ii,,09,1.8833333,27.4333333
abiengbali,,00,2.4166667,27.9166667
abimba,,10,-4.35,27.1833333
abini,,00,2.2833333,27.55
abira,,09,2.0833333,31.1166667
abo,,00,3.2166667,30.2166667
aboboya,,00,2.6833333,29.35
abogandra,,00,2.6166667,26.8166667
abogo-dodu,,09,3.8166667,30.3666667
abogwomado,,09,2.5,26.3
abogwomadu,,09,2.5,26.3
abokwasimbe,,09,0.6,28.7166667
abongisia,,09,0.2044444,25.5947222
aborokpuyo,,09,4.3333333,28.85
abuki,,10,-2.55,26.6
abula,,00,3.5166667,25.9666667
abu mombasi,,00,3.7,22.1666667
abumombazi,,00,3.7,22.1666667
abumonbazi,,00,3.7,22.1666667
abusa,,00,2.0666667,27.6666667
abuti,,09,2.2666667,30.1166667
adaboro,,00,3.1666667,30.6333333
adala,,00,4.4333333,27.3666667
adama,,00,4.7833333,24.5833333
adau,,09,3.7,30.35
adeko,,00,2.8833333,30.7333333
adetere,,00,2.75,30.5333333
adia,,00,2.8333333,30.7166667
adi,,00,3.4,30.8
adidiema,,00,-4.2333333,23.75
adima,,00,2.5333333,28.0166667
adjauru,,00,2.6166667,26.1833333
adjayo,,00,2.9833333,26.15
adjoda,,09,2.2666667,30.95
ado,,09,-1.1166667,25.95
adomi,,00,3.2,30.5166667
adoria,,00,2.9666667,30.5666667
adranga,,00,2.9166667,29.9666667
adunandra,,00,3.4666667,27.6
adupa,,00,2.9333333,23.55
adupai,,00,2.9333333,23.55
adupay,,00,2.9333333,23.55
adusa,,00,1.3833333,28.0166667
adzapana,,09,1.9,28.9333333
adziba,,00,2.0166667,27.7666667
adzuani,,00,3.15,30.8
adzuma,,00,2.5166667,28.2833333
adzuna,,00,2.5166667,28.2833333
afakituru,,09,-0.1666667,24.0833333
agameto,,00,3.25,25.0833333
agbana,,00,2.5833333,27.9333333
agbau,,00,2.2166667,28.2
agbole,,00,3.05,23.35
agbua,,00,2.2166667,28.2
agekiana,,00,2.6666667,25.9166667
aginaso,,00,3.35,29.4
aginda,,00,2.8166667,28.7166667
agoro,,00,3.0833333,27.8333333
agrimafe,,01,-2.8666667,16.85
agubu,,00,3.15,29.4333333
agwa,,02,4.9666667,19.55
agwala,,00,2.7666667,27.4833333
agwetambi,,09,1.6833333,24.0666667
ahiro,,00,3.8666667,23.6833333
ainga,,09,-0.7666667,25.95
aisa,,11,-1.6,26.5833333
akabati,,00,3.85,23.6833333
akambwa,,00,3.85,22.9666667
akangai,,00,3.4166667,23.9166667
akangula,,00,-3.4666667,24.1833333
akasongo,,00,2.4333333,27.7166667
akau,,00,-2.3666667,23.1
akavu,,00,-2.3666667,23.1
akaya,,03,-4.6833333,23.6
akbata,,09,1.75,29.05
akei,,00,3.1166667,30.6666667
akengei,,00,2.9333333,26.8333333
aketi,,00,2.7333333,23.7666667
akili,,00,2.85,26.8333333
akoka,,00,-3.6166667,23.6333333
akokora,,09,1.7,29.0666667
akombe,,00,-4.2,24.3166667
akombi,,00,2.5333333,28.25
akpali,,00,2.45,28.1166667
akpome,,00,3.0666667,25.95
akula,,00,2.3666667,20.1833333
akulekpio,,00,4.7333333,25.6666667
akuma,,09,2.0666667,25.6833333
akumbu,,00,-2.3666667,22.7333333
akunvula,,00,-3.4666667,24.1833333
akva,,00,3.45,29.4166667
akwa,,09,2.0833333,30.1333333
akwe,,09,2.0833333,30.1333333
ala,,00,3.3333333,30.4666667
alafu,,09,0.7333333,29.1833333
alalu,,09,0.7333333,29.2333333
alambi,,09,2.1166667,28.8166667
alatshu,,09,-1.1166667,25.4666667
alberta,,02,2.2,22.35
albertstad,,05,-5.9333333,29.2
albertville,,05,-5.9333333,29.2
ale,,00,3.1666667,30.8
alebert,,12,-4.5772222,28.7847222
alembe,,00,-2.7833333,24.1166667
ali,,00,3.25,30.6166667
ali,,09,3.6333333,30.2
alifi,,09,3.7166667,29.6333333
aligo,,00,3.1,27.4333333
aligo,,09,4.4166667,28.9833333
alikolo,,00,2.75,27.3166667
alilia,,09,-0.7666667,25.0333333
alimasi,,09,-0.8333333,24.95
alimasi,,10,-1.7833333,26.1833333
alimba,,12,-2.8166667,27.2166667
alimbongo,,11,-0.3666667,29.15
ali moia,,05,-5.0,28.7833333
ali moya,,05,-5.0,28.7833333
alipago,,00,3.5666667,25.7333333
alipaye,,00,3.5666667,25.7333333
alipei,,00,3.5666667,25.7333333
aliposo,,09,-0.7,25.1166667
alira,,00,2.8166667,26.7333333
alize,,00,3.1333333,30.4333333
alo,,00,3.25,30.5333333
aloi,,11,0.5,29.15
alokwa,,09,3.6666667,29.85
alombi,,11,-1.1333333,27.1166667
alomo,,00,3.2,30.2666667
alonga,,10,-2.5166667,26.4333333
alongane,,00,3.5,23.2166667
alosi,,09,1.75,30.0666667
alubati,,12,-3.75,27.0333333
aluma,,09,0.4,26.3166667
alumba,,10,-2.9666667,24.9666667
alungba,,00,2.5666667,30.3333333
aluta,,09,-1.2333333,26.2333333
ama,,09,2.4666667,30.6333333
amabakumbu,,09,0.8333333,29.2333333
amabidi,,11,-1.5,26.5333333
amadi,,00,3.5833333,26.7833333
amaki,,00,3.0166667,26.1166667
amakibubu,,09,-0.3166667,25.5166667
amakonzi,,00,3.2833333,29.8833333
amalue,,00,2.7833333,27.5333333
amalutu,,09,1.0166667,29.1833333
amamula,,11,-0.3,27.8333333
amandjuju,,09,2.5,23.5
amasindrenie,,09,2.2833333,27.3166667
amasunga,,11,-1.1333333,27.0
amasungi,,11,-1.0833333,27.0
amatshilungu,,09,-0.1833333,25.7
amba,,00,2.8166667,22.8333333
amba,,10,-4.25,26.4833333
ambaka,,00,2.3333333,27.8
ambaki,,09,2.2333333,31.1166667
ambalo,,00,3.8,22.6166667
ambalu,,00,3.8,22.6166667
amba matala,,10,-4.2666667,26.4833333
ambarao,,00,3.1666667,29.7333333
ambarau,,00,3.1666667,29.7333333
ambimi,,00,3.2833333,30.0
ambisi,,00,2.6,30.7
ambo,,00,3.59,30.7841667
ambo,,09,2.3166667,30.4166667
amboma,,00,4.0,22.5333333
ambonga,,00,2.8333333,23.6333333
ambuma,,00,3.2333333,20.75
ambuma,,02,3.4666667,18.7666667
ambuma-moke,,02,3.4666667,18.7666667
ambura i,,01,-4.3833333,18.7333333
amehele,,11,-0.1166667,27.7166667
amekupi,,10,-2.7833333,26.65
amemete,,11,-0.1166667,27.7166667
amenete,,11,-0.1166667,27.7166667
ameta,,09,3.5833333,27.9833333
amishi,,05,-5.8,29.1333333
amisi,,09,0.1352778,25.5369444
amolia,,00,3.0166667,26.2
amongo,,09,-1.2666667,24.1166667
amonietau,,00,2.8333333,25.9333333
amosa,,00,2.9333333,26.4833333
amoti,,09,1.5166667,25.0833333
amuapa,,00,2.3833333,27.5333333
amuladi,,10,-4.3833333,27.0833333
amundero,,00,3.0,26.2
amungini,,10,-4.1166667,27.4
amusini,,10,-4.1333333,27.4166667
ana,,00,3.4833333,30.2
ana bangu,,00,-7.8,22.6666667
anapuno,,00,2.3333333,27.7166667
ancien beni,,11,0.4333333,29.55
andagone,,00,2.6333333,27.9333333
andalumo,,00,2.8166667,30.0
andata,,09,3.8166667,30.05
andekwakwa,,09,1.3333333,29.1666667
andengu,,00,2.65,28.7333333
andia,,00,2.5666667,23.5833333
andi-kenopi,,00,2.95,28.8833333
andikoi,,00,2.6166667,28.7833333
andima,,00,2.5333333,28.0166667
andiri,,00,3.3666667,30.2666667
andisa,,09,1.9833333,29.9833333
andjamango,,00,2.6666667,27.4833333
andoga,,00,2.55,29.9833333
andrima,,00,2.5333333,28.0166667
andudu,,09,2.4833333,28.6833333
anga,,00,-3.1166667,21.5666667
angako,,00,3.0833333,30.5333333
angaku,,00,2.9666667,30.5333333
angali,,00,2.1833333,28.0333333
angama,,00,3.6166667,22.6333333
angamapasa,,11,0.05,27.55
angelengwe,,09,0.1666667,27.4166667
angelos poulos,,12,-3.35,28.0333333
angemapasa,,11,0.05,27.55
angenga,,02,2.2833333,21.4833333
angilia,,00,3.1333333,30.6833333
angise-bamea,,00,2.5666667,23.8833333
ango,,00,4.0333333,25.8666667
ango ango,,08,-5.85,13.4333333
angodepala,,09,4.3,28.5333333
angodia,,00,3.5166667,25.7833333
angodra,,00,3.3166667,30.1333333
angonabasulu,,09,4.45,28.9
angoro,,00,2.2166667,28.1666667
angu,,00,3.55,24.4666667
angukulu,,00,1.6666667,27.5333333
angumu,,11,-0.1166667,27.7
angumu etat,,11,-0.1166667,27.7
angwandi,,09,3.55,29.75
ania,,00,3.3333333,30.7833333
aniakanane,,00,2.2,27.85
aniasu,,09,3.5833333,27.6
anilengbe,,09,4.4333333,28.9666667
aniozo,,09,1.4166667,30.1333333
aniza,,00,4.3833333,25.7833333
anjenje,,09,0.6333333,26.0666667
ankandja,,00,-2.4166667,23.7
ankoro,,00,-6.75,26.95
anotane,,00,2.2,27.6666667
anotano,,00,2.2,27.6666667
anyinga,,00,-8.55,23.05
anzaboa,,00,2.0666667,27.7666667
anzabowa,,00,2.0666667,27.7666667
anzani,,00,2.65,25.7666667
anzeu,,00,2.7666667,28.5333333
anzi,,00,-0.8666667,23.4
aola,,09,3.9666667,29.8333333
aosane,,09,2.4333333,27.3
apala,,09,2.0,31.0166667
apalata,,00,2.8166667,23.7166667
apawanta,,09,1.3666667,29.6333333
apenraniako,,00,2.9333333,30.5833333
apepo,,00,2.1666667,27.5333333
api,,00,3.6666667,25.4333333
apindu,,00,4.0333333,22.5166667
apodo,,00,2.6,28.6333333
aponza,,00,3.2666667,25.5666667
aposo,,00,3.5166667,26.0833333
apowa,,09,2.1166667,30.2166667
apukfu,,00,-3.2166667,22.3166667
ara,,00,3.3166667,30.5833333
ara,,09,2.0166667,31.0333333
araba,,00,2.8833333,30.8833333
arabi,,09,1.8833333,28.5666667
arama,,09,3.5833333,28.9833333
arara,,00,3.1833333,30.8
aria,,00,3.0,30.6333333
aribado,,00,3.4,30.5666667
arigako,,00,3.2333333,30.4666667
arua,,00,2.8833333,30.4166667
aru,,00,2.8666667,30.85
arulama,,00,1.7833333,28.4333333
arumva,,00,3.2833333,30.8666667
asa,,00,4.5666667,25.8166667
asa,,09,1.9666667,27.45
asada,,09,2.4666667,30.3
asangwa,,11,0.3,28.0666667
asani,,10,-2.5333333,25.8
asekadeo,,04,-4.7166667,24.6666667
asekandeo,,04,-4.7166667,24.6666667
asekatunda,,10,-4.2666667,25.0166667
aseki,,00,-3.0833333,23.5
aseko sumbi,,04,-4.8666667,24.7
aseko sumbu,,04,-4.8666667,24.7
asengu,,00,2.6166667,23.6666667
asengwe,,09,-0.2833333,25.4166667
asetonie,,00,2.6166667,26.2166667
ashu,,00,-2.85,23.7
asigala,,00,3.4833333,25.7333333
asindi,,10,-2.6333333,26.3166667
asine,,00,2.5166667,28.0666667
asira,,00,3.1833333,29.9833333
asisi,,05,-9.4333333,25.8
asombe,,00,3.2666667,26.7166667
asomelo,,00,-3.4166667,23.4666667
asomeno,,00,-3.4166667,23.4666667
asongo,,00,2.9166667,22.5
asuku,,00,-3.5166667,23.6333333
asumali,,00,1.45,28.4833333
atabangwe,,00,2.5666667,26.4166667
atandra,,00,3.3833333,30.3166667
atatu,,09,3.7333333,30.0333333
atatula,,00,2.2333333,28.2
atetia,,10,-1.8833333,26.2166667
atima,,00,3.3166667,29.9833333
atinekeli,,00,-0.8333333,23.45
atodja,,00,2.6833333,26.0333333
atoloba,,09,3.75,27.6833333
atondo,,10,-2.7,26.8333333
atorobako,,00,4.05,26.0666667
atsenga,,00,2.6333333,28.2166667
atsiango,,00,3.1666667,26.9333333
atsiengama,,00,2.3833333,28.2833333
atunukve,,09,1.2,29.6833333
atzo,,00,3.2833333,30.6333333
atzupani,,00,2.8333333,30.7
audanga,,00,2.4333333,27.65
auma,,00,2.9666667,22.75
aungba,,00,2.55,30.5
avakubi,,00,1.3166667,27.55
avareo,,00,3.1833333,29.9666667
aveluma,,09,1.25,30.0166667
avimi,,09,1.3333333,30.0833333
avini,,09,1.3333333,30.0833333
avokiri,,09,3.8166667,30.2666667
avu,,09,2.2,30.7166667
avuluko,,00,3.9333333,26.5166667
avungu,,00,-3.7,24.2166667
avuruwando,,09,4.4166667,27.9333333
awadji,,00,-3.1333333,22.2
awago,,00,3.4,29.6666667
awande,,00,3.4333333,26.6833333
awangi,,00,-3.05,22.3
awango,,00,-3.05,22.3
awango-dongo,,00,-3.05,22.3
awele,,02,3.8833333,18.8
awese,,00,2.3,27.7
ayali,,09,0.8,28.9166667
ayamba,,00,2.3333333,27.9666667
ayanza,,09,2.5,30.6666667
ayo,,00,2.2833333,27.9333333
ayoli,,09,1.4833333,28.5833333
aza,,00,2.9,30.2166667
azabamba,,00,1.7166667,28.35
azakuin,,00,3.0,30.6
azakuiri,,00,3.0,30.6
azambi,,00,3.1833333,29.55
azande,,09,4.3333333,28.7
azango,,00,3.0166667,28.3833333
azapamba,,00,1.7166667,28.35
azapana,,00,2.5833333,26.75
azapane,,00,2.5833333,26.75
aziba,,00,2.1333333,27.6833333
aziko,,00,2.8166667,30.6833333
azile,,09,3.5333333,29.8666667
azimogu,,00,3.3666667,29.3333333
azizima,,00,3.2333333,30.3333333
baaba,,02,-5.4666667,18.55
baba,,01,-4.6833333,18.3166667
babadi,,02,3.1,20.35
babadi,,03,-5.5833333,23.4333333
babagulu,,09,0.5,27.25
babagume,,09,0.4338889,25.9788889
babama,,09,0.4833333,25.15
babamba,,09,0.1833333,27.4833333
babango,,09,-0.6833333,26.6166667
babangwa,,07,-3.1758333,28.8705556
babanjila,,05,-9.6666667,24.65
babasongo,,02,3.8166667,19.5666667
babavaki,,09,0.25,25.3166667
babayuki,,09,0.25,25.3166667
babe,,09,4.2333333,27.7833333
babegwa,,02,4.1,18.9333333
babeka,,09,-0.7666667,25.2333333
babeke,,00,1.4,28.0666667
babeligo,,00,2.7666667,30.2166667
babelo,,03,-5.7130556,22.4311111
babengongo,,09,-1.2166667,25.4166667
babenza,,09,1.6333333,25.5666667
babeyro,,09,1.8666667,27.45
babeyru,,09,1.8666667,27.45
babia,,00,4.4333333,27.2666667
babidji,,10,-1.6333333,25.95
babila,,03,-5.5833333,24.3833333
babimbi,,09,-0.6666667,25.5333333
babinde,,09,-1.4,25.7833333
babiondo,,09,-0.2,25.1
babise,,09,1.75,26.05
babiti,,00,2.4166667,27.6166667
baboandja,,09,0.5833333,25.1833333
babode,,09,1.7833333,25.3833333
babogambei,,09,0.2,27.4666667
babogombe,,09,0.0563889,25.5486111
babokambole,,09,0.41,25.9733333
babokoli,,09,0.3833333,25.35
babokoti,,09,0.3833333,25.35
babole-amundala,,11,-0.35,27.8666667
baboma,,00,2.5333333,28.2166667
babonde,,00,2.25,27.5666667
babonde,,09,2.25,26.4833333
babonge,,09,0.5825,25.8363889
babongena,,09,0.4897222,25.7058333
babongie,,09,0.5655556,25.8155556
babongombe,,09,0.3,25.2833333
baboniami,,00,0.9833333,27.75
babote,,09,-0.2333333,25.1
babu,,09,3.65,29.1166667
babudjala,,09,0.5333333,25.7833333
babuede,,00,3.1333333,26.3666667
babugulu,,09,0.4666667,25.6
babukongo,,09,-1.4,25.55
babule,,09,0.3333333,27.35
babunda,,00,1.4166667,27.7
babundji,,09,0.5333333,24.95
babunga,,03,-6.25,23.15
babu-runge,,09,3.65,29.1166667
babuse,,09,0.4666667,25.9166667
babute,,09,0.2,25.3
babuya,,00,4.6333333,26.9
babwa,,00,4.1166667,27.4
babwanjao,,09,0.5883333,25.8677778
bada,,00,4.1833333,27.0666667
bada,,02,4.9833333,19.7166667
badati,,09,1.9166667,26.0
bade,,00,2.5666667,23.1666667
badegba,,02,4.0,19.0833333
badibanga,,03,-5.9,23.3833333
badibu,,09,0.6,26.0166667
badibundu,,01,-4.65,18.35
badigba,,00,3.0666667,25.1833333
badile,,09,0.9,25.1833333
badingale,,03,-4.8833333,23.8333333
badjaba,,02,1.0333333,18.45
badja,,00,3.9166667,20.6666667
badja,,02,3.75,18.8
badja i,,02,4.4833333,20.0
badja ii,,02,4.4666667,20.0
badjamba,,09,1.3333333,24.3333333
badjangele,,00,-4.3,22.7833333
badjenge,,09,1.3333333,25.2666667
badjetenge,,00,2.7833333,21.45
badjoge,,09,1.05,25.2166667
badjoki,,00,2.9833333,22.3
badjokola,,02,3.9,20.2833333
bado,,00,4.2833333,21.0166667
bado,,02,3.4333333,18.6833333
badokwa,,02,4.35,18.6333333
badolite,,00,4.2833333,21.0166667
bado-mbamba,,02,3.5333333,18.6333333
badombe,,09,1.3666667,25.4833333
badombila,,09,1.0833333,25.2
badorowe,,00,3.8,20.55
badri,,09,4.0333333,29.8166667
badudu,,00,2.35,27.7666667
baduka,,09,0.0833333,25.5833333
badumbe,,09,1.5333333,23.9833333
badumbi,,09,0.7166667,25.2833333
badumbu,,00,1.0833333,27.55
badzamane,,09,1.4333333,25.2833333
badzanga,,09,1.2166667,30.0666667
badzenge,,00,1.0666667,27.5666667
badzombali,,02,3.1333333,20.0333333
baeco,,09,0.85,26.3666667
baego,,09,0.85,26.3666667
baema,,09,1.1833333,23.75
baemba,,00,-0.8833333,20.1166667
baenga,,02,1.3666667,22.2833333
baengu,,09,2.45,23.6166667
bafaka,,00,-1.8,20.8833333
bafaka,,02,1.5166667,20.8666667
bafaki,,00,-1.6,19.7166667
bafale,,09,-0.4,25.3833333
bafeko,,00,-2.0833333,24.1333333
bafili,,02,-0.25,20.6166667
bafolo,,02,0.5,19.25
bafuka,,00,3.3333333,28.55
bafuka,,09,4.15,27.9
bafuku,,09,4.15,27.9
bafwabaka,,00,2.1166667,27.6666667
bafwabaka,,09,0.5833333,27.3833333
bafwabala,,09,0.6,27.1833333
bafwabalinga,,09,0.85,27.0666667
bafwabe,,00,1.8166667,27.8666667
bafwabena,,00,1.6166667,27.7
bafwabenge,,09,1.3833333,27.0333333
bafwabili,,09,0.9666667,26.15
bafwabiobo,,09,1.5,26.4333333
bafwabogbo,,00,1.15,27.55
bafwabogbo,,09,1.6833333,26.5666667
bafwaboli,,09,0.65,26.1666667
bafwaboto,,09,1.6833333,26.9166667
bafwadambo,,09,0.8166667,27.3666667
bafwadei,,09,1.6666667,27.0333333
bafwadema,,00,1.85,27.9
bafwadili,,09,0.7166667,27.45
bafwadukoni,,09,0.9,27.15
bafwagadi,,09,1.05,25.95
bafwagamea,,09,1.3666667,26.2666667
bafwagbese,,00,1.4333333,27.8
bafwagbogbo,,09,1.6833333,26.5666667
bafwagbolo,,09,1.6166667,26.9833333
bafwagbongu,,09,0.9,26.55
bafwagbouma,,09,1.1333333,27.3166667
bafwageseni,,09,2.3833333,26.35
bafwagosa,,09,1.15,26.75
bafwaio,,00,1.35,27.5833333
bafwaitu,,09,1.1833333,25.9666667
bafwakage,,09,1.3666667,27.0333333
bafwakao,,00,1.4,27.95
bafwakase,,09,1.7666667,27.2666667
bafwakate,,09,1.3166667,26.3166667
bafwakato,,09,1.3166667,26.3166667
bafwakengo,,09,0.5666667,27.2
bafwakenzi,,09,0.6166667,27.4
bafwakipuo,,09,0.9333333,27.1666667
bafwakolio,,09,1.6666667,26.9333333
bafwakombo,,09,1.1333333,27.25
bafwakondima,,09,0.9166667,26.6166667
bafwakoto,,09,0.5833333,27.35
bafwakozuo,,09,1.8,26.9333333
bafwakubi,,00,1.2666667,27.5166667
bafwakudji,,09,1.7333333,26.9333333
bafwakumu,,09,1.7,26.5666667
bafwalipa,,09,1.1333333,26.75
bafwaloya,,00,0.7666667,27.55
bafwaluza,,09,1.0166667,27.3
bafwamabubulu,,09,1.4,26.1
bafwamabulu,,09,1.3666667,25.95
bafwamabululu,,09,1.4,26.1
bafwamadiboko,,09,1.0166667,26.1
bafwamadubulu,,09,1.4,26.1
bafwamakokoko,,09,1.6666667,26.7666667
bafwamalambu,,09,1.3666667,26.0166667
bafwamamba,,09,1.7666667,27.15
bafwamambele,,00,1.6333333,27.95
bafwamane,,09,1.7333333,27.2333333
bafwamangoro,,09,1.7666667,26.9333333
bafwamasia,,00,2.1833333,27.6166667
bafwamasoa,,00,1.4166667,27.8333333
bafwamati,,00,1.2,27.5333333
bafwamazoa,,00,1.4166667,27.8333333
bafwambako,,09,1.1,27.2833333
bafwambalo,,09,0.9833333,27.2
bafwambela,,09,0.9333333,26.7166667
bafwamboma,,09,1.3166667,25.9666667
bafwamboma-imva,,09,1.8,27.3333333
bafwambosi,,09,0.9333333,26.7166667
bafwambuku,,09,1.45,27.0166667
bafwametinda,,09,0.8666667,27.05
bafwamiti,,00,1.2,27.5333333
bafwamogo,,09,0.8666667,26.4333333
bafwanakokoko,,09,1.6666667,26.7666667
bafwanameto,,09,1.65,26.7333333
bafwanane,,09,1.7333333,27.2333333
bafwananze,,00,1.9,27.9166667
bafwandambo,,09,0.8833333,26.4666667
bafwandeko,,09,0.6666667,27.4
bafwandomo,,09,1.3833333,26.05
bafwandukoni,,09,0.9,27.15
bafwanenzeke,,09,0.8333333,27.3833333
bafwangbe,,09,1.65,26.85
bafwangbesolo,,09,0.7833333,27.1333333
bafwangbetebo,,09,1.5666667,27.0166667
bafwanzama,,09,1.8833333,26.65
bafwanzebona,,09,0.8333333,27.45
bafwanzegule,,09,1.1833333,27.4
bafwanzoku,,00,1.8833333,27.9166667
bafwapada,,09,0.9333333,26.95
bafwapipoyo,,09,1.4,26.1166667
bafwapisho,,09,1.0833333,27.1833333
bafwapoba,,09,1.2333333,27.4666667
bafwapoka,,09,1.2333333,27.4666667
bafwapombu,,09,1.3666667,26.3333333
bafwasagba,,09,1.2833333,27.1666667
bafwasale,,09,1.6333333,26.65
bafwasana,,09,1.1666667,27.35
bafwaseba,,09,1.6666667,26.6166667
bafwasele,,09,1.7166667,27.1833333
bafwasende,,09,1.0833333,27.2666667
bafwasengi,,09,1.75,26.5833333
bafwasiambo,,09,1.4166667,25.9666667
bafwasio,,09,1.8,26.5666667
bafwasomboli,,09,1.45,27.0166667
bafwasongoni,,09,0.75,27.1333333
bafwatebu,,09,1.2666667,27.2
bafwatende,,00,1.4166667,27.7666667
bafwatete,,09,1.2666667,25.9666667
bafwatibi,,09,1.6166667,26.4666667
bafwatongono,,09,1.15,27.3333333
bafwatukwele,,09,0.8833333,27.1333333
bafwazegule,,09,1.1833333,27.4
bafwazenge,,09,1.1333333,26.7833333
bafwazengule,,09,1.1833333,27.4
bafwazio,,09,1.8,26.5666667
bafwazombi,,09,1.9833333,26.7833333
bagaembo,,02,4.7666667,20.15
bagale,,09,3.7166667,29.7833333
bagalia,,09,-0.3833333,26.4666667
bagaliena,,02,3.4,20.4333333
bagara,,09,1.95,25.4666667
bagata,,00,-6.55,17.3
bagata,,01,-3.7333333,17.95
bagbadje,,09,1.7333333,25.8333333
bagbala,,00,3.1833333,27.35
bagbala,,09,3.7,30.1833333
bagbanda,,09,4.8166667,27.6833333
bagbasingbe,,09,0.6666667,25.3
bagbaya,,00,3.45,25.9833333
bagbe,,09,2.05,25.8333333
bagbele,,09,4.35,29.2833333
bagbetambi,,09,1.6833333,24.0666667
bagbo,,02,4.45,18.95
bagbunda,,09,1.5166667,25.3833333
bagburu,,09,1.35,29.6666667
bage,,00,0.65,27.6666667
bagedaniongo,,09,0.6,27.4833333
bage i,,09,1.8333333,26.2833333
bage ii,,09,1.7833333,26.1166667
bagena,,09,1.85,30.2166667
bagerelita,,00,3.7333333,22.3
baghangana,,09,0.5166667,25.1
bagiba,,09,0.4663889,25.5027778
bagi,,00,4.1,23.1833333
bagine,,00,3.7666667,24.3833333
bagnaza,,09,-1.2,25.7333333
bagno,,00,2.9666667,26.5833333
bagola,,09,1.85,25.3333333
bagota,,09,1.5,29.9333333
bagua,,00,4.5166667,23.1166667
bagukugu,,02,4.6,19.15
bagule,,09,1.8833333,26.5166667
baguma,,00,2.5,20.2666667
baguna,,00,2.5,20.2666667
bagwase,,09,-0.3833333,25.3166667
bahaha,,09,1.4166667,29.3666667
bahale,,09,1.05,25.3
bahanga,,09,1.3833333,24.0166667
bahayo,,09,1.6833333,25.6833333
bahema,,09,0.9666667,23.6833333
bahinga,,05,-5.95,27.1
bahomo,,00,-3.6666667,21.3833333
bahoto,,09,-0.7166667,25.4166667
bahulu,,02,1.4833333,23.3666667
bahume,,09,1.1666667,25.2166667
baido,,00,3.1333333,30.2
baie kalala,,03,-7.3833333,24.3166667
baie kamoshi,,03,-5.95,21.2166667
baie-musenge,,00,-7.6,23.3833333
baikuba,,09,-1.4,25.6166667
baileko,,09,-1.0166667,25.6666667
bailleux,,08,-4.7502778,15.1394444
baimana,,09,-1.3,25.75
bainga,,00,4.0666667,22.4833333
baisa,,02,2.35,22.1666667
baita,,09,1.8333333,27.0833333
baitebe,,00,2.5833333,28.8333333
baitebi,,00,2.5833333,28.8333333
bajila-kasanga,,03,-6.0666667,22.8
bajilanga,,04,-6.4,23.5833333
bajimike,,04,-5.85,24.5333333
baka,,00,-2.0666667,20.1
baka,,02,4.8666667,19.8666667
baka,,08,-5.6166667,15.0833333
bakala,,00,3.55,25.8833333
bakalanga-tengo,,05,-5.45,28.2166667
bakalawa,,00,3.8666667,23.6166667
bakalua-bodugbu,,00,3.4666667,20.55
bakalukudu,,00,2.3833333,28.35
bakamaye,,03,-5.0833333,21.3666667
bakamba,,02,-1.15,18.3333333
bakambe,,03,-5.65,23.6166667
bakanga,,01,-3.7666667,19.05
bakapoke,,09,0.4666667,25.4333333
bakarai,,00,1.2833333,27.5333333
bakari,,10,-4.15,26.7
bakaro,,00,1.1,27.9833333
bakasanga,,03,-5.1666667,23.25
bakatanga,,00,-2.1166667,19.4166667
bakazika,,03,-5.9469444,22.3511111
bakbuku,,00,4.0166667,27.4
bakeba,,00,-0.9,20.7833333
bakebe,,00,-6.05,25.9
bakena,,02,4.4,18.9166667
bakenda,,02,1.3666667,21.4
bakeoi,,09,0.3666667,25.9
bakere,,09,1.6,23.8333333
baketa,,00,-0.65,20.7333333
bakile,,04,-5.2333333,25.2333333
bakilingba,,00,3.75,26.2166667
bakiliso,,09,0.5,27.2333333
bakima,,03,-5.35,24.4833333
bakime,,03,-5.35,24.4833333
bakindesungu,,00,3.4833333,27.4166667
bakingi,,02,4.8666667,19.8666667
bakisombo,,09,-1.0333333,25.6666667
bakita,,09,-0.05,26.6666667
bakiwe,,00,4.0666667,26.6166667
bako,,00,-9.7,22.85
bako,,02,2.6,20.05
bakobo,,09,1.2333333,25.2333333
bakofombo,,00,3.75,25.65
bakofomboi,,00,3.75,25.65
bakoka,,00,-0.8666667,20.9833333
bakoma,,00,1.4166667,28.1666667
bakoma,,04,-6.2666667,25.0166667
bakomo,,00,-3.6666667,21.3833333
bakongo,,00,3.6666667,22.1666667
bakono,,00,-3.6666667,21.3833333
bakoroye,,09,0.65,27.4833333
bakoyo,,02,-0.55,18.9
bakponga,,00,3.4833333,26.3666667
bakpwa,,00,3.6666667,22.9
baku,,00,3.4166667,23.8166667
baku,,08,-4.8569444,15.2505556
baku,,09,2.4166667,30.1
bakula,,02,4.6166667,18.9833333
bakuludu,,02,4.7166667,20.3333333
bakulumbi,,09,-0.6166667,24.9166667
bakumania,,02,0.9833333,18.8
bakume,,00,3.65,26.5833333
bakumu,,00,-2.5666667,22.0666667
bakune,,00,2.7333333,21.7
bakunga,,05,-7.6833333,25.7666667
bakungu,,00,1.2333333,19.6833333
bakungu,,10,-4.45,27.3833333
bakuta,,09,-1.0333333,25.6666667
bakuti,,09,1.2833333,25.2666667
bakutu,,00,2.9666667,26.25
bakwa,,00,3.1,25.1333333
bakwa,,03,-6.3,22.4
bakwa-bana,,03,-5.2833333,21.35
bakwa bapika,,03,-4.6666667,21.2666667
bakwa-batshi,,03,-4.65,22.65
bakwa-beya,,03,-4.6333333,21.25
bakwa-bilonda,,00,-4.3666667,20.7666667
bakwa-bwanga,,03,-6.45,23.3
bakwa-funyi,,03,-5.8333333,20.6833333
bakwa-gambo,,04,-6.6,23.8
bakwa-indu,,03,-5.0,23.7166667
bakwa-kansinga,,03,-4.8833333,22.0666667
bakwa-kasanga,,03,-4.5166667,21.1166667
bakwa-kashile,,04,-6.4666667,23.7666667
bakwa kayongo,,03,-4.6666667,21.0666667
bakwa-kenge,,03,-4.85,22.0666667
bakwa-kwanga,,03,-5.0333333,21.5333333
bakwa-maie,,03,-5.0833333,21.3666667
bakwa-malaba,,04,-6.6833333,23.5666667
bakwa-mbatshi,,03,-4.65,22.65
bakwa-mpika,,03,-4.6666667,21.2666667
bakwa-mpuka,,04,-6.1,23.4666667
bakwa-muanza,,03,-4.8166667,22.55
bakwa-mukamba,,03,-5.25,21.3333333
bakwa-mushilu,,00,-4.4833333,21.05
bakwa-mwanga,,03,-6.45,23.3
bakwa-mwanza,,03,-4.8166667,22.55
bakwa-ndai,,03,-5.1833333,21.6
bakwa-ndola,,04,-6.15,23.7333333
bakwanga,,04,-6.15,23.6
bakwa-ngandu,,03,-6.15,22.9
bakwa-nsakalongo,,04,-5.85,23.6
bakwa-nyanga,,03,-4.8333333,21.8
bakwa-nzeba,,03,-4.65,21.5666667
bakwa-poie,,04,-6.4166667,23.3333333
bakwa-punga,,04,-6.6333333,23.55
bakwa-samba,,03,-4.6666667,22.8
bakwa-seka,,03,-4.8,21.75
bakwa-sumpi,,04,-5.9833333,24.1666667
bakwa-sungu,,03,-4.6833333,23.0
bakwa-tombe,,03,-5.1,21.55
bakwa tombolo,,03,-4.9,21.7833333
bakwa-tshibaka,,04,-6.3166667,23.5166667
bakwa-tshibuyi,,04,-6.3833333,23.7166667
bakwa-tshilanda,,04,-6.2833333,23.5333333
bakwa-tshilee,,04,-6.5166667,23.8666667
bakwa-tshileo,,04,-6.5166667,23.8666667
bakwea-bilonde,,00,-4.3666667,20.7666667
bakweme,,09,0.9666667,25.15
bakwoli,,00,2.7333333,26.0833333
bala,,00,1.7,19.2833333
bala,,01,-3.7833333,18.4833333
bala,,02,-0.4,19.3833333
bala,,04,-6.1,24.8333333
balabala,,00,2.45,19.5166667
balabala,,04,-6.0166667,24.5166667
balabala,,09,-0.9666667,24.3666667
balaka,,01,-4.15,18.4166667
balaka,,02,-4.85,19.95
balakpulan,,09,4.4666667,28.7833333
balakwa,,02,4.9,19.3166667
balala,,05,-12.8166667,28.75
balama,,09,1.7333333,26.5666667
balambi,,02,-5.7166667,18.2833333
balambi,,09,1.3333333,26.3333333
balamo,,02,3.5833333,18.75
balancu,,00,4.2833333,20.6166667
balanga,,00,-5.0833333,25.95
balanga,,09,-1.1666667,23.55
balangaie,,03,-5.1166667,23.8166667
balangala,,00,0.4,19.75
balanganza,,09,3.75,28.95
bala-ngoie,,04,-6.4333333,24.7333333
balangonda,,02,3.2,18.7666667
balangu,,00,4.2833333,20.6166667
balankole,,02,-0.15,19.4833333
balapa,,00,3.0166667,27.2166667
balatsoko,,08,-6.1166667,17.3
balayi,,04,-6.7666667,24.15
balazana,,09,1.5833333,30.0666667
bale,,00,-6.8,26.9666667
balebebisa,,00,2.7333333,24.55
balegia,,09,1.05,27.2666667
balegi,,09,0.3,27.3666667
balegi ngoma,,09,0.3,27.3666667
bale ii,,00,3.35,20.8666667
baleke,,09,1.0333333,25.2666667
balele,,00,2.6166667,26.2166667
balendjale,,01,-1.55,18.25
balenge,,02,4.3833333,19.3333333
balewogo,,00,2.7666667,24.75
balia,,00,4.5833333,23.3
baliakoko,,09,1.6833333,27.1
baliakondo,,00,2.9,27.1166667
baliba,,09,0.2166667,27.4666667
bali,,06,-2.8333333,16.2
balibe,,01,-3.9166667,17.8666667
balibi,,01,-3.9666667,18.4666667
baligangara,,00,3.9666667,25.9
balika,,00,1.1333333,27.9833333
baliko,,02,-0.2666667,20.8166667
balila,,09,0.9063889,25.2083333
balilaka,,00,4.4333333,25.4166667
balimba,,12,-4.0,28.0333333
balinda,,01,-2.2,18.4666667
baliomo,,00,-1.55,23.0833333
balisi,,00,3.15,25.1166667
balisi,,09,2.0666667,25.7166667
ball i,,02,4.35,19.8
balo,,00,4.55,24.9
balo,,09,1.6,30.5166667
balobe,,11,-0.0833333,27.6666667
baloma,,09,1.25,25.55
balombolombo,,00,-2.0833333,18.75
balondo,,02,0.4166667,19.15
balonge,,11,-0.1008333,29.2105556
baluba,,04,-5.2666667,24.75
balu,,08,-5.8666667,14.4
baluku,,09,-0.7333333,25.5833333
balumbe,,02,0.35,18.5333333
balumu,,06,-4.1083333,15.9033333
balu mukanda,,00,-6.6,17.2833333
balunga,,04,-5.35,25.4
balya,,00,3.2333333,30.2666667
bamaba,,00,-3.0666667,18.65
bama,,00,2.9833333,26.0833333
bamanga,,09,-0.2833333,25.5333333
bamata,,00,-1.0,21.1
bamba,,01,-3.9166667,19.0333333
bamba,,02,2.55,19.6833333
bamba,,08,-4.7988889,15.5680556
bamba-gongo,,08,-5.4,14.6833333
bamba kilenda,,08,-4.9208333,15.4966667
bambakita,,09,0.4655556,25.96
bambako,,00,-3.0666667,21.65
bamba kopo,,08,-5.4,15.5833333
bambaku,,00,-3.0666667,21.65
bambala,,00,4.7,22.9
bambala,,09,-0.9833333,25.65
bamba madimba,,01,-4.9833333,18.5166667
bambandjo,,09,0.9333333,26.2333333
bambay,,00,-4.4,21.6333333
bambaye,,09,-1.05,25.4666667
bambe,,00,3.4666667,25.3833333
bambe,,02,3.3,19.0166667
bambenga,,02,3.6833333,18.6333333
bambesa,,00,3.4666667,25.7166667
bambese-baya,,02,3.0833333,19.1
bambi-gangi,,02,-1.3,18.8166667
bambili,,00,-0.05,20.0
bambili,,02,4.0666667,19.2166667
bambinga,,01,-3.7,18.9
bambinga etat,,01,-3.7,18.9
bambisa,,00,4.5,26.9166667
bambo,,11,-1.1141667,29.2227778
bambodanga,,00,3.9166667,25.9666667
bambodi,,00,0.9,27.5666667
bamboloi,,09,1.8666667,26.4833333
bambongo,,09,1.75,25.3666667
bambu,,02,1.0666667,22.9666667
bambu,,09,1.8,30.2333333
bambudi,,01,-4.3,19.9333333
bambula,,00,-6.6166667,19.0666667
bambula,,09,-1.2833333,25.6333333
bambuy,,00,-4.4,21.6333333
bambuyi,,00,-4.4,21.6333333
bambwe,,09,1.1166667,25.2
bamekiyo,,00,2.1,27.8333333
bamekuamburo,,09,-1.4166667,25.3
bamfunga,,01,-2.9333333,18.1666667
bamini,,09,-0.35,25.3666667
bamodu,,09,1.0166667,27.25
bamoi,,00,3.5666667,26.8833333
bamopange,,09,-1.3833333,25.25
bampese,,03,-7.2,21.8333333
bampumbu,,01,-4.35,19.7333333
bampumbu-mtinda,,01,-4.35,19.65
bamuele,,03,-6.5833333,21.1
bamugui,,09,-0.2,25.35
bamukandu,,04,-5.0833333,25.0666667
bamvuta,,09,4.0833333,28.4666667
bamvuwe,,00,2.9166667,27.45
bana,,08,-4.6661111,15.3091667
banabotenda,,09,-1.4166667,25.2333333
banakambea,,09,-1.45,25.5833333
banakelesha,,09,-1.1166667,25.4666667
banaketembo,,09,-0.9833333,25.4833333
banakibande,,09,-1.2333333,25.5166667
banakira,,09,-1.25,25.3166667
banakpuenga,,09,-1.2666667,25.35
banalia,,09,1.55,25.3333333
bana-luzumu,,08,-4.6661111,15.3091667
banambia,,09,-0.9,25.6166667
banamolio,,09,-1.1166667,25.5666667
banamongi,,09,-1.0833333,25.4666667
banana,,08,-6.0166667,12.4
banana,,09,1.3666667,28.8666667
bananaleka,,09,0.6166667,25.2666667
banandjali,,09,-0.6666667,25.4833333
banane,,08,-6.0166667,12.4
banangamoni,,00,1.9833333,27.85
banangau,,09,0.3666667,25.25
banangu,,09,0.3666667,25.25
banashi,,00,-4.2166667,21.3666667
banashi,,03,-4.95,24.2666667
banayale,,09,-1.3,25.2833333
banbia,,00,2.8833333,21.45
banda,,00,-1.3166667,20.45
banda,,02,2.7333333,20.3666667
banda,,10,-4.3,24.9666667
banda-busongo,,02,-5.3833333,19.6333333
bandaka,,00,2.6166667,21.5
bandaka,,02,0.0666667,18.2666667
bandakani,,08,-4.85,13.85
banda-kola,,00,-3.2833333,22.9833333
banda kombe,,00,-3.2833333,22.9833333
bandala,,02,2.2166667,22.4333333
bandali,,00,4.35,22.8833333
bandambo,,09,1.0166667,25.9833333
bandangwe,,09,1.1166667,25.35
bandangwele,,09,0.75,27.3666667
banda-utshiku,,10,-4.3833333,25.6
banda-yansi,,02,-5.25,19.1833333
bandazua,,00,3.3833333,26.5333333
bandea,,00,3.1333333,25.9833333
bandema,,02,4.9166667,19.4666667
bandembo,,02,3.35,18.6833333
bandemelema,,00,2.55,25.8
bandengo,,00,1.2833333,27.9833333
bandia,,00,3.5833333,26.2333333
bandi,,00,3.6666667,22.9833333
bandi,,02,4.5166667,18.85
bandi i,,02,4.5166667,18.85
bandi ii,,02,4.5166667,18.9
bandindulu,,09,1.3666667,29.4833333
bandi-rive,,02,4.55,18.8333333
bandjambo,,09,1.4833333,25.4
bandjow-moke,,01,-1.8166667,17.4666667
bandjwade-babubuzi,,09,0.8833333,25.1666667
bando,,00,3.6166667,26.6333333
bandu,,00,3.05,26.8666667
bandu,,02,2.2833333,21.95
bandu,,04,-4.9,24.9166667
bandu,,09,0.3833333,25.25
bandu-gboma,,00,3.6833333,26.05
bandumba,,00,-1.2333333,22.1166667
bandumbe,,09,1.7166667,25.95
bandundu,,01,-3.3166667,17.3666667
banga,,00,3.3166667,23.6833333
banga,,01,-4.7,19.6333333
banga,,02,-1.0666667,18.7
banga,,03,-5.45,20.5166667
banga,,06,-4.9833333,17.3333333
banga,,08,-5.8833333,12.2833333
bangabila,,00,3.4166667,28.7666667
bangabula,,00,2.4833333,19.2
bangadi,,09,4.15,27.9
banga ibundola,,03,-5.45,20.5333333
banga-ibundula,,03,-5.45,20.5333333
banga ii,,02,4.8333333,19.2
banga-ilonga,,02,-1.0666667,18.7
banga-kakese,,01,-4.15,19.4
banga-keta,,02,3.1666667,18.9833333
banga-kete,,02,3.1666667,18.9833333
banga-kisudi,,10,-2.45,26.2
banga-kota,,02,3.2666667,19.0333333
banga-kotese,,02,-1.0833333,18.7
banga-kungu,,02,-1.05,18.4666667
bangala,,00,-6.8166667,16.85
bangala,,02,-0.0166667,19.15
bangala,,09,3.8,27.6166667
bangalala,,00,-9.5333333,23.3666667
bangalala,,05,-10.5,24.3333333
bangaloko,,00,4.4166667,20.5833333
banga-lunduba,,03,-5.3333333,20.55
banga-moke,,02,4.55,19.9666667
bangamote,,00,4.1666667,22.5166667
bangana,,02,2.7833333,19.4
banga nord,,00,-3.15,21.5833333
bangasasi,,00,-1.4333333,20.8
banga sud,,00,-3.5833333,21.6166667
bangawa,,00,4.1333333,20.8166667
banga-wazu,,02,4.6666667,19.8833333
bangayume,,09,2.15,25.3833333
bangazeno,,00,2.9333333,27.4166667
bangbadu,,09,1.55,27.05
bangbagatome,,09,2.5,24.85
bangbala,,09,3.7,30.1833333
bangbanda,,09,4.8166667,27.6833333
bangbe,,09,4.2833333,28.2666667
bangbi,,09,4.2833333,28.15
bangbuya,,09,4.4333333,29.3666667
bange,,02,-5.45,20.4666667
bangefu,,00,1.6833333,28.3166667
bangende,,01,-4.2333333,19.8166667
bangenga,,09,4.8333333,27.6833333
bangengele,,09,-0.3,25.5333333
bangenze,,00,3.8666667,25.7
bangetelita,,00,3.7333333,22.3
bangi,,00,0.6,27.7
bangi,,01,-1.5,18.4333333
bangi,,02,-1.4,18.7833333
bangi,,08,-6.1666667,17.2666667
bangima,,00,3.7333333,27.15
bangiri,,00,-4.05,22.2833333
bangloma,,00,3.65,26.8333333
bango,,00,4.4166667,20.65
bango,,02,2.5666667,20.4166667
bango,,06,-4.9166667,17.2666667
bango,,09,3.9,30.2833333
bangoi,,00,3.4666667,25.4666667
bangoie,,00,4.25,25.0333333
bangoka,,09,0.4833333,25.3333333
bangole,,00,3.45,25.9
bangole,,09,0.8833333,25.15
bangonda,,00,-0.65,19.8
bangondo,,02,4.6833333,20.15
bangongo,,01,-4.3833333,17.7
bangono,,01,-3.7666667,17.3333333
bangoru,,09,0.45,27.2833333
bangu,,00,-10.2166667,22.4333333
bangu,,02,-0.05,19.2
bangu,,03,-5.9833333,20.5666667
bangu,,05,-9.0833333,23.7333333
bangu,,08,-5.3333333,14.9333333
bangula,,05,-10.5666667,24.6666667
bangumi,,01,-3.5166667,17.6666667
bangupa,,09,0.65,26.1666667
banguru,,09,0.45,27.2833333
banguruye,,09,0.4,27.3333333
bangu-zusi,,08,-6.15,17.05
bangwabi,,09,0.6166667,27.4833333
bangwade,,09,0.8666667,25.0833333
bangwande,,09,0.9880556,25.2361111
bangwaze,,09,1.9166667,25.3833333
bangwe,,12,-3.5763889,29.1455556
bangwu,,01,-4.05,18.5833333
bangzikwa,,09,2.05,30.2333333
bania,,00,2.5333333,26.7
banisoba,,09,-0.8666667,25.4666667
baniungu,,09,1.45,24.3666667
bankai,,01,-2.3666667,18.4166667
bankaie,,01,-2.3666667,18.4166667
bankana,,06,-4.4166667,16.1833333
bankene,,01,-3.7,18.0833333
bankoko ii,,01,-4.1333333,19.7833333
bankumuna,,01,-4.4666667,19.95
banningville,,01,-3.3166667,17.3666667
banondjau,,09,-0.7333333,25.5833333
banotengo,,00,2.2166667,28.0166667
bansa,,00,0.4666667,20.0333333
bansamba,,02,-5.5333333,19.35
banseke,,08,-4.4605556,15.2455556
banseke-mfuti,,08,-4.4827778,15.2236111
bantamba,,04,-6.2333333,25.0666667
bantebe,,00,3.1666667,26.1333333
bantebe-eke,,00,3.1666667,26.1333333
bantemba,,04,-6.2333333,25.0666667
bantsamba,,02,-5.5333333,19.35
bantsame ii,,01,-4.55,19.7333333
bantshamba,,02,-5.5333333,19.35
bantsham,,01,-4.15,19.2166667
bantshame ii,,01,-4.55,19.7333333
bantshe,,03,-4.5666667,22.05
bantshione,,01,-4.3166667,19.6666667
bantshi-tete,,03,-4.9666667,22.0833333
banyololo,,09,-0.9666667,25.5333333
banza,,00,0.4666667,20.0333333
banza,,01,-4.6666667,18.6
banza,,02,-0.6833333,18.7333333
banza,,04,-7.3666667,25.25
banza,,08,-5.3166667,14.5166667
banza-bibambi,,01,-5.0333333,17.8
banza boma,,08,-4.6530556,15.4572222
banza-bulu,,08,-4.9166667,13.9833333
banza-fioti,,01,-4.8,18.1666667
banza-gombe,,08,-5.1,13.9833333
banza-gonda,,02,3.5833333,18.65
banza-goyo,,08,-4.8333333,14.15
banza-kabete,,02,-5.5833333,18.9
banza-kamonio,,02,-5.4436111,18.955
banza-kasi,,08,-5.4166667,13.7166667
banza-kataba,,01,-4.7,17.8166667
banza-kifulu,,02,-5.7833333,18.0666667
banza-kikumba,,01,-4.9833333,18.3333333
banza-kimbuku,,08,-5.05,13.9166667
banza-kimpungu,,00,-7.2666667,18.1
banza-kingulu,,02,-5.6166667,18.5666667
banza-kipungu,,00,-7.2666667,18.1
banza-kombe,,00,2.0333333,18.1333333
banza-kulu,,08,-5.3833333,13.6666667
banzali,,00,4.5666667,24.8833333
banza-lui,,04,-7.3666667,25.25
banzama,,01,-4.1,17.7166667
banza-makole,,02,-5.7833333,20.1
banza makuta,,08,-5.5833333,14.7833333
banza-makwala,,01,-4.8,17.7666667
banza manteka,,08,-5.4666667,13.7833333
banza-manteke,,08,-5.4666667,13.7833333
banza-manzashi,,01,-4.6333333,18.6
banza-matadi,,08,-5.8,14.5
banza-mbu,,08,-4.8833333,14.2833333
banza-moke,,02,-0.6666667,18.75
banza-moke,,05,-6.0,27.7666667
banza-mwembe,,08,-5.1666667,13.75
banza ngoyo,,08,-4.8333333,14.15
banza-ngoyo,,08,-5.1333333,14.5333333
banza-nzadi,,08,-5.1,13.9833333
banza-pombo,,08,-4.8166667,14.3166667
banza-sanda,,08,-4.9833333,14.15
banza-sinda,,08,-4.8166667,13.6333333
banza sundi,,08,-5.0833333,15.0333333
banza-sundi,,08,-5.5333333,15.0333333
banza-yidi,,08,-4.8333333,15.0136111
banzelegumba,,00,4.8833333,26.8833333
banzetaka,,00,2.0833333,27.95
banzi,,02,-5.75,20.0
banzi-banzi,,01,-4.3833333,17.6
banziboy,,09,0.7,26.25
banzystad,,00,4.3,21.1833333
banzyville,,00,4.3,21.1833333
baoga,,02,4.4333333,19.15
bao-kakese,,03,-6.9166667,24.3
baolongo,,02,1.4833333,20.7666667
bao-lubimbi,,04,-6.8,24.55
baomo,,00,-0.6666667,21.2333333
baondeh,,09,1.25,23.85
baongo,,00,-2.6666667,19.9166667
baonoku,,00,2.4,27.6333333
baota,,02,0.7166667,20.7333333
bapai,,00,4.1666667,26.0333333
bapaidu,,09,4.35,28.2166667
bape,,09,2.2166667,27.4833333
bapele i,,09,1.8666667,25.9833333
bapele ii,,09,1.95,26.0166667
bapia,,00,4.4333333,27.2666667
bapo,,09,2.2166667,27.4833333
bapundi,,09,0.8333333,26.35
bapuruma,,02,3.6,20.0666667
bara,,00,2.8166667,27.7
bara,,09,2.3666667,30.7333333
baraga,,02,4.6166667,20.05
baraka,,02,4.35,18.6
baraka,,12,-4.0908333,29.0875
barakizi,,00,-8.4,27.0333333
baranga,,00,3.3333333,26.95
barara,,09,0.6166667,28.9
barata,,02,3.4166667,18.85
barega,,02,4.6166667,20.05
bari,,02,3.3166667,19.3833333
bari,,08,-4.7166667,15.3
bariki,,09,-1.2333333,25.7666667
baringa,,00,-0.9666667,21.6333333
baringa,,02,0.75,20.8666667
baringa,,06,-4.4166667,16.75
baringa,,08,-6.2833333,16.9166667
baringa-bilala,,08,-6.2666667,17.3333333
baringa-gashi,,06,-4.4166667,16.75
baringa i,,02,0.9333333,22.1166667
baringa i,,06,-5.4333333,16.9166667
baringa ii,,02,0.9,22.1166667
baringa ii,,08,-5.5,16.9333333
baringa-lukuba,,06,-4.6,16.8
baringa-moke,,00,-0.8166667,21.5
baringa-moya,,02,-6.2166667,17.6666667
baringa-samba,,02,-6.1833333,17.65
baringa-twana,,08,-6.2833333,16.9166667
barisi,,00,3.15,25.1166667
baro,,00,3.6166667,27.0833333
baru,,09,3.5833333,28.4
barumbu,,09,1.2333333,23.5166667
barumou,,09,1.2333333,23.5166667
baruru,,00,3.0666667,27.1333333
baruti,,00,2.85,24.8333333
baruti,,05,-6.2666667,27.8333333
baruti,,09,0.6333333,29.9166667
baruti,,10,-4.3833333,27.45
baruti,,11,-1.1666667,27.5833333
basa,,00,4.1833333,22.9833333
basa,,02,2.8166667,18.7833333
basabe,,09,0.9333333,26.7666667
basadjo,,09,1.75,26.0
basakoni,,09,1.1833333,23.7666667
basala-bale,,00,-5.6666667,26.0833333
basalia,,09,1.8,23.6666667
basali,,09,1.6166667,23.9333333
basambala,,00,-3.1166667,24.05
basambanu,,00,-4.2166667,22.7
basambo,,10,-1.7166667,26.0666667
basandja,,00,-1.6166667,19.4166667
basanga,,03,-5.6588889,22.2941667
basanga,,04,-5.15,24.8
basangana,,03,-4.7166667,21.05
basankusu,,00,1.2333333,19.8
basankuzu,,00,1.2333333,19.8
basape,,00,4.8,26.6
basasa,,04,-5.6333333,24.5833333
basase,,04,-5.6333333,24.5833333
basayo,,02,1.4166667,23.3666667
basayo,,09,1.3,23.6
basea,,09,1.35,23.7833333
base,,02,4.3,20.3666667
basekampembe,,02,-0.45,21.9166667
basekando,,00,3.5,26.7666667
baseka okoli,,02,-0.4333333,22.0666667
baseki,,00,-0.55,21.5333333
basekikelemba,,02,-0.5,22.0833333
basekpio,,00,4.7333333,24.6666667
basekwa,,00,3.3333333,24.8666667
basembende,,02,4.05,19.2
baseme,,10,-3.5666667,26.9333333
basene,,02,4.6333333,18.9666667
basenga,,00,-3.6166667,21.95
basenu,,10,-3.5666667,26.9333333
basepwanga,,02,3.1833333,19.2666667
bashia bago,,04,-6.55,24.4666667
bashia-diango,,04,-6.55,24.4666667
bashia-ilunga,,04,-6.5333333,24.3666667
bashia-kasamba,,03,-6.5833333,24.5
bashike,,03,-5.3166667,24.0166667
bashila-kasanga,,03,-6.0666667,22.8
bashimike,,04,-5.85,24.5333333
bashingile,,04,-6.0333333,24.3
bashove,,00,-2.3,20.2833333
basia,,09,4.8,27.65
basiana,,00,2.6166667,27.7666667
basiane,,00,2.2166667,27.75
basiba,,02,-5.25,18.6333333
basibila,,09,1.2166667,29.7666667
basikabanga,,12,-4.0591667,28.8708333
basikamadoga,,09,0.0666667,27.2833333
basikwakilo,,09,0.5,25.8833333
basikwambili,,09,0.2666667,27.4
basilia,,00,3.4,26.6166667
basilingbi,,00,4.3,26.7666667
basilumbu,,10,-1.85,25.8333333
basiri,,00,1.3333333,28.0
basluka,,11,-1.7166667,28.1
basoa,,09,1.35,23.7833333
baso,,02,2.3,22.3333333
basoko,,09,1.2333333,23.6
basolombi,,09,0.95,25.1166667
basombo,,00,-1.9833333,18.7
basombo,,09,-1.3333333,26.2833333
basonga,,04,-5.15,24.8
basongo,,02,3.8833333,18.6333333
basongo,,03,-5.6,24.2833333
basongo,,09,0.1833333,24.0666667
basopondi,,00,2.8833333,25.7333333
basor,,02,4.4,20.25
basse,,02,4.4833333,20.2833333
basse luka,,11,-1.7166667,28.1
basua,,09,1.25,27.2
basubuke,,03,-5.3,24.3833333
basuka,,09,0.7166667,26.25
basulotje,,09,0.7836111,25.2572222
basumba,,04,-5.2833333,24.9333333
basumba,,10,-2.55,26.7833333
basumbu,,10,-2.55,26.7833333
basuru,,00,3.0666667,27.1333333
bata,,02,-6.0166667,19.6666667
bata-bubu,,08,-5.2166667,12.6833333
bataillon,,03,-7.0166667,20.8166667
bataillon,,07,-1.8413889,28.7611111
bataki,,00,2.4333333,27.7333333
bata-kimenga,,08,-5.5,13.6666667
batalagi,,00,4.05,26.5666667
batama,,09,0.9333333,26.65
batambembe,,09,0.9333333,23.5333333
batande,,00,4.0833333,26.3333333
batanga,,02,2.7,19.9833333
batange,,00,1.5666667,27.6833333
batangu,,02,2.7,19.9833333
batania,,00,-5.1833333,25.95
bata-siala,,08,-4.9833333,13.2333333
bata-yala,,08,-5.3,12.8333333
batayo,,00,4.2666667,23.0666667
batela,,02,3.2333333,19.35
batenawane,,00,2.05,27.6833333
batetela-madi,,03,-4.8833333,21.9333333
batiabe,,09,0.63,25.9625
batiabetu,,09,0.15,25.3333333
batiabongena,,09,0.5977778,25.2658333
batiabuka,,09,0.4666667,25.55
batiafeke,,09,0.6333333,25.1833333
batiagai,,09,0.4,25.1333333
batiakaba,,09,0.4166667,25.3333333
batiakamba,,09,-0.2,25.1
batiakandja,,09,-0.5333333,25.2666667
batiakasima,,09,0.0833333,25.35
batiakaunda,,09,-0.7666667,25.0333333
batiakayandja,,09,-0.5333333,25.2666667
batiakili,,09,-0.7666667,25.7833333
batiakoko,,09,0.6333333,25.1166667
batiakope,,09,-0.6,25.4666667
batiakungu,,09,-0.5666667,25.05
batiakuya,,09,0.6194444,25.955
batiakwendo,,09,-0.75,25.7
batialibia,,09,0.55,25.9
batialimbi,,09,-0.7833333,25.8166667
batiamaduka,,09,0.6386111,25.19
batiamame,,09,-0.6166667,25.2
batiambale,,09,0.5166667,25.2666667
batiamondulu,,09,-0.55,25.45
batiamoyowa,,09,-0.5833333,25.2833333
batiamuliko,,09,-0.5333333,25.1333333
batianguo,,09,0.4166667,25.3
batianoya,,09,-0.8,25.9166667
batiapanga,,09,0.3666667,25.3833333
batiasera,,09,-0.4833333,25.4
batiashinja,,09,-0.75,25.05
batiatebe,,09,-0.8666667,25.9666667
batiatwebe,,09,0.15,25.3166667
batiayamuya,,09,-0.8,25.9166667
bati,,00,1.8,20.5
bati,,02,2.8333333,18.45
batibilenge,,09,-0.8333333,24.95
batibungu,,09,-0.7,24.8333333
batiengo,,09,-0.4833333,25.3
batigombe,,02,2.8333333,18.45
batikafae,,09,0.3833333,25.0833333
batikafalanga,,09,0.4,25.1333333
batikalengbe,,00,4.0666667,25.85
batikasera,,09,-0.4833333,25.4
batikayafi,,09,0.3166667,25.1166667
batikobabu,,09,0.3666667,25.1333333
batikolangi,,09,0.3666667,25.1333333
batikolefa,,09,0.35,25.4333333
batilabo,,10,-1.5,25.3666667
batingombe,,02,2.8333333,18.45
batiolofo,,09,-0.6333333,24.8833333
batisabela,,09,-1.3166667,25.9666667
batite,,00,3.3,25.85
batitobeka,,09,-0.6666667,25.2
batiyagoyo,,09,-0.7666667,25.95
baton,,00,-7.3333333,28.85
batonga,,04,-5.9833333,24.3
batshamba,,02,-5.5333333,19.35
batshambuya,,09,-1.3,25.7333333
batshwa,,02,-0.0833333,21.2166667
batsina,,02,-0.25,18.8
batsumoni,,00,1.9833333,27.8833333
batua,,02,-0.8833333,19.05
batua,,03,-4.95,21.8333333
batua,,04,-5.25,25.4333333
batua-patambo,,03,-4.9833333,21.9833333
batwa,,00,-2.0166667,20.0333333
batwa,,03,-5.5166667,24.0666667
baudhuinville,,00,-7.05,29.7833333
baudouinville,,00,-7.05,29.7833333
baule-panda,,04,-5.9666667,24.6
baulo,,09,0.65,24.6666667
baumo,,00,-0.5333333,21.5
bauru,,02,0.6666667,20.9833333
bausa,,00,-8.6166667,27.3
bauta,,02,0.7166667,20.7333333
bauza,,00,3.9166667,20.6666667
bava,,09,3.55,29.7833333
bavaengia,,00,1.6333333,27.7666667
bavakemba,,00,1.1666667,28.0
bavamoka,,00,1.6666667,27.8333333
bavanotu,,00,1.6666667,27.8166667
bavi,,09,1.6833333,30.5166667
bavili,,09,-1.1166667,25.7166667
bavodini,,09,1.9833333,26.7
bavolambi,,09,-0.75,25.75
bavombo,,09,1.9166667,26.9166667
bavu,,00,-10.4666667,23.4
bavu,,05,-10.6,24.4166667
bavula,,02,4.4833333,19.1166667
bavungala,,00,4.6666667,26.9
bavungula,,00,3.0166667,29.7833333
baw,,02,4.9833333,19.8833333
bawi,,09,0.7666667,25.2333333
bawole,,00,4.9333333,25.1833333
bawombi,,09,0.6833333,25.15
bawose,,01,-2.3833333,17.7333333
baya,,00,-8.15,26.6333333
baya,,01,-3.2666667,17.3833333
baya,,02,2.5166667,20.25
baya,,05,-11.8666667,27.45
baya-bimi,,01,-3.9166667,17.7666667
bayabo,,02,3.7166667,18.7666667
bayagaka,,00,3.5333333,20.5666667
baya kimwanga,,10,-3.8833333,26.8333333
bayalo,,00,-2.9,19.5666667
bayamba,,03,-6.3,21.8833333
bayandjo,,09,-0.2833333,25.1
bayange,,02,-0.8333333,17.6833333
bayawa,,09,1.9833333,26.85
bayaya,,00,-2.0833333,24.25
baybenge,,02,3.15,18.85
baye,,05,-9.3833333,25.6833333
bayego,,09,0.85,26.3666667
bayeku,,00,3.0166667,22.5833333
bayelo,,00,-2.9,19.5666667
bayenga,,01,-3.9166667,20.3166667
bayenge,,02,-0.8333333,17.6833333
bayerelita,,00,3.7333333,22.3
bayeria,,00,-3.3666667,19.3333333
baykumbala,,00,4.4,24.1666667
bayo,,00,-6.85,26.45
bayo,,05,-6.1666667,26.6166667
bayo,,10,-1.7833333,26.3833333
bayo-kalala,,03,-7.3833333,24.3166667
bayo-kolala,,03,-7.3833333,24.3166667
bayombe,,04,-6.2833333,23.3166667
bayombwe,,05,-9.8,25.0333333
bayon,,00,3.8833333,20.6333333
baywana,,09,1.5666667,30.0333333
bazaba,,00,2.95,25.0833333
baza,,00,-8.2833333,22.6166667
bazabi,,09,0.4666667,27.3333333
bazadu,,09,4.3166667,27.75
bazama,,00,1.2,27.9666667
bazamane,,09,1.4333333,25.2833333
baze,,00,4.2666667,25.7666667
bazede,,00,4.8833333,26.75
bazene,,02,4.6333333,18.9666667
baziboi,,09,0.7,26.25
bazilia,,00,3.4,26.6166667
bazua,,09,1.25,27.2
bazula,,09,0.55,25.2666667
bazuru,,00,3.0666667,27.1333333
bea bwanga,,03,-5.05,22.1666667
beaka,,00,-2.3166667,20.2833333
bea kuna,,03,-6.5333333,22.6333333
beala,,00,-2.3166667,20.2833333
beala,,02,-0.3333333,19.0666667
beambo,,02,-0.4333333,18.2666667
bea nkune,,03,-6.5333333,22.6333333
beba,,05,-10.0,26.3166667
bebe,,05,-10.0,26.3166667
bebentsie,,06,-3.7666667,16.5833333
bebongo,,02,-1.2333333,18.8
bediki,,01,-2.85,17.7833333
bedzamagosa,,09,1.8833333,30.1166667
beemba,,00,-0.8833333,20.1166667
befaki,,00,-1.6,19.7166667
befale,,02,0.4666667,20.9666667
befeke,,00,-1.2,20.4833333
befeko,,00,-1.2,20.4833333
befidji,,00,-1.5,19.9833333
befili,,02,-1.0166667,19.3333333
befori,,02,0.1,22.2833333
begbendu,,09,1.4,26.4
bego,,02,4.9333333,19.1833333
beila-mushamba,,05,-6.45,27.6833333
beindo,,00,2.6833333,27.05
beka,,00,3.7666667,27.1166667
beka,,01,-3.3833333,17.5666667
bekai,,02,0.2,19.05
bekale,,01,-2.45,18.3166667
bekali,,00,-0.7166667,21.6
bekalo,,01,-2.45,18.3166667
bekalo,,02,-0.35,18.5
bekamba,,00,-0.7,20.2166667
bekane,,01,-3.65,17.4333333
beke-balumbe,,02,0.2166667,19.0
beke,,02,0.2,19.05
bekeda,,09,1.8833333,25.9833333
bekeli,,02,-0.0166667,21.4166667
bekienio,,00,2.4833333,27.65
bekila,,02,1.3333333,21.4166667
bekili,,00,-0.7166667,21.6
bekili,,02,-0.0166667,21.4166667
bekiri,,02,0.0666667,20.7166667
beko,,00,2.7833333,30.7333333
beko,,01,-4.75,17.7666667
beko,,06,-4.7666667,17.4666667
bekokombo,,00,-2.6833333,19.35
bekoli,,00,-2.9,20.0666667
bekoli,,10,-2.1833333,25.85
bekoli-bekoli,,00,-2.9,20.0666667
bekolo,,02,-0.35,18.5
bekolongo,,02,-0.1833333,18.4
bekoma,,00,-3.4166667,20.55
bekombo,,00,-2.5833333,20.2
bekomie,,02,-0.4166667,21.4166667
bekondji,,02,0.0333333,19.2333333
bekonenianga,,00,-1.7166667,19.4166667
bekonenienge,,00,-1.7166667,19.4166667
bekongombolo,,00,-1.75,19.75
bekpenge,,09,1.7833333,26.9333333
bekungu,,00,-0.9666667,21.6
bekungu,,02,-1.3,19.35
bekwa,,09,1.7333333,30.4166667
bekwe,,00,3.6166667,26.0666667
bela,,00,4.2,22.75
bela,,09,0.6333333,29.2333333
bela dumbu,,01,-4.3333333,18.3666667
bela-mushamba,,05,-6.45,27.6833333
belapa,,00,-2.0333333,18.7166667
bele,,00,-4.2833333,21.85
bele,,01,-4.4166667,19.4333333
bele,,02,-0.6833333,18.9333333
bele-buluem,,01,-4.6166667,19.3333333
belebusongo,,01,-4.75,19.1833333
bele ii,,02,4.8,19.0833333
bele iii,,02,4.9333333,19.1333333
beleka,,05,-11.35,24.5333333
beleke,,09,1.0333333,25.2666667
beleko,,00,-1.0166667,21.4666667
belemba,,02,-0.4666667,18.5
belembe,,01,-2.55,18.3333333
belenga,,00,3.9,27.0
belenge,,00,-7.5166667,22.45
belenge,,03,-5.6666667,21.0166667
belengo,,00,3.95,26.6166667
belengu,,02,4.35,20.0
bele-tsemba,,08,-5.75,16.8333333
beleu,,00,2.9666667,29.2333333
belewe,,00,-2.9666667,18.5333333
bele yaliva,,02,4.9666667,19.3666667
belgika,,09,0.5333333,24.4166667
belika,,09,0.9333333,26.8833333
belinga,,00,-0.6,23.1333333
belingo,,00,-1.4666667,20.8333333
belisipiano,,00,3.1,26.8333333
bellewe,,00,-2.9666667,18.5333333
belo,,00,-0.5333333,23.2
belo,,01,-4.1,18.6166667
belo,,02,-5.2,20.0333333
belo-belo,,01,-3.7,17.3666667
belo-dumbu,,01,-4.3333333,18.3666667
belolo,,00,0.0166667,20.4333333
belombo,,00,-1.5666667,18.7
belondo,,00,-0.2666667,19.5166667
belondo,,02,-0.2833333,19.4833333
belondo-elinga,,02,-0.2833333,19.4833333
belondo-kundu,,00,-0.2666667,19.5166667
belonge,,00,-2.0166667,20.0166667
belongo,,00,-1.55,19.8166667
belshi,,12,-3.3405556,29.195
belu,,09,1.35,28.95
belue,,09,1.35,28.95
beluma,,10,-1.6,26.1666667
belunga,,04,-5.35,25.4
bema,,00,3.4666667,30.8
bemane,,04,-5.9833333,24.75
bemba,,08,-5.6833333,17.4666667
bemba-bunzi,,08,-5.4833333,13.05
bembambo,,02,0.2833333,18.6666667
bembanga,,02,0.1166667,21.15
bembe,,00,2.4166667,19.7
bembe,,02,3.2333333,19.0333333
bembe,,08,-4.5,14.0833333
bembele,,01,-4.8333333,18.9333333
bembele,,08,-5.8333333,16.05
bembele-fioti,,01,-4.85,19.4166667
bembele-intshum,,01,-4.8666667,19.5166667
bembeleya,,04,-6.4166667,25.1166667
bembo,,02,-1.35,19.2
bemfuga,,01,-2.9333333,18.1666667
bemomba,,00,-2.15,19.4833333
bempaka,,02,-0.3166667,18.4833333
bempe,,00,-8.0,29.2833333
bempumba,,02,-0.3666667,19.1666667
bena-bala,,04,-6.8,23.7833333
bena-baya,,04,-6.2666667,23.3333333
bena-bendi,,01,-4.2833333,20.35
bena-boi,,04,-6.4166667,24.0166667
bena-bondo,,03,-4.5666667,22.9333333
bena-boya,,04,-6.2666667,23.3333333
bena boy,,04,-6.4166667,24.0166667
bena-boyo,,04,-6.45,24.0166667
bena-buangu,,03,-4.9333333,22.6166667
bena-dibondo,,03,-4.6666667,22.7166667
bena-gandu,,03,-4.5666667,22.95
bena-gombe,,00,-5.05,26.2833333
bena-hamba,,05,-5.5833333,26.55
bena-imbuama,,00,-4.4333333,22.7
bena-imbuama-mangolo,,00,-4.4333333,22.7
bena-kabala,,04,-6.4833333,24.0
bena-kabamba,,04,-6.1833333,23.7166667
bena-kabangu,,04,-6.4,23.7666667
bena-kabea,,04,-6.6,23.7333333
bena-kabimba,,04,-6.3,23.65
bena-kabonga-a-ntshile,,04,-6.6,24.1666667
bena-kabonga,,04,-6.6,24.1666667
bena-kabongo,,04,-6.15,23.6833333
bena-kadima,,04,-6.25,23.7833333
bena-kadimbo,,03,-4.7666667,22.5
bena-kadimbu,,03,-4.7666667,22.5
bena-kafulu,,03,-6.75,23.2166667
bena-kafutu,,03,-6.75,23.2166667
bena-kakona,,04,-6.6,23.5666667
bena-kakono,,04,-6.6,23.5666667
bena-kalangala,,03,-6.8166667,22.9
bena-kalengela,,03,-6.6666667,21.55
bena-kalombo,,03,-5.05,22.85
bena-kalombo,,04,-6.65,23.7333333
bena-kalondji,,04,-6.1833333,23.3833333
bena-kalonji,,04,-6.1833333,23.3833333
bena-kaluba,,04,-6.5,23.6166667
bena-kalula,,04,-6.5833333,23.8666667
bena-kalunsi,,03,-6.3666667,22.7166667
bena kamba,,10,-2.4,25.1
bena-kana,,00,-5.0666667,26.1
bena-kande,,04,-6.3166667,23.65
bena kaniane,,04,-6.7833333,23.85
bena-kaniki,,04,-6.75,23.5166667
bena-kanioka,,03,-4.8666667,21.65
bena kapemba,,04,-6.25,23.7833333
bena-kapeta,,03,-6.4833333,23.25
bena-kapiamba,,04,-6.4333333,23.7166667
bena-kapuadi,,04,-6.2,23.5166667
bena-karabi,,10,-1.7333333,26.0333333
bena-kasadi,,04,-6.6333333,24.1833333
bena kasamba,,03,-6.5833333,24.5
bena-kayemba-a-tshimanga,,04,-6.5833333,23.7
bena-kayembe,,00,-5.2833333,25.6666667
bena kayembe,,04,-6.5833333,23.7
bena-kazadi,,03,-6.35,22.6
bena-konji,,02,-5.4666667,20.4833333
bena-leka,,03,-5.1333333,22.1666667
bena-loanga,,00,-4.3666667,20.6166667
bena-lulenga,,04,-6.5833333,24.1
bena-lungu,,04,-6.3666667,23.65
bena-makima,,03,-4.9666667,21.1
bena-malungu,,04,-6.3666667,23.8833333
bena-mande,,04,-6.6833333,24.0333333
bena-manshi,,03,-4.85,22.55
bena mbaie,,04,-6.4166667,24.0166667
bena-miepo,,03,-4.6666667,22.9666667
bena-milamba,,04,-6.5166667,24.15
bena-mishi,,00,-5.0166667,26.3333333
bena-miskelenge,,03,-7.1833333,22.9333333
bena mpasu,,04,-6.8,23.9833333
bena-mpata,,04,-6.8,24.1333333
bena-mualaba,,04,-6.4333333,23.5833333
bena-muamba,,04,-6.0333333,23.5333333
bena-mukendi,,04,-6.7,23.6833333
bena-mukoma,,03,-4.7166667,22.8666667
bena mulamba,,04,-6.8666667,24.05
bena-mulumba,,00,-4.3666667,20.7333333
bena-mulumba,,03,-6.5333333,23.25
bena-mulumba,,04,-6.3666667,23.65
bena-munganda,,04,-6.5333333,23.9166667
bena-musampa,,04,-6.4166667,23.8666667
bena-mushia,,04,-6.4666667,23.85
bena-ngaia,,04,-6.3666667,23.75
bena-ngoie,,04,-5.8333333,24.2833333
bena-ngoyi,,04,-6.4833333,23.4833333
bena-nse,,03,-4.6666667,22.85
bena-nseyi,,03,-4.6666667,22.85
bena nsise,,04,-6.5,23.85
bena n'solo,,04,-6.5833333,24.8666667
bena-nsoni,,04,-6.6666667,23.8166667
bena ntise,,04,-6.5,23.85
bena-ntite,,04,-6.5,23.85
bena-nukendi,,00,-5.1833333,26.0333333
bena-odia,,03,-6.5166667,23.3666667
bena-pasu,,04,-6.8,23.9833333
bena pata,,04,-6.8,24.1333333
bena-piano,,04,-6.6,23.9
bena-poie,,04,-6.2,23.55
bena-pongo,,03,-6.2833333,22.7
bena-pungwa,,03,-6.8,23.5333333
bena-samba,,03,-5.0833333,21.6666667
bena-shamba,,03,-4.95,22.6166667
bena-soma,,03,-6.9333333,22.8833333
bena-sona,,03,-6.9333333,22.8833333
bena sona,,04,-6.6666667,23.8166667
bena-sungu,,03,-4.6833333,23.0
bena-tala,,00,-5.1833333,26.3333333
bena-tanda,,04,-6.1166667,23.3666667
bena-tomba,,04,-6.45,23.95
bena-tshabela,,03,-4.9166667,22.5833333
bena-tshadi,,03,-4.6666667,22.8166667
bena-tshiamba,,04,-6.6333333,23.9166667
bena-tshibala,,04,-6.5833333,23.9666667
bena-tshibanda,,04,-6.7,23.7
bena-tshibangu,,04,-6.1833333,23.65
bena-tshiloba,,03,-6.4166667,23.2166667
bena-tshilombo,,03,-7.0833333,23.8333333
bena-tshimpamba,,04,-6.2,23.7333333
bena-tshimpuma,,04,-6.3166667,23.7166667
bena-tshinamu,,04,-6.5833333,23.7166667
bena-tshipamba,,04,-6.2,23.7333333
bena-tshipanga,,03,-4.6166667,22.85
bena-tshishimbi,,04,-6.1833333,23.5666667
bena-tshiswaka,,04,-6.6166667,23.5
bena-tshitala,,04,-6.6833333,23.5833333
bena-tshitolo,,00,-5.3833333,25.7333333
bena-tshove,,04,-6.25,23.6333333
bena-tumba,,03,-4.8666667,22.6333333
bena-tumba,,04,-6.0666667,23.5166667
bena-twite,,04,-6.4,23.9166667
bena-vute,,00,-5.1166667,26.25
bena-zeba,,04,-6.4833333,23.8833333
bende,,01,-4.3166667,17.9
bende,,08,-4.8,13.8166667
bendela,,01,-3.3,17.6
bendela,,03,-4.9333333,23.45
bendel,,01,-3.3,17.6
bendele,,00,3.7666667,26.6833333
bendele,,04,-6.4666667,25.3
bendera,,05,-5.0655556,28.9155556
bendera,,09,0.5666667,29.4833333
bendere,,00,3.0666667,29.7666667
bendere,,02,2.85,18.75
bendi,,03,-7.3,22.4833333
bendjefe,,02,2.1,22.1833333
bendji,,02,-4.95,20.0333333
bendo,,00,2.6833333,27.05
bene,,01,-3.8,18.2666667
bene-bongali,,01,-3.4166667,17.9166667
bene dibele,,00,-4.1166667,22.8333333
benga,,00,-3.9333333,21.6833333
benga,,02,-5.25,17.75
bengamisa,,09,0.9183333,25.2138889
bengana,,01,-3.15,17.1
bengbe,,00,2.95,23.2166667
benge,,00,2.9333333,25.75
bengemba,,00,-0.5833333,23.05
bengenga,,09,4.8333333,27.6833333
bengengai,,09,4.8333333,27.6833333
bengi,,00,3.7833333,23.5833333
bengi,,01,-4.6333333,18.35
bengi,,02,-0.2333333,18.6333333
bengo,,00,-2.1833333,19.0833333
bengo,,02,2.6166667,20.0
bengobiri,,10,-2.6333333,26.5333333
bengu,,08,-5.2333333,15.2833333
bengundju,,02,0.85,20.8166667
beni,,11,0.5,29.4666667
benienie,,00,-2.5166667,19.3333333
benjamin,,05,-10.5,25.2
benkanga,,02,0.1833333,19.35
benkomi,,00,-0.7166667,21.1166667
benkuna,,03,-6.5333333,22.6333333
benkwese,,02,-0.5333333,18.5333333
beno,,01,-3.6166667,17.8
bensami,,00,-0.5666667,21.0333333
bensati,,06,-4.2466667,15.5808333
bensenge,,00,-0.8666667,19.9333333
bensombo,,00,-0.65,22.05
bentari,,00,-2.95,18.6833333
benye,,01,-1.9666667,17.15
benzale,,06,-4.1333333,16.6666667
benzari ii,,00,2.95,22.25
benze,,05,-5.95,28.2166667
berangba,,09,4.3333333,27.75
beremu,,00,3.3,27.1666667
bero,,00,2.15,20.4
berunda,,09,2.3166667,30.3166667
besai,,01,-2.8666667,17.45
besako,,00,-1.55,18.55
besangi,,00,-1.1666667,20.5166667
besarabwe,,11,0.0166667,29.2
besaw,,01,-2.0,17.7333333
besaw,,02,-1.3666667,18.9833333
besebe,,09,0.5833333,27.45
bese,,07,-0.9166667,28.7333333
besefe,,02,-0.7833333,18.7
beseli,,00,4.2666667,21.2833333
besenge batwa,,00,-1.9666667,19.9333333
besenge,,00,-1.9666667,19.9333333
besiro,,01,-2.0333333,16.95
besiro,,02,-1.2166667,18.9166667
besisa,,00,3.2666667,25.5
beso,,00,-1.1833333,21.9333333
besoi,,00,-1.1833333,21.9333333
besoie,,00,-1.1833333,21.9333333
besoke,,00,-1.2,22.9666667
besolongo,,00,-1.1166667,20.3333333
besomba,,00,-0.75,23.3166667
besombi,,00,-1.9833333,18.65
besombo,,00,-0.5666667,20.1166667
besombo,,02,-0.4666667,19.0
besombo-nkasa,,00,-0.5666667,20.1166667
besongo,,00,-0.0666667,19.9
besongo,,04,-5.35,25.2
besongote,,00,-0.5666667,21.0833333
besongoyolo,,00,-1.8166667,22.85
besore,,09,2.3333333,24.9666667
besow,,00,-1.1333333,20.2666667
besu,,00,3.85,22.9666667
besulu,,02,0.0666667,19.4333333
betaleo,,05,-10.5172222,26.9116667
betamba,,00,-0.7,20.2166667
betamba i,,00,-1.6333333,20.7
betamba ii,,00,-1.6333333,20.7166667
betambefe,,00,-1.6333333,19.6333333
betambele,,00,-1.6333333,19.6333333
bete,,00,3.2666667,25.9833333
bete,,08,-5.5,13.8666667
beteli,,00,-2.9,22.3166667
betenkoi,,00,-2.65,19.6166667
betenkoie,,00,-1.6333333,19.3333333
bethanie,,01,-4.4,19.3166667
bethenze,,03,-6.9166667,23.4833333
betoko,,00,-1.1,19.65
betoko,,02,-0.65,19.3666667
betongwe,,00,2.5666667,28.2666667
betukulu,,09,1.6,25.5333333
betumbe,,00,-1.0666667,21.2166667
betumbe-bongo,,00,-2.1833333,18.7666667
betume,,00,-1.0666667,21.2166667
beya,,00,-6.7333333,26.55
beya,,05,-5.6833333,27.4
beya-bwanga,,03,-5.05,22.1666667
beze,,02,4.8666667,19.3
bezi,,05,-9.2166667,23.85
bezigo,,00,3.95,23.9666667
bia,,00,3.4666667,24.25
biaboko,,03,-7.2,21.9666667
biaboy,,11,0.3666667,28.7166667
biaboye,,11,0.3666667,28.7166667
biabune,,09,0.5833333,28.85
biahimoni,,00,2.1666667,27.8666667
biaka,,00,4.2666667,21.4166667
biakabonga,,03,-6.2833333,21.0333333
biakatu,,09,0.85,29.2333333
biakuambula,,03,-7.25,21.8333333
biala,,00,3.35,23.7166667
biala,,02,0.0666667,21.05
bialala,,10,-2.5833333,24.8666667
biali,,10,-3.9166667,25.0
biali-pene-lombe,,10,-4.3166667,26.1333333
biambe,,11,0.2666667,28.95
biambwe,,11,0.2666667,28.95
biamo,,00,-0.8166667,20.2833333
biamongo,,00,4.4666667,23.0833333
bianambula,,02,-1.4166667,19.1666667
bianga,,00,-1.5333333,20.05
bianga,,08,-5.05,13.0833333
biangala,,01,-3.0333333,16.8166667
biangala,,06,-2.9333333,16.1833333
bianganga,,07,-2.2333333,27.7333333
biangwa,,00,-8.7666667,27.3833333
biano,,05,-10.2166667,26.0666667
biaranga,,00,-1.7833333,19.4666667
biaro,,09,0.2375,25.3163889
biasiko,,09,0.85,28.8333333
biavu,,00,4.5333333,23.9166667
biaya,,11,-1.6333333,27.0666667
biaye,,03,-7.0833333,23.4833333
biazingi,,00,4.3833333,25.9833333
bibama iii,,11,-1.4763889,28.5536111
bibanga,,04,-6.25,23.9333333
bibanga,,08,-4.8625,15.5933333
bibatama,,07,-1.45,29.0333333
bibatama i,,11,-1.3666667,28.5833333
bibatama ii,,11,-1.4333333,28.5666667
bibemba,,12,-3.3347222,28.7625
bi,,09,1.7166667,30.4166667
bibia,,02,4.2166667,19.6666667
bibi,,00,3.4,29.2
bibi-kitambi,,10,-2.6666667,25.8333333
bibinga,,12,-2.55,27.8833333
bibogi,,09,0.8,27.45
bibomba,,00,1.6666667,18.1666667
bibomba,,03,-7.3833333,23.9666667
bibu,,00,1.2166667,27.9166667
bida,,02,4.6166667,20.0333333
bideka,,07,-2.8125,28.9177778
bidia,,00,0.25,19.7833333
bidiamba,,00,-1.8333333,22.5833333
bidi,,08,-5.0333333,13.95
bidi-kabulo,,05,-9.8,24.25
bidi-kindamba,,08,-5.0333333,13.95
bidiko,,00,-7.2833333,26.85
bido,,02,2.7,19.7666667
bidsa,,00,0.25,19.7833333
bidu,,00,1.2333333,27.9666667
bie,,04,-6.6,25.0666667
biegu,,09,3.5666667,27.7333333
biekumbu,,00,-2.8166667,23.6666667
bie-luboya,,04,-6.6,25.0666667
biena,,06,-4.7913889,15.8830556
bienga,,08,-4.55,14.0333333
biengama,,00,2.5833333,27.5666667
bienge,,00,-4.35,20.5666667
bienge,,02,-5.6,19.7666667
bienge-katundu,,02,-5.6,19.7666667
bienge-kidiata,,02,-5.8166667,20.35
bienzi,,01,-4.5833333,19.0333333
biera,,12,-4.3269444,29.0438889
bieti,,09,0.6833333,24.3833333
bif djuwa,,02,0.15,19.2666667
bifie,,06,-3.95,16.5333333
bifubuza,,07,-3.0755556,28.8263889
bigaumbu,,00,-2.8166667,23.6666667
bigbitambilambila,,00,3.1666667,27.4833333
bigbobo,,09,1.2833333,25.5333333
bigbogbo,,09,1.2833333,25.5333333
bigbuli i,,00,0.9166667,27.7833333
bigbuli ii,,00,0.8833333,27.7833333
bigbulu,,00,1.0333333,27.6166667
bigi,,00,3.05,22.3833333
bigobo,,05,-5.4833333,27.6
bihiro,,11,-1.4202778,28.8661111
bihito,,11,-1.4202778,28.8661111
bihumbu,,02,-4.4666667,20.45
bika,,02,4.3,20.4333333
bikaki,,02,-1.4333333,18.9833333
bikana,,00,-9.4166667,22.9833333
bikaniro,,07,-1.5916667,28.9141667
bikara,,11,-0.25,29.2
bikata-kasera,,10,-1.65,25.9833333
bikenge,,10,-3.05,26.45
bikenge,,12,-2.3833333,27.3833333
bikili,,00,-0.7166667,21.6
bikongo,,00,3.8,23.8166667
bikoro,,02,-0.75,18.1166667
biku,,00,2.3166667,27.6333333
bikutu,,00,2.9666667,26.25
bila,,02,4.75,20.0
bila,,05,-5.5166667,26.9833333
bilali,,00,-7.8,29.7833333
bilali,,10,-4.4333333,28.0666667
bilali-pene-lombe,,10,-4.3166667,26.1333333
bilani,,00,3.2833333,27.4333333
bilankamba,,00,-0.2166667,19.7333333
bilati,,11,-0.5575,28.8013889
bilembo,,02,-5.8666667,17.65
bilembo,,12,-3.0,28.3333333
bilenge,,03,-6.4833333,21.0
biliba,,00,3.6166667,26.8666667
biliba,,07,-3.1266667,29.1477778
bili,,00,3.4666667,27.2333333
bili,,02,4.5666667,19.9333333
bilibua,,12,-2.6833333,27.8333333
bilibwa,,12,-2.6833333,27.8333333
bilika,,09,3.6,27.7666667
biliki,,09,4.0833333,27.7833333
bilikindi,,00,3.4666667,25.0
bilikono,,02,4.6,20.0166667
bilili,,01,-4.2833333,18.0666667
bilima,,02,-0.6666667,19.1666667
bili-moke,,02,4.5333333,19.95
bilimusa,,10,-4.2333333,26.1833333
bilingu,,00,3.25,30.0166667
biliniama,,09,-0.4166667,25.6666667
bilio,,02,4.2166667,19.6666667
biliona,,02,0.8666667,20.5166667
biliza,,00,4.2,22.9333333
biliza,,12,-3.2666667,28.1833333
bilobilo,,11,-1.3166667,27.9166667
bilole,,12,-3.2947222,28.7844444
bilombo,,05,-5.1166667,26.8333333
bilota,,11,0.0166667,27.9
bilubi,,01,-1.8166667,17.45
bilu,,11,-1.55,27.0833333
biluma,,11,-1.2877778,29.3858333
bilundule,,11,-0.35,29.1333333
bima,,00,2.65,26.7
bimangi,,10,-3.2166667,26.6833333
bimbi,,02,1.8333333,21.7833333
bimbi,,09,-1.35,25.2666667
bimbi c.t.c. mitukus,,09,-1.35,25.2666667
bimbili,,00,-0.2666667,20.2
bimbo,,04,-5.65,25.4333333
bimpanga,,12,-3.7,27.6166667
bimpombe,,10,-2.4833333,26.8
bimva,,00,3.45,29.3666667
bina,,10,-1.7333333,25.95
binanga,,08,-4.7891667,15.3097222
binangi,,00,3.35,23.9833333
bina-zumbu,,10,-1.8,26.0333333
binda,,00,-9.6,22.7333333
binda,,08,-5.5666667,14.0
bindakana,,00,-9.4166667,22.9833333
binda-nseke,,06,-4.7,16.8333333
binde,,02,-4.85,19.9
bindi,,02,4.3833333,20.25
bindja,,00,-3.4166667,19.6333333
bindja-nord,,00,-3.3666667,19.6666667
bindja-sud,,00,-3.4833333,19.65
bindji,,02,-6.2166667,19.4
bindjili,,04,-5.25,25.4
bindjiri,,04,-5.25,25.4
bindolo,,09,3.5833333,29.9166667
bindu,,00,-7.7,19.1
bindungi,,02,-5.5166667,17.8333333
binga,,00,2.3833333,20.5
binga,,08,-5.1,13.1166667
binga-vula,,02,-5.45,19.1
bingbe,,00,3.0166667,22.3833333
bingia,,00,3.55,23.8833333
bingi,,02,3.4166667,18.8666667
bingi,,11,-0.4041667,29.0752778
bingikila,,02,-6.0333333,19.9833333
bingo,,09,0.5333333,29.3166667
bingoli,,02,0.15,22.1333333
bingundu,,10,-3.7166667,26.55
binigbia,,00,3.6833333,22.9166667
binionio-malungu,,10,-4.3666667,26.35
binko-musese,,01,-4.2833333,19.8833333
binkutu,,12,-3.5,27.2
binombi,,10,-2.7333333,26.2333333
binsa,,08,-5.7,15.4666667
binsampala,,08,-4.5636111,15.1647222
binsha,,07,-1.0469444,28.9888889
binya,,00,2.8666667,30.7833333
binza,,07,-1.05,28.9
binza,,08,-4.3558333,15.2397222
biodi,,00,3.3166667,28.5833333
biombo,,08,-4.8,14.1833333
biombua,,00,-5.0166667,25.9333333
biondo,,09,-0.3833333,25.2166667
bionga,,00,-0.5666667,23.0
bionga,,07,-2.2333333,27.7333333
bionga,,12,-3.35,28.1166667
bionga i,,07,-2.2333333,27.7333333
biongo,,08,-4.8,14.1833333
biongwe,,04,-6.1,25.4333333
bioro,,00,4.2333333,26.5666667
biosha,,03,-5.7763889,22.4008333
bipai,,00,4.7833333,25.6
bipalo,,10,-4.15,28.2666667
bipangu,,01,-4.9166667,18.45
biponi,,01,-1.85,17.2666667
bira,,02,4.3,20.4333333
birambizo,,07,-1.2,29.1333333
birati,,00,3.9,25.9833333
birava,,12,-2.2930556,28.8008333
birawa,,12,-2.2930556,28.8008333
birhala,,07,-2.8447222,28.6716667
biriba,,07,-1.0452778,28.7080556
birika,,10,-4.1666667,27.5833333
biriko,,07,-1.74,28.6725
biriku,,11,-0.6844444,28.7055556
biringi,,00,2.8,30.3333333
biriseke,,11,-0.7,29.0833333
biruwe,,11,-1.1833333,27.65
bisalo,,00,4.1,23.6333333
bisamengo,,10,-2.5833333,26.6
bisanga,,09,0.9,24.15
bisangandu,,00,-3.95,20.9333333
bisango,,00,4.7,22.8833333
biseka,,08,-4.6086111,15.1441667
biseke,,08,-4.7652778,15.3472222
bisembe,,12,-3.1833333,28.1833333
bisembo,,12,-2.9833333,27.2666667
bisenge,,00,-1.9666667,19.9666667
bisenge,,02,0.0833333,22.2833333
bisesu,,03,-5.15,22.8666667
biseye,,01,-4.0833333,19.0333333
bishaka,,12,-3.3183333,28.7927778
bishanga,,03,-4.5166667,21.0333333
bishombo,,12,-3.5458333,28.8108333
bishongera,,11,-1.1980556,29.2486111
bishusha,,07,-1.2661111,29.1127778
bishwira,,07,-2.4413889,28.7327778
bisiege,,10,-3.9166667,27.4333333
bisika,,08,-4.5497222,15.0519444
bisinza,,08,-4.8166667,14.3666667
bisiri,,12,-4.6666667,28.7166667
biso,,07,-1.6083333,28.7805556
bisoka,,10,-3.2333333,26.45
bisombe,,12,-3.1833333,28.1833333
bisusukila,,03,-5.8,22.1333333
bita,,06,-4.2619444,15.79
bita,,09,-1.25,25.3166667
bitakongo,,11,-0.5169444,28.9169444
bitari,,06,-4.4166667,16.8666667
bitari-lonzo,,06,-4.7166667,16.6833333
biteba,,05,-8.1,24.4833333
biteke,,02,-0.9666667,18.3
biti,,08,-4.7822222,15.3075
bitima,,09,4.35,28.6166667
bitobolo,,12,-3.0333333,27.1833333
bitongo,,00,-0.9833333,22.9666667
bitongo,,07,-1.5283333,28.8397222
bitongo,,11,0.35,29.35
bitsamba,,00,-6.6166667,17.5
bitsambele,,01,-5.05,19.4166667
bitshambele,,01,-5.05,19.4166667
bitshambele,,02,-5.45,19.2833333
bitshombo,,12,-3.5538889,28.8480556
bitule,,11,-0.95,27.05
bitumba,,10,-4.2833333,27.1666667
bitumba,,12,-3.3666667,28.1166667
bitupu,,05,-7.9,24.0833333
bituta,,08,-5.6833333,17.4166667
biunkutu,,10,-3.5833333,26.6833333
bivovolo,,08,-4.85,12.9666667
biwaya,,05,-5.55,26.7833333
biyi,,04,-6.5,25.45
bizinzo,,12,-3.0,28.1333333
black river,,06,-3.9833333,15.8666667
blidana,,09,1.6166667,30.2
blukwa,,09,1.75,30.6
boabindo,,02,3.3333333,19.2333333
boa,,00,-3.4833333,23.5
boa,,05,-10.5333333,28.1
boala,,00,0.0666667,19.7166667
boalangombe,,02,-0.4166667,18.8
boanda,,00,-2.1,19.6333333
boanda,,02,-0.95,17.6833333
boanda-moke,,02,-0.95,17.6833333
boanda-monene,,02,-0.9,17.6666667
boanda-munene,,02,-0.9,17.6666667
boanga,,00,-0.2666667,20.05
boangi,,00,-1.85,20.9333333
boangi,,02,-0.3333333,18.75
boango,,02,-0.2333333,21.3666667
boati,,02,0.25,18.7166667
bobabili,,02,3.0833333,19.05
bobademana,,00,3.15,20.5333333
bobadi,,02,3.1,20.35
bobadi,,09,1.6,25.4166667
bobadi-boyanobela,,02,3.1166667,20.3833333
bobadi-moke,,02,3.2166667,20.3333333
bobadono,,02,2.9666667,19.3833333
bobadoro,,02,3.1666667,19.1
bobadu,,00,3.7,20.7833333
bobai,,02,3.3,20.4666667
bobakutu,,02,3.5666667,19.25
bobalabandambo,,01,-2.35,16.9833333
bobala,,01,-2.5666667,17.4833333
bobala,,02,-1.1833333,19.0833333
bobalabondamo,,01,-2.35,16.9833333
bobala i,,01,-3.4,17.4
bobala ii,,01,-3.4333333,17.4
bobalama,,02,3.1666667,19.1
bobalia,,00,3.25,20.65
bobalia,,02,2.8333333,19.4
bobalingana,,02,3.1666667,19.1166667
bobamaya,,02,3.8,20.45
bobambe ii,,02,3.6166667,19.7166667
bobambu,,00,1.4,20.25
bobambwa,,00,3.25,25.1
bobana,,00,2.5833333,23.2166667
bobanda,,02,-0.65,18.2833333
bobande,,09,1.4666667,25.3
bobandje,,02,4.95,19.95
bobandu,,02,3.0333333,18.9333333
bobanga,,02,-1.1666667,17.1
bobanganda,,00,3.5166667,20.7333333
bobangi,,00,1.25,19.5333333
bobangi,,01,-1.9,18.3166667
bobangi,,02,-0.1,17.75
bobani,,02,2.95,19.5
bobate,,09,2.0166667,25.95
bobati,,09,1.2833333,24.2666667
bobati i,,09,1.2833333,24.2666667
bobati ii,,09,1.2833333,24.2166667
bobaya,,00,3.25,20.65
bobei,,00,2.5,18.85
bobeka,,00,1.6,18.2
bobeke,,01,-2.35,17.7
bobele,,02,0.5333333,18.3833333
bobelo,,00,-4.2833333,22.0166667
bobende,,00,-1.8833333,19.6166667
bobende,,02,2.0333333,21.4333333
bobende,,09,1.5666667,25.2166667
bobende i,,09,1.5666667,25.2166667
bobenga,,09,1.6666667,25.6333333
bobenge,,09,1.9333333,25.3833333
bobeta,,00,3.0166667,21.1166667
bobey,,00,2.5,18.85
bobibe,,00,2.5333333,23.25
bobi,,02,2.5833333,19.3833333
bobie,,02,2.3,21.75
bobiengele,,02,3.4,19.3833333
bobila,,02,2.2166667,21.1166667
bobili,,02,-1.1166667,17.35
bobilisi,,02,3.85,20.3166667
bobindu,,02,3.2666667,19.0833333
bobisi,,02,3.55,19.3333333
bobiti,,09,0.7833333,25.15
bobito,,02,2.95,19.4166667
bo,,00,2.9666667,30.1333333
bobo,,02,4.3166667,20.1333333
bobogi,,09,0.8,27.45
boboi,,04,-4.95,24.8166667
boboie,,04,-4.95,24.8166667
bobo ii,,01,-3.55,18.5
boboke,,02,1.1,18.2666667
boboko,,02,1.3333333,18.1166667
bobola,,05,-10.6833333,27.3833333
bobole,,02,-0.8,18.1166667
bobolo,,02,1.3166667,18.2666667
bobolo,,11,-1.3333333,27.9666667
bobongo,,00,2.5333333,23.5333333
bobongo,,02,4.0713889,18.6561111
boboso,,00,3.4166667,21.0833333
bobowa,,00,2.2666667,27.65
boboy,,04,-4.95,24.8166667
boboye,,04,-4.95,24.8166667
bobua,,02,-0.55,19.35
bobudu,,00,3.4333333,20.7833333
bobulamo,,00,-2.0833333,19.5
bobulamo,,02,-1.1,18.85
bobuli,,09,1.2666667,23.9166667
bobulu,,00,3.5833333,20.5166667
bobusu,,00,3.4333333,20.65
bobuti,,00,1.7833333,27.5166667
bobutu,,00,3.5833333,20.5166667
bobwamboli,,09,1.8666667,25.7666667
bobwengende,,00,3.5,20.7166667
bodaba,,00,3.0166667,22.5833333
boda,,00,2.3,27.6333333
bodadi,,09,1.6,25.4166667
boda-gambwa,,00,3.5333333,23.5833333
bodalangi,,00,3.2333333,22.2333333
bodambila,,09,1.0833333,25.2
bodambule,,02,3.3833333,20.4833333
bodambuli,,02,3.3833333,20.4833333
bodangabo,,00,3.75,20.5166667
bodangabo,,02,3.6666667,20.0666667
bodangania,,02,2.8666667,19.6166667
bodangoba,,00,3.75,20.5166667
bodango,,02,3.2166667,19.9666667
bodara,,02,3.7666667,18.8666667
bodaragba,,02,3.05,19.7166667
bodede,,00,2.85,22.8333333
bodeme,,02,3.75,19.5833333
bodeme ii,,02,3.2666667,19.5833333
bodenga,,02,3.25,19.65
bodenge,,02,3.25,19.65
bodengo,,02,2.7833333,19.0
bodetwa,,02,3.4333333,19.8333333
bodgokola i,,02,3.8,20.4166667
bodiawa,,02,2.9666667,19.6833333
bodi-bodali,,09,2.45,23.6666667
bodienga,,00,3.6333333,20.6
bodiewa,,02,2.9666667,19.6833333
bodigia,,00,2.8,20.6333333
bodigia,,02,3.35,19.3833333
bodila,,08,-5.05,14.1666667
bodimu,,01,-4.35,18.6666667
bodinga,,09,1.2333333,25.5666667
bodiwa,,02,3.15,19.8166667
bodjaba,,02,1.0333333,18.45
bodjaba,,09,1.6,25.0666667
bodja,,01,-3.25,18.45
bodjakadamo,,00,3.8166667,20.55
bodjo,,01,-2.4666667,16.2666667
bodjoki,,00,2.9833333,22.3
bodjokola,,02,3.9,20.2833333
bodjoma,,06,-2.7,16.4666667
bodjuna,,06,-2.7,16.4666667
bodolanga,,00,3.2333333,22.2333333
bodolowe,,02,3.9833333,20.05
bodoma,,09,1.9833333,25.9833333
bodomere,,02,4.1,19.3333333
bodongodare,,02,3.05,19.9166667
bodorofio,,02,3.5166667,20.45
bodorowe,,00,3.8,20.55
bodow,,02,0.9,22.7833333
boduasa,,00,3.5333333,20.7666667
bodubwa,,00,2.4,19.0166667
bodugbu,,00,3.4666667,20.55
bodugbu,,02,3.5666667,20.5
boduko,,02,3.6833333,18.7166667
boduli,,02,3.6833333,19.1
bodumbili,,02,3.1666667,19.7166667
boduna,,02,5.1,19.7333333
bodungula,,02,3.3166667,20.3833333
bodurungba,,02,3.8,19.5333333
bodurungbura,,02,3.8,19.5333333
bodurungbwa,,02,3.8,19.5333333
bodurungbwe,,02,3.8,19.5333333
bodwadoro,,02,3.3,20.4333333
bodzame,,00,2.95,21.7
bodzinga,,02,2.9,19.4666667
bodzunu,,01,-3.0166667,18.0666667
boeke,,00,-0.2666667,19.5166667
boeke,,02,0.1,20.8666667
boeki,,00,-0.2666667,19.5166667
boeli,,00,4.1666667,27.0833333
boende,,00,-0.7833333,21.1333333
boende,,02,-0.2166667,20.8666667
boende moke,,02,-0.3166667,20.7
boende-moke,,02,-0.4166667,22.2333333
boendjola,,00,-0.1833333,19.5166667
boendu,,00,0.95,20.0666667
boendu,,02,1.3666667,21.4
boendzola,,00,-1.0333333,19.9666667
boene,,00,-0.9666667,21.55
boenga,,00,0.0166667,19.7833333
boenga,,02,0.1166667,19.3666667
boenge,,00,-2.9,22.2666667
boenge,,08,-5.4333333,15.1833333
boenjola,,00,-0.6666667,19.8
boenza,,02,1.0,20.65
boenze,,08,-5.35,14.25
bofafela,,00,-0.8,22.4166667
bofalamboka,,02,-0.4,19.05
bofandjoa,,00,-0.5166667,20.0666667
bofandjua,,00,1.2166667,19.8166667
bofela,,02,1.9333333,21.7333333
bofela,,09,-0.9666667,26.35
bofele,,02,0.7666667,23.0
bofete,,00,-0.6166667,22.9166667
bofila,,02,-0.15,21.15
bofoku,,00,-0.95,20.8833333
bofomoa,,00,-0.4,19.8166667
bofongi,,00,1.1333333,19.9166667
bofongo,,02,1.35,22.0666667
bofono,,00,-0.7833333,21.3833333
bofoto,,02,1.45,21.1833333
bofuku,,00,-0.95,20.8833333
bofulafu,,00,3.55,20.7666667
bofulu,,00,-2.8666667,20.05
bofwazoko,,09,1.8333333,26.5833333
bogabo,,07,-1.4925,28.7986111
boga,,09,1.05,29.9333333
bogale,,02,3.1,19.0833333
bogan,,02,3.4666667,20.1666667
bogata,,09,1.7166667,25.35
bogate,,02,4.7,18.9666667
bogbadi,,00,3.8,20.5333333
bogbaga,,02,3.1166667,20.15
bogbakusa,,00,3.2333333,20.5333333
bogbakusu,,00,3.2333333,20.5333333
bogbali-buyakamba,,02,3.75,19.05
bogbalu,,02,3.9166667,20.15
bogbanoga,,02,3.1166667,20.35
bogbanza,,02,3.4833333,20.4166667
bogbanzele,,02,3.9833333,20.05
bogbasika,,02,3.7833333,18.9
bogbasiko,,02,3.7833333,18.9
bogbasiko-kaimba,,02,3.7666667,19.05
bogbazima,,00,3.1166667,20.6
bogbema,,02,2.9833333,19.5333333
bogbiminzo,,02,3.0333333,20.4
bogbo,,00,2.9666667,25.1166667
bogbode,,09,1.7,25.8
bogbogobo,,09,1.6666667,24.3833333
bogbondjo,,00,3.3333333,20.6333333
bogbonga,,00,1.5833333,19.4166667
bogbonga,,02,0.9666667,19.25
bogbonia,,00,2.25,20.45
bogbulumu,,02,2.75,19.1333333
bogbulunu,,02,2.75,19.1333333
bogbwala,,02,3.3,20.2333333
bogbwali-barasa,,02,3.6,19.1666667
bogbwali,,02,3.75,19.05
bogbwindi,,02,3.5166667,19.3833333
boge,,09,2.4833333,26.1666667
bogelenza,,00,2.8666667,22.8333333
bogene,,02,3.3,20.1666667
bogeze,,02,3.1166667,19.8166667
bogfafala,,00,3.4666667,20.5333333
bogilazo,,02,3.8166667,18.9666667
bogilima,,02,3.5666667,19.2666667
bogiraza,,02,3.8333333,18.9833333
bogirazo,,02,3.8333333,18.9833333
bogo,,02,4.6833333,18.9666667
bogode,,02,3.9666667,19.4833333
bogofo,,00,3.65,20.8666667
bogogo,,02,4.1833333,19.4333333
bogon,,02,3.3666667,20.2666667
bogonda,,00,3.8,20.7666667
bogondja,,00,3.0666667,21.05
bogondza,,00,3.0666667,21.05
bogoro,,02,3.0666667,19.9
bogoro,,09,1.4,30.2833333
bogose,,02,3.5666667,19.75
bogose-boyambi,,02,3.5666667,19.2666667
bogose-konu,,02,3.45,19.7333333
bogose-nubea,,02,3.5666667,19.75
bogozo,,00,3.3666667,20.95
bogseglia,,02,3.9333333,20.1166667
bogu,,00,2.7833333,30.1333333
bogula,,02,3.9,20.2666667
bogutali,,00,3.0666667,29.2333333
bogute,,02,3.3,20.3833333
bogwala,,02,3.2,20.1166667
bogwalo,,02,3.2,20.1166667
bohano,,11,0.0666667,29.2
bohema,,09,0.9666667,23.6833333
bohoke,,02,-0.7833333,19.0666667
bohoko,,02,-0.7833333,19.0666667
boholo,,09,0.9,23.8333333
bohombuli,,02,2.4166667,22.35
bohulu,,09,0.6,23.8
bohuma,,09,0.9333333,23.8
bohumba,,09,0.9333333,23.8
bohuna,,09,0.9333333,23.8
bohutu,,09,0.9,23.9333333
boi,,00,-7.5666667,29.55
boikene,,09,0.5333333,29.4833333
boi lukenie,,00,-3.3666667,22.5166667
boimbo,,02,-0.6333333,18.8333333
boinanguo,,00,-3.15,21.75
bojo,,01,-2.4666667,16.2666667
bojoko,,02,4.0,20.05
bojuna,,06,-2.7,16.4666667
bokaata,,02,0.0833333,20.7833333
boka,,01,-3.3833333,17.5666667
bokada-bangawili,,02,3.6666667,19.6833333
bokada,,02,2.8833333,19.2166667
bokada-danga,,02,3.4833333,19.75
bokafa,,02,-0.2666667,20.5666667
bokagne,,01,-3.6166667,18.7333333
bokai,,00,-3.0666667,19.7833333
boka indembe,,02,-0.0166667,21.9
bokaka,,00,-0.8166667,21.4
bokaka,,02,-0.6333333,17.8
bokakandu,,00,-0.5333333,20.4
bokakata,,00,0.2333333,20.1166667
bokakata,,02,0.9166667,22.15
bokakia,,02,-0.3833333,18.8333333
bokala,,00,-0.25,19.65
bokala,,01,-3.1166667,17.0333333
bokala,,02,-0.4833333,18.2833333
bokala-bolongo,,02,-0.5833333,19.2166667
bokala-dongo,,02,-0.5666667,19.2166667
bokalakala,,01,-2.1333333,16.3666667
bokalakiti,,02,2.6166667,19.3166667
bokalanda,,02,3.0333333,20.15
bokala-taketa,,00,-3.25,19.1
bokale,,09,-1.25,23.8
bokalo,,00,-2.7833333,18.8166667
bokalu,,00,-2.7833333,18.8166667
bokama,,00,-2.5,19.1166667
bokamba,,00,2.8,21.45
bokamba,,02,-0.0666667,21.0833333
bokamba-moke,,00,-0.0666667,20.1166667
bokamba-mole,,00,-0.0666667,20.1166667
bokampata,,00,-3.7666667,22.4333333
bokamu,,00,-1.9333333,21.1
bokanda,,00,-3.0,22.0333333
bokandja,,00,-0.2333333,19.7166667
bokandju,,10,-2.55,26.1166667
bokandu,,02,3.9166667,20.1333333
bokangadua,,00,3.1333333,20.55
bokangamoi,,01,-2.0833333,16.35
bokangamoy,,01,-2.0833333,16.35
bokangandwa,,02,3.25,19.95
bokani,,02,3.2,18.7666667
bokanie,,09,0.2333333,26.2666667
bokapo,,00,2.8166667,20.7833333
bokapo,,02,2.2666667,21.75
bokapo ii,,00,2.85,20.8666667
bokapo-rive,,00,2.8166667,20.7833333
bokapu,,00,3.4,21.05
bokapu,,09,2.0166667,25.9333333
bokasa,,03,-5.1166667,23.3666667
bokasele,,00,3.35,25.05
bokasola,,09,1.5833333,25.4666667
bokasula,,09,1.5833333,25.4666667
bokata,,02,0.0833333,20.7833333
bokatola,,02,-0.6333333,18.7666667
bokau,,02,-0.3333333,22.05
bokau,,09,0.9166667,24.2333333
bokaw,,02,-0.1333333,21.0166667
bokawiya,,00,3.2666667,26.4833333
bokaya,,00,3.2,20.6333333
bokay,,00,-3.0666667,19.7833333
bokebeni,,01,-2.3,18.3166667
bokeka,,00,0.6833333,19.95
bokela,,00,-0.8333333,22.1333333
bokele,,00,0.2666667,19.85
bokele,,02,-0.2666667,20.5833333
bokelekila,,02,0.6166667,21.1333333
bokema,,02,2.0333333,20.7166667
bokembi,,02,3.4166667,19.3833333
bokena i,,02,4.4,18.9166667
bokena ii,,02,4.3833333,18.85
bokenda,,00,-0.6,22.6333333
bokenda,,02,0.45,21.35
bokende,,00,-0.6,22.6333333
bokendela,,00,-0.2333333,19.55
bokendola,,00,-0.4333333,19.8
bokenge,,01,-1.8166667,16.9333333
bokenge,,02,0.1833333,20.9833333
bokengeswe,,02,3.0333333,19.95
bokeniola,,02,-0.3166667,18.6333333
boketa,,00,-0.85,21.3166667
boketa,,02,3.7833333,18.8666667
bokia,,00,3.0166667,22.5833333
boki,,05,-5.5166667,26.9166667
bokignate,,01,-1.9,17.4666667
bokila,,00,-4.0333333,21.65
bokilalu,,02,0.1333333,22.3666667
bokilaluo,,02,0.1333333,22.3666667
bokilialuo,,02,0.1333333,22.3666667
bokilingomo,,02,1.75,21.4666667
bokiri,,00,-2.7333333,22.2666667
bokita,,00,2.5166667,23.3
boko,,02,5.1333333,19.5666667
boko,,06,-5.3166667,16.7666667
boko,,08,-4.6977778,15.0747222
bokobomo,,06,-2.8166667,16.5
bokode,,02,3.9666667,19.4833333
bokofa,,00,-0.5166667,21.7666667
bokoi,,00,2.6,23.8333333
bokoka,,00,-0.8166667,21.4
boko-kifulama,,08,-5.1833333,15.2
bokokolo,,02,0.6166667,22.4
bokole,,01,-1.5333333,17.65
bokole,,02,0.9666667,22.9
bokole,,09,-1.25,23.8
bokolekila,,02,0.6166667,21.1333333
bokoli,,00,-1.65,19.4166667
bokoli,,01,-2.0666667,16.95
bokoliwango,,00,-2.2833333,19.4333333
bokolo,,00,0.2166667,20.4333333
bokolo,,06,-2.9166667,16.5333333
bokolonga,,02,0.3166667,19.2
bokolongo,,00,0.25,20.0833333
bokolongo,,02,0.2,19.3666667
bokolongo,,09,-1.35,23.5666667
bokombe,,00,1.1333333,19.55
bokombe,,02,1.1166667,18.0666667
bokombo,,02,-0.1833333,18.0166667
bokombu,,00,-0.1,20.4166667
bokome,,00,-0.75,21.7333333
bokona,,00,0.4833333,20.0833333
bokonda-watuli,,02,-0.6833333,18.4
bokondela,,00,-0.2333333,19.55
bokondela,,02,-0.4,19.2833333
bokondi,,02,3.9166667,20.1333333
bokondji,,00,-0.65,21.1833333
bokondji,,09,-1.4166667,23.6833333
bokondo,,00,1.8333333,18.2666667
bokondo,,02,0.25,22.5333333
bokondo,,09,1.1833333,23.8
bokondo-rive,,09,1.1,23.8833333
bokone,,00,-0.85,22.6
bokone,,09,-1.25,23.6666667
bokonga,,00,-0.1166667,20.35
bokongada,,00,2.65,23.0333333
bokonge,,00,2.7666667,20.7666667
bokongo,,00,-1.2166667,20.5666667
bokongo i,,00,3.4,20.8
boko ngoi,,08,-4.8666667,15.2544444
bokongo ii,,00,3.45,20.75
bokongolia,,09,1.7166667,24.05
bokoni,,09,0.95,23.9333333
bokonkuma,,02,-0.6666667,18.45
bokonzi,,00,3.4,22.1833333
bokopo,,00,2.85,20.8666667
bokoro,,01,-2.8333333,18.3833333
bokosa,,00,3.4333333,20.8
bokoso,,02,3.75,18.7333333
bokota,,00,-0.85,22.3
bokota-kateka,,00,-3.25,19.1
bokote,,00,-0.0833333,20.1333333
bokote,,01,-2.4166667,17.3
bokoto,,00,-0.3666667,20.3166667
bokotokiri,,01,-1.65,18.2833333
bokotola,,02,0.8833333,18.6
bokow,,02,0.1166667,21.7166667
bokoyayembe,,00,-1.6833333,19.7
bokoyo,,00,3.9,27.3333333
bokozo,,02,2.9333333,18.7333333
bokpalanganda,,00,3.7833333,20.5333333
bokpale,,02,2.8666667,19.55
bokpekpe,,00,2.5833333,23.0666667
bokporoa,,09,1.2833333,24.0
boku,,06,-3.9166667,16.9166667
bokuda,,02,3.2166667,19.7833333
bokudu,,00,3.6,20.75
bokuka,,02,-0.2,20.5833333
bokuku,,00,-0.2333333,19.6166667
bokuku,,02,-0.3666667,18.9166667
bokula,,00,3.2333333,20.7333333
bokuli,,02,-0.2,22.5166667
bokulu,,01,-3.3833333,17.5666667
bokuma,,00,-0.6666667,20.9833333
bokuma,,02,-0.1,18.7
bokumi,,01,-3.6,17.85
bokumi,,06,-3.9666667,16.1333333
bokumi ii,,06,-4.7469444,15.9011111
bokumu,,00,-1.9833333,21.0333333
bokumu,,02,3.25,20.2166667
bokunda,,00,-1.3166667,23.4833333
bokunde,,00,3.3166667,20.85
bokundola,,00,2.5166667,21.0833333
bokundu,,00,3.6,20.75
bokungua-leko,,02,-0.45,21.15
bokungua-lelo,,02,-0.45,21.15
bokungu,,00,-0.6833333,22.3166667
bokungu,,02,0.7333333,21.0333333
bokungwaenga,,00,-1.0,22.8333333
bokuono,,01,-4.4,19.4333333
bokurubi,,02,3.4333333,20.4833333
bokuruna,,02,4.1833333,19.4333333
bokuto,,02,2.2833333,21.7166667
bokutola,,02,0.1333333,21.6833333
bokutsu,,00,-0.0166667,20.1166667
bokutu,,00,-0.6833333,21.05
bokutu,,02,2.1833333,20.7
bokuzubu,,02,3.05,20.3833333
bokwale,,02,4.2166667,19.4833333
bokwango,,02,0.15,17.8333333
bokwango,,09,2.0666667,25.4166667
bokwankusu,,00,-1.85,22.7666667
bokwele,,09,1.6166667,25.1666667
bokweli,,00,2.9666667,21.2
bokweli,,02,2.3,21.5833333
bokwoisa,,09,2.1166667,25.6333333
bokwonge,,00,3.3833333,21.0166667
bokwoyo,,09,4.5,27.95
bola,,00,-3.2666667,22.0166667
bola,,08,-5.1166667,13.1
bolafa,,00,1.1,20.0833333
bolafa,,02,0.1333333,20.5333333
bolaiti,,10,-3.1166667,25.0166667
bolaka,,00,2.35,20.2
bolaka,,02,-0.0666667,19.1166667
bolaki,,00,2.4333333,27.7333333
bolakwafumba,,00,-0.3833333,19.9333333
bola lupata,,04,-5.3333333,24.8166667
bolama,,02,1.95,22.9666667
bolamba,,00,-1.25,22.3333333
bolamba,,02,0.1666667,22.85
bolambu,,02,3.0333333,19.1
bolanda,,00,0.1,20.1
bolanda,,02,0.6,23.4666667
bolanda,,09,0.3166667,24.0833333
bolando,,02,-0.3666667,21.35
bolandza,,02,-0.9833333,18.5166667
bolangani,,01,-3.5833333,18.65
bolangi,,00,3.1666667,29.7166667
bolangi,,10,-2.7,25.9
bolango,,00,3.7,21.9833333
bolangu,,00,4.2833333,20.6166667
bolashi,,02,-6.35,18.6166667
bolawai,,00,-3.1666667,21.9833333
bolawariko-moke,,00,-0.9333333,21.4333333
bolawariko-monene,,00,-0.9166667,21.4333333
bolebe,,02,-1.15,17.2833333
boleka,,00,-2.9666667,19.6833333
boleke,,00,-0.0166667,19.6
boleke,,02,-1.0833333,17.9333333
bolekio,,00,-1.4166667,20.7666667
boleko,,00,-1.0166667,21.4666667
bolela,,00,-7.3333333,26.6
bolela,,09,1.7166667,25.3666667
bolelo,,03,-5.0833333,21.6333333
bolemba,,00,0.2333333,20.4166667
bolemba,,02,0.0833333,21.8
bolembe,,00,1.1833333,19.5833333
bolembe,,02,1.2333333,18.3666667
bolembo,,00,1.1833333,19.5833333
bolemo,,00,2.4166667,19.1333333
bolemo ii,,00,2.4166667,19.1333333
bolena-boendjola,,02,-0.4833333,19.2666667
bolena,,00,0.7333333,19.95
bolena-ifoso,,02,-0.6,19.35
bolena-loka,,00,0.7666667,19.95
bolena wendjola,,02,-0.4833333,19.2666667
bolengambi,,02,-0.9333333,19.3
bolengana,,00,1.6333333,18.2
bolenge,,00,-2.4833333,22.0666667
bolenge,,02,0.0,18.2166667
bolengu ii,,02,1.25,22.4833333
boleno moke,,00,-0.7166667,20.9166667
bolia,,01,-1.6,18.3833333
bolia,,02,-0.8666667,18.1666667
boliama,,02,0.2166667,21.8833333
boliayangwa,,01,-1.5166667,17.9833333
boli,,00,3.9,25.85
boli,,11,-0.15,27.7166667
bolieko,,02,-0.9166667,18.95
bolifa-ekofo,,02,-0.1666667,21.2
bolika,,09,1.7166667,24.25
bolikango,,09,1.2166667,24.0333333
bolikango i,,09,1.2166667,24.0333333
bolikango ii,,09,1.2166667,24.1
bolima,,00,0.55,19.9166667
bolima,,02,0.05,19.3833333
bolima,,09,1.7166667,25.7666667
bolima-nkoko,,02,0.65,21.0833333
bolima-nsoke,,00,0.9333333,19.8833333
bolinda,,00,-3.0166667,19.5666667
bolindie,,00,4.3833333,25.6666667
bolindo,,02,-0.4166667,20.9
bolindongo,,02,-1.2166667,18.55
bolinga,,00,-2.1166667,20.0833333
bolinga,,09,0.4833333,24.0833333
bolingela,,00,-0.6333333,23.4333333
bolingo,,00,-2.9666667,19.4166667
bolingo,,01,-1.8,18.4333333
bolingo,,02,-0.1,19.1
bolingo,,09,0.2833333,24.0166667
boliompeti,,01,-1.5333333,18.1
boliti,,09,-0.3833333,23.95
boliwula,,02,-1.0666667,18.9833333
bolobo,,01,-2.1666667,16.2333333
bolo,,01,-3.6666667,17.3333333
bolo,,02,4.4833333,20.2666667
bolo,,05,-8.2333333,25.1666667
bolo,,09,2.2833333,30.4666667
bolodja,,02,1.0166667,18.1
boloka,,00,-0.7,19.55
boloko,,00,-0.9833333,21.8
boloko,,02,1.7,23.0166667
bolokwa,,02,4.3833333,20.25
bololo,,00,-0.9333333,19.9333333
bololo,,02,-1.2333333,18.4
bolomba,,02,0.4833333,19.2
bolombi,,00,-0.5166667,20.8833333
bolombi,,02,-1.2,19.1333333
bolombo-bofoku,,00,0.5333333,19.9666667
bolombo,,00,3.0,20.8166667
bolombo,,02,0.0333333,18.3333333
bolombo-ikengo,,02,-0.2666667,18.9333333
bolombo-mengi,,00,0.9666667,19.8666667
bolomi,,00,-0.55,22.0166667
bolo-moke,,00,2.7333333,28.5833333
bolonda,,00,0.1,20.1
bolondo,,00,0.0833333,19.6333333
bolondo,,01,-1.7833333,17.8333333
bolondo,,02,-0.0833333,20.65
bolondo nkandja,,01,-1.9333333,17.5333333
bolonga,,02,-1.3666667,18.9166667
bolonga,,09,-0.4666667,23.5166667
bolongama,,02,0.05,21.2166667
bolongbolo,,00,3.3833333,29.2166667
bolonge,,00,-2.7,22.2
bolongela,,02,-0.0666667,20.6833333
bolongi,,02,0.0,18.2166667
bolongo bas,,09,0.15,24.0833333
bolongo,,00,-0.2333333,19.7333333
bolongo,,02,0.3,21.4833333
bolongo,,09,0.15,24.1333333
bolongoi,,02,1.1333333,18.1833333
bolongo interieur,,09,0.15,24.1333333
bolongokele,,00,-2.75,19.9666667
bolongombe,,00,-3.4833333,19.25
bolongonkele,,00,-2.75,19.9666667
bolongo omba,,01,-3.7166667,19.2
bolongo ombe,,01,-3.7166667,19.2
bolongo-sud,,09,-1.4333333,23.6333333
bolongoweti,,00,-1.85,19.8
bolota,,00,-1.5833333,23.9
boloto,,03,-6.6,22.6666667
boluamanza,,01,-1.7666667,18.35
boluba,,01,-1.5166667,18.05
boluka,,02,-0.3333333,20.9
bolukubu,,09,1.7666667,29.0166667
bolula,,01,-1.5166667,18.05
bolulu ii,,09,1.9,25.7
bolumba,,02,3.0333333,19.1
bolumbu,,02,0.6833333,17.8833333
bolunda,,00,-2.9166667,19.6333333
bolundu,,00,-2.9166667,19.6333333
bolunga,,00,-0.6,23.0666667
boma,,00,-10.9,22.6333333
boma,,01,-4.3833333,17.9
boma,,08,-4.4833333,14.05
bomadya,,00,2.7,25.9
bomahe,,09,1.6333333,25.2666667
bomaiba,,00,2.85,23.05
boma i,,01,-4.2666667,18.25
bomai,,02,1.2666667,18.0833333
bomala,,09,1.6333333,25.2
bomalanga,,02,3.4166667,20.0
bomana,,02,1.45,18.4166667
bomandela,,00,-0.9833333,21.8833333
bomandja,,00,-0.8,23.1666667
bomandja,,02,4.1166667,19.35
bomandu,,02,4.2,19.4666667
bomane,,09,1.3,23.7833333
bomaneh,,09,1.3,23.7833333
bomanga,,00,2.55,22.6666667
bomanga-fataki,,02,3.7833333,18.8833333
bomanga-mafua,,02,3.7833333,18.9
bomangola,,00,-1.5,19.5166667
bomangola,,02,-0.5833333,18.6166667
bomangula,,00,-1.7166667,19.4
bo mangwa,,11,-0.05,29.35
bomanza,,02,0.3,20.9666667
bomase,,04,-5.8333333,24.3333333
bomasi,,00,3.55,20.5666667
bomata,,00,-1.05,21.1
bomate,,00,0.9833333,19.9
bomate,,02,0.05,21.9333333
boma-vonde,,08,-5.1333333,12.7166667
bomawi,,02,2.9,19.5666667
bombaie,,00,-4.0833333,22.8833333
bombakabo,,02,3.0666667,19.7
bombakalo,,02,3.2,20.1833333
bombakwa,,09,1.7166667,25.3333333
bombala,,02,3.45,20.0
bombala,,06,-4.0280556,15.6108333
bombala,,09,2.1,25.4166667
bombale,,02,1.5666667,20.8333333
bombaliswe,,02,3.1166667,20.0333333
bomba makuka,,08,-5.4333333,16.3166667
bombana,,00,2.7666667,21.8166667
bombanda,,00,0.2166667,20.25
bombaolo,,02,3.2,19.2
bombasu,,00,2.55,23.1833333
bomba-tawe,,02,2.9666667,19.55
bombate,,09,2.2333333,25.25
bombati,,00,1.2333333,20.1166667
bombaworo,,02,3.6,19.1833333
bombawuli,,02,3.2333333,19.9
bombawuli-moke,,02,3.2333333,19.8333333
bombazere,,02,3.2833333,20.4833333
bombe,,00,2.1,18.15
bombe,,02,-1.2333333,19.05
bombeka,,00,0.1333333,20.1166667
bombeka,,02,0.15,21.2166667
bombelenge,,00,-1.4833333,19.9833333
bombelenge k,,00,-1.4833333,19.9833333
bombelingola,,02,-0.8666667,18.9833333
bombembe,,02,-0.6,18.6833333
bombenga,,00,1.9166667,18.7166667
bombesangi,,02,-0.85,19.0
bombese,,02,3.0333333,19.1
bombi,,00,2.55,22.15
bombi,,02,3.2166667,18.7333333
bombi komaketi,,02,-5.0,20.2333333
bombi-kumakete,,02,-5.0,20.2333333
bombi kumaketi,,02,-5.0,20.2333333
bombilenga,,00,-0.2166667,19.6666667
bombili,,00,-0.05,20.0
bombili,,02,3.0,18.85
bombili moke,,00,-0.2666667,20.2
bombili monene,,00,-0.2666667,20.25
bombimba,,02,0.5166667,19.4
bombimbi,,00,-1.4666667,20.0166667
bombindju,,02,0.3,18.7333333
bombiti,,02,3.1333333,19.0833333
bombo,,03,-5.9,21.4333333
bombo,,08,-5.35,15.9166667
bombo,,09,1.8666667,25.3833333
bombo-bushabu,,03,-4.8833333,21.1833333
bomboie,,00,-4.0833333,22.8833333
bomboka,,02,2.8333333,19.0166667
bombo-kasanji,,03,-5.9,21.85
bombo-kasendje,,03,-5.9,21.85
bombolenge,,00,-1.4833333,19.9833333
bombolimboka,,01,-1.9666667,16.5
bombolola,,02,4.2833333,18.5666667
bomboma,,00,2.4166667,18.9
bomboma,,09,1.2333333,23.9666667
bomboma ii,,00,2.4333333,18.95
bombo-makuka,,08,-5.4333333,16.3166667
bombomba,,00,-0.2333333,19.8333333
bombombi,,00,2.2,27.9666667
bombombwa,,09,1.35,25.5
bombo-mukoma,,03,-5.7666667,21.1666667
bombongo,,02,0.05,19.3666667
bombongo,,09,1.7166667,25.75
bombotu,,00,1.7666667,19.45
bombula,,09,0.8666667,23.95
bombura,,02,3.7,19.6333333
bombutu,,00,1.7666667,19.45
bombwa,,00,-7.9666667,28.2833333
bombwa,,09,1.8833333,25.6833333
bombwandza,,02,0.8833333,18.6666667
bombwane,,00,3.2333333,25.05
bombwanza,,02,-0.1,21.5333333
bombwe,,00,-8.05,28.25
bombwe,,01,-3.05,17.7
bomeka,,00,-0.5333333,22.1
bomeka-moke,,02,-0.2166667,21.65
bomele,,02,2.8166667,19.0
bomenenge,,02,-0.4166667,17.9166667
bomenge,,02,0.6666667,19.0333333
bomenjuri,,06,-2.6166667,16.6
bomese,,09,1.2166667,23.6333333
bomfun,,01,-2.9333333,18.1666667
bomili,,09,1.6666667,27.0166667
bomindo,,00,2.1,20.25
bominenge,,02,3.1666667,20.15
bomoa,,09,2.2,25.3
bomoi,,00,2.7666667,20.9
bomokandi,,00,3.65,26.1333333
bomole,,00,2.95,21.45
bomomba,,00,-2.15,19.4833333
bomongiri,,00,-1.95,21.2166667
bomongo,,02,1.3666667,18.35
bomotu,,02,3.7833333,18.9166667
bomotu-moke,,02,3.7833333,18.9833333
bompambo,,00,-2.7333333,19.4
bompanga,,00,1.1833333,19.7833333
bompela,,00,-1.6166667,20.95
bompensole,,01,-2.8833333,16.9166667
bompeta,,01,-1.7833333,16.6333333
bompiele,,02,1.0666667,18.05
bompombo,,00,-2.7333333,19.4
bomputu,,00,-0.3333333,20.1
bomuna,,02,1.1666667,18.5666667
bomwele,,00,2.25,18.9833333
bona,,07,-2.0333333,28.7166667
bonali,,09,-0.4166667,26.3833333
bonama,,02,1.9333333,22.7
bonangola,,02,-0.5833333,18.6166667
bonataba,,09,-0.5,25.4833333
bonda,,08,-5.7666667,14.3166667
bondadjoro,,02,3.0,20.0333333
bondagi i,,00,3.5,20.5666667
bondagi ii,,00,3.5,20.5666667
bondaka,,02,3.0166667,19.0166667
bondaki,,02,2.8833333,19.65
bondama,,02,2.85,19.5
bondamba-ikengo,,00,-0.3333333,19.8833333
bondangania,,02,2.8666667,19.6166667
bondania,,02,2.85,19.5
bondeandjoku,,00,-1.65,19.5666667
bondenge,,00,-0.3333333,19.5833333
bondia,,02,-1.4333333,17.2833333
bondio,,02,3.2,20.1333333
bondji,,00,0.5166667,19.5833333
bondjiri,,04,-5.25,25.4
bondjo,,00,-0.3,20.2833333
bondjoku,,02,1.25,18.6166667
bondjoli,,00,-0.7,21.25
bondo,,00,2.45,27.7666667
bondo,,01,-1.8166667,18.1666667
bondo,,02,0.25,18.3833333
bondo,,04,-5.8,23.85
bondo,,09,-1.3666667,23.8833333
bondo,,10,-4.7,27.6833333
bondo-kabea,,04,-5.8,23.85
bondoko,,00,2.0666667,19.1166667
bondo-mayoyo,,01,-4.8666667,17.6666667
bondomba,,00,-0.5833333,23.4666667
bondongo,,00,3.05,21.4666667
bondua,,02,2.2,21.3333333
bondu,,00,3.6333333,23.5833333
bondu,,02,-1.4333333,17.3833333
bonduma,,02,2.7333333,19.0666667
bondumba,,02,0.75,19.2666667
bondunga,,02,2.3,21.8666667
bonduru,,02,3.7666667,19.0166667
bondwe,,04,-7.3833333,24.85
bonema,,00,-0.75,21.15
bongabo,,00,3.0833333,20.55
bongabo i,,00,3.1166667,20.5833333
bonga,,01,-1.65,16.8333333
bonga,,09,1.0333333,29.9666667
bongado,,00,3.1166667,20.5833333
bonga-iteli,,00,-0.95,20.4833333
bongala,,00,3.45,20.7166667
bongala,,02,-0.0166667,19.15
bongalangwa,,02,3.0,19.9666667
bongalanza,,00,3.2333333,25.0333333
bongale,,00,0.05,19.6333333
bongale ii,,00,-1.5666667,20.6166667
bongale-wotolo,,02,-0.5666667,18.7
bongali,,02,-0.15,21.0666667
bongalua,,02,2.9333333,19.2333333
bonga-malembe,,06,-4.0833333,16.9333333
bonga-masoko,,01,-4.7166667,18.6333333
bongamba,,03,-5.0,21.5
bonga-mikwati,,01,-4.4166667,17.5166667
bongandanga,,02,1.5,21.05
bongandji,,00,1.7,18.1
bongandji,,02,1.1833333,18.1
bongandjola,,09,1.75,25.5333333
bongandu,,00,0.05,20.1333333
bonganzi,,02,1.1833333,18.1
bonganzu,,02,-0.3,18.5
bongata,,02,0.25,18.2833333
bongatshala,,03,-5.0833333,21.2
bongatua,,00,2.7833333,23.0666667
bongbaie-bokwele,,09,1.45,25.4333333
bongbaie,,09,1.45,25.4333333
bongbalangbongo i,,09,1.55,24.3666667
bongbalangbongo ii,,09,1.5833333,24.3833333
bongbale,,09,1.45,25.4333333
bongbola,,09,1.8,24.4
bongbonia,,00,2.25,20.45
bongbwalo,,02,3.9666667,20.0833333
bongbwoin,,00,3.4166667,21.1166667
bongele,,02,2.0166667,22.9333333
bongelenza,,00,2.8666667,22.8333333
bongeli,,02,-0.7,17.7166667
bongemba,,00,-0.8,22.3666667
bongemba,,01,-1.8666667,18.2666667
bongemba,,02,0.6833333,22.0
bongena,,02,3.4166667,20.45
bongenda,,09,2.0333333,25.4166667
bongende,,01,-2.0166667,16.4166667
bongengomo,,01,-2.1,17.4666667
bongenie,,00,1.9,18.65
bongenoba,,00,-0.8,22.3666667
bongenye,,00,1.9,18.65
bongera,,02,3.4166667,20.45
bongero,,00,-1.8166667,22.6166667
bongi,,02,-1.3666667,17.3166667
bongide,,00,3.3333333,25.8833333
bongila,,00,-0.9833333,20.2666667
bongila,,02,0.15,20.5333333
bongili,,02,-0.8666667,18.9833333
bongilima,,00,1.0666667,19.6833333
bongilima-tomba,,00,1.0666667,19.6833333
bongimana,,01,-3.7333333,20.3833333
bongimba,,00,-3.3833333,20.05
bongimi ii,,02,3.5,20.0
bonginda,,02,0.9666667,18.75
bongindji,,00,-0.8166667,20.1833333
bongindsi,,00,-0.8166667,20.1833333
bongo-atembima,,02,3.1,18.7
bongo bokoko,,02,-1.3333333,17.35
bongo,,00,2.3666667,27.7833333
bongo,,01,-1.7833333,17.6833333
bongo,,02,-0.65,18.4833333
bongo,,03,-4.7,21.3333333
bongo,,09,-0.2,25.35
bongoi,,00,-1.2333333,23.3166667
bongo i,,02,2.9,19.7
bongoie,,02,-0.0333333,20.9666667
bongo ii,,01,-1.8333333,17.6333333
bongo kungu,,02,-1.05,18.4666667
bongola,,00,-2.5666667,20.9666667
bongolia,,00,3.0666667,21.5666667
bongolo,,00,-6.6,16.7666667
bongolokoro,,00,-2.7,18.9
bongolokozo,,00,-2.7,18.9
bongolu,,00,2.8,22.4833333
bongolu,,02,2.3333333,22.5
bongoma,,00,2.45,19.0333333
bongo-makeli,,01,-2.3666667,17.7
bongomba,,00,-0.6333333,22.4
bongombe,,01,-3.7666667,19.4333333
bongomo,,01,-3.7666667,17.3333333
bongona,,02,3.2,20.0666667
bongonda,,00,0.1833333,19.6333333
bongonda,,02,4.2666667,20.5
bongonde,,02,-0.1666667,18.2333333
bongondjo,,02,1.8333333,20.9833333
bongondo,,02,1.2333333,18.25
bongongo,,02,2.2833333,23.1666667
bongono,,01,-3.7666667,17.3333333
bongonya,,00,1.9333333,19.05
bongo senge,,00,-3.4,22.3666667
bongoya,,00,1.9333333,19.05
bongoyampongo,,00,-1.7833333,20.85
bongoyankoi,,02,0.1,19.3666667
bonguanza,,02,1.3333333,18.7666667
bongulu,,02,0.8166667,20.7
bonguma,,02,-0.1166667,18.6333333
bongunda,,00,0.4166667,20.05
bongunda waliko,,00,0.0166667,20.1333333
bongunda wanse,,00,0.05,20.1333333
bongunshe,,00,-4.1333333,20.7
bonguntshu,,02,0.85,20.8166667
bonguru,,09,4.2666667,28.35
bongwale,,09,1.6166667,24.3833333
bongwange,,09,1.6833333,24.0333333
bongwe,,06,-2.9833333,16.55
bongwengende,,00,3.5,20.7166667
bonjunju,,09,2.0833333,27.45
bonkamba,,02,1.1666667,18.1
bonkandju,,00,1.95,19.0666667
bonkena,,02,0.0833333,19.4666667
bonkende,,02,-1.1166667,19.2666667
bonkita,,00,1.2666667,19.65
bonkita,,02,0.7833333,20.85
bonko,,03,-6.7666667,21.9333333
bonkoi,,00,-1.2166667,20.5666667
bonkole,,00,0.2333333,20.3166667
bonkonko,,00,-2.2166667,20.1833333
bonkotsu,,00,-0.0166667,20.1166667
bonkoy,,00,-1.2166667,20.5666667
bonku,,03,-6.7666667,21.9333333
bonkui,,06,-3.05,16.4166667
bonkulu,,01,-3.4,17.5833333
bonkutsu,,00,-0.0166667,20.1166667
bonkwankusu,,00,-3.2333333,19.5166667
bonokodwa,,02,3.45,19.95
bonolunga,,02,2.3,21.8666667
bonongo,,02,-0.2833333,18.5166667
bonsambi,,02,1.2333333,18.3166667
bonsambo,,00,1.6166667,19.15
bonseke,,02,-0.3333333,20.9666667
bonsoko,,00,1.8833333,18.1166667
bontole,,02,-0.6666667,18.9666667
bonudana,,02,3.4333333,20.4666667
bonuzubu,,02,3.05,20.3833333
bonyatenge,,11,-0.45,28.85
bonzale-bobadjoro,,02,3.0166667,19.6333333
bonzeli,,00,2.75,23.0666667
bonzo,,03,-6.05,22.3166667
boo,,00,-3.4833333,23.5
boodji,,00,0.8333333,20.2166667
booke,,00,-2.55,22.0
booli,,00,0.8333333,20.2166667
booli,,02,0.1,21.7166667
boomba,,02,0.4,19.2
boomba ilanga,,00,-0.45,20.0
boombe,,02,-0.2166667,18.8333333
boona,,02,-0.2833333,20.6666667
boonde,,02,1.25,19.4833333
boondo,,00,-1.2666667,22.4166667
boondo,,02,-0.1666667,19.4833333
boonia,,02,0.55,21.2666667
boota,,02,-1.25,18.7333333
boote,,00,-0.0833333,20.1333333
bopaka,,01,-2.5166667,17.4333333
bopaka-pentana,,01,-2.5166667,17.4333333
bopako,,02,1.8833333,21.2166667
bopamba,,02,1.3666667,23.4166667
bopambo,,00,-3.35,19.5166667
bopambu,,00,-3.35,19.5166667
bopambu,,01,-2.3333333,18.2333333
bopando,,09,1.65,25.3333333
bopandu,,02,2.4333333,23.4
bopania,,02,-1.2,18.9833333
bopatai,,00,2.65,23.0333333
bopeka,,00,2.3333333,19.5666667
bopeka-rive,,00,2.3333333,19.5666667
bopeke,,00,2.3333333,19.5666667
boperuma,,09,1.0166667,27.3666667
