names,population,state_code,lat,lon
abadia a isola,,16,43.3833333,11.2
abano,,20,45.35,11.7833333
abano terme,19112,20,45.35,11.7833333
abatemarco,,04,40.1333333,15.35
abbadia,,10,43.2166667,13.4
abbadia,,12,45.0333333,6.8333333
abbadia,,16,43.3833333,11.2
abbadia a isola,,16,43.3833333,11.2
abbadia di fiastra,,10,43.2166667,13.4
abbadia di stura,,12,45.1,7.7166667
abbadia lariana,,09,45.9,9.3333333
abbadia san salvadore,,16,42.8833333,11.6833333
abbadia san salvatore,,16,42.8833333,11.6833333
abbadia stura,,12,45.1,7.7166667
abbasanta,,14,40.1333333,8.8166667
abbateggio,,01,42.2166667,14.0
abbazia,,12,45.0333333,6.8333333
abbazia,,20,45.6,11.85
abbazia di pomposa,,05,44.8347222,12.1827778
abbazia di santa maria in selva,,10,43.3166667,13.4
abbazia pisani,,20,45.6,11.85
abbaziz,,12,45.0333333,6.8333333
abbiategrasso,30308,09,45.4,8.9
aberstuckl,,17,46.7666667,11.3666667
abetemozzo,,01,42.6333333,13.55
abetito,,10,42.85,13.3666667
abeto,,05,44.1,11.7166667
abeto,,18,42.8333333,13.05
abetone,,05,44.1333333,10.6666667
abriola,,02,40.5,15.8166667
acaia,,13,40.3333333,18.2833333
acaja,,13,40.3333333,18.2833333
acate,,15,37.0333333,14.4666667
accadia,,13,41.1666667,15.3333333
acceglio,,12,44.4666667,7.0
accettura,,02,40.4833333,16.15
acciano,,01,42.1666667,13.7166667
acciarella,,07,41.45,12.75
acciaroli,,04,40.1833333,15.0166667
accio,,02,40.8833333,15.8166667
accumoli,,10,42.7,13.25
acera,,18,42.8166667,12.8333333
acerenza,,02,40.8,15.9333333
acereto,,17,46.9166667,11.9666667
acerno,,04,40.7333333,15.05
acerra,46729,04,40.95,14.3666667
aci bonaccorsi,,15,37.6,15.1166667
aci buonaccorsi,,15,37.6,15.1166667
aci castello,18554,15,37.55,15.1333333
aci catena,31216,15,37.6,15.1333333
acilia,,07,41.7833333,12.3666667
acireale,51967,15,37.6166667,15.1666667
aci sant'antonio,,15,37.6,15.1166667
acone,,15,37.9833333,15.8
acqua,,08,44.4166667,9.25
acquabona,,08,44.35,10.3
acquabona,,20,46.5055556,12.1577778
acquacadda,,14,39.1697222,8.7483333
acquacalda,,15,38.5166667,14.95
acquadene,,17,46.5666667,10.7833333
acqua di santa domenica,,03,39.9,16.0
acquafondata,,07,41.55,13.95
acquaformosa,,03,39.7166667,16.0833333
acquafredda,,03,38.9833333,16.25
acquafredda,,04,40.0333333,15.6666667
acquafredda,,08,44.4833333,9.0166667
acquafredda,,09,45.3,10.4
acquaiura,,18,42.6833333,12.7333333
acqualacastagna,,18,42.65,12.7166667
acqualadrone,,15,38.3,15.55
acqualagna,,05,43.6166667,12.6666667
acqua loreto,,18,42.7333333,12.3333333
acqualunga,,09,45.3166667,9.95
acqua marzo,,20,45.0991667,12.1394444
acquanegra,,05,45.1333333,9.8833333
acquanegra cremonese,,05,45.1333333,9.8833333
acquanegra sul chiese,,05,45.1666667,10.4333333
acquapendente,,07,42.7333333,11.8666667
acquappesa,,03,39.4833333,15.95
acquaratola,,01,42.7,13.5666667
acquarica,,13,39.9,18.25
acquarica del capo,,13,39.9,18.25
acquarica di lecce,,13,40.3,18.3166667
acquaro,,03,38.2833333,15.9
acquaro,,18,42.8666667,13.05
acquarone,,15,38.3,15.55
acqua santa,,02,40.95,15.5833333
acquasanta,,10,42.7666667,13.4
acquasanta terme,,10,42.7666667,13.4
acquasparta,,18,42.6833333,12.55
acquatina,,05,43.3,12.9166667
acquavella,,04,40.2166667,15.1166667
acquavena,,04,40.0833333,15.45
acquaviva,,05,43.1166667,11.85
acquaviva,,16,43.3833333,11.1666667
acquaviva collecroce,,11,41.8666667,14.75
acquaviva delle fonti,22030,13,40.9,16.8333333
acquaviva d'isernia,,11,41.6666667,14.15
acquaviva picena,,10,42.9333333,13.8
acquaviva platani,,15,37.5666667,13.7
acque acidule di rabbi,,20,46.4,10.8
acque albule,,07,41.95,12.7166667
acque albule bagni,,07,41.95,12.7166667
acque dolci,,15,38.05,14.5833333
acquevive,,11,41.6333333,14.4333333
acqui,,08,44.6833333,8.4666667
acqui citta,,08,44.6833333,8.4666667
acqui terme,19410,08,44.6833333,8.4666667
acquosi,,05,43.25,13.05
acri,21495,03,39.4833333,16.3833333
acrifoglio,,03,39.1333333,16.3333333
acuto,,07,41.7833333,13.1666667
adami,,03,39.0666667,16.3333333
adegliacco,,06,46.1166667,13.2427778
adelano,,05,44.35,10.7333333
adelfia,17132,13,41.0,16.8666667
aderno,,15,37.6666667,14.8333333
adrano,36184,15,37.6666667,14.8333333
adria,,06,45.7333333,13.5166667
adria,21182,20,45.0563889,12.0577778
adro,,09,45.6166667,9.95
advise,,19,45.7166667,7.1333333
affi,,20,45.55,10.7666667
affile,,07,41.8833333,13.1
afragola,59416,04,40.9166667,14.3
africo,,15,38.0666667,15.9833333
agaggio inferiore,,08,43.9666667,7.8166667
agaggio superiore,,08,43.9666667,7.8166667
agaro,,09,46.2166667,8.2
agazzano,,05,44.95,9.5166667
agelli,,10,42.8333333,13.4166667
agello,,18,43.0666667,12.2333333
ageno,,08,44.3733333,9.1308333
agenzia valpelina,,20,45.6666667,13.0
agerola,,04,40.6333333,14.5333333
aggio,,08,44.4666667,9.0
aggius,,14,40.9333333,9.0666667
agguliaro,,20,45.3166667,11.5833333
aghezzola,,05,44.0833333,11.5
agira,8585,15,37.65,14.5166667
agliana,15721,16,43.9,11.0
agliano,,18,42.8666667,12.8666667
aglie,,12,45.3666667,7.7666667
aglientu,,14,41.0833333,9.1
agna,,05,43.75,11.7666667
agna,,08,44.4833333,10.1166667
agna,,20,45.1666667,11.9666667
agnadello,,09,45.45,9.55
agnana,,15,38.3,16.2333333
agnana calabra,,15,38.3,16.2333333
agnano,,16,43.4166667,10.7333333
agnino,,08,44.25,10.0833333
agnolo,,20,45.0,11.15
agnone,,11,41.8,14.3666667
agnova,,01,42.65,13.5
agognate,,12,45.4666667,8.5833333
agordo,,20,46.2855556,12.0375
agosta,,07,41.9833333,13.0333333
agrano,,09,45.85,8.4166667
agrate,,09,45.5666667,9.35
agrate brianza,14002,09,45.5666667,9.35
agriano,,18,42.75,13.0166667
agrifoglio,,03,39.1333333,16.3333333
agrigento,55402,15,37.3166667,13.5666667
agrimonte,,08,44.4666667,10.0666667
agro,,09,46.2166667,8.2
agro fuori,,09,46.2166667,8.2
agrons,,06,46.4711111,12.8597222
agropoli,21243,04,40.35,14.9833333
agrosa,,09,46.1166667,8.1333333
aguarone,,15,38.3,15.55
agugliano,,10,43.5333333,13.3833333
agugliaro,,20,45.3166667,11.5833333
aguiaro,,20,45.0,11.9
agumes,,20,46.6166667,10.5833333
agums,,20,46.6166667,10.5833333
aguzzo,,18,42.4833333,12.6166667
aia bosco,,05,44.7333333,11.5
aia murata,,16,43.55,11.05
aia salina,,05,44.6,11.7
aidomaggiore,,14,40.1666667,8.85
aidone,,15,37.4166667,14.45
aie,,12,44.7833333,8.4333333
aielli,,01,42.0666667,13.5833333
aiello,,01,42.5833333,13.5
aiello,,03,39.1166667,16.1666667
aiello,,06,45.8716667,13.3655556
aiello calabro,,03,39.1166667,16.1666667
aiello del friuli,,06,45.8716667,13.3655556
aiello del sabato,,04,40.8833333,14.8166667
aieta,,04,39.9166667,15.8166667
aigovo,,08,43.9666667,7.8
ailano,,04,41.3833333,14.2
ailoche,,12,45.7,8.2166667
aiola,,16,43.4333333,11.35
airasca,,12,44.9166667,7.4833333
airola,,04,41.0666667,14.55
airole,,08,43.8666667,7.55
airuno,,09,45.75,9.4166667
ajeta,,04,39.9166667,15.8166667
ala,,12,45.3166667,7.3166667
ala,,20,45.75,11.0
ala dei sardi,,14,40.65,9.3333333
ala di stura,,12,45.3166667,7.3166667
alagna,,09,45.1666667,8.8833333
alagna valsesia,,19,45.85,7.9333333
alagua,,09,46.2,8.3333333
alanno,,01,42.3,13.9666667
alassio,10384,08,44.0,8.1666667
alatri,30322,07,41.7166667,13.35
alba,30860,12,44.7,8.0333333
albacina,,05,43.35,13.0166667
albagiara,,14,39.7869444,8.8644444
albana,,06,46.0558333,13.4913889
albanella,,04,40.5,15.1333333
albaneto,,01,42.5333333,13.0333333
albano,,07,41.7333333,12.65
albano,,09,45.6833333,9.7666667
albano,,12,45.4333333,8.3833333
albano di lucania,,02,40.5833333,16.0333333
albano laziale,37869,07,41.7333333,12.65
albano sant'alessandro,,09,45.6833333,9.7666667
albano vercellese,,12,45.4333333,8.3833333
albarea,,05,44.8333333,11.7833333
albaredo,,09,45.0833333,9.25
albaredo,,17,45.85,11.05
albaredo,,20,45.6663889,12.0105556
albaredo d'adige,,20,45.3166667,11.2666667
albaredo per san marco,,09,46.1,9.5833333
albareto,,08,44.45,9.7
albareto di borgo val di taro,,08,44.45,9.7
albareto di val di taro,,08,44.45,9.7
albaron di sea,,12,45.3333333,7.1833333
albate,,09,45.7833333,9.1166667
albe,,01,42.0666667,13.4
albemga,,08,44.05,8.2166667
albenga,22761,08,44.05,8.2166667
alberazzi,,20,45.0,11.5166667
alberazzo,,20,44.9333333,12.2833333
alberese,,16,42.6666667,11.1
albereto di borgotaro,,08,44.45,9.7
albergo,,03,39.0666667,16.55
albergo corteraso,,17,46.75,10.7666667
albergo del ghertele,,20,45.9333333,11.4333333
albergo della posta,,20,46.5333333,10.5833333
albergo maso corto,,17,46.75,10.7666667
albergo monte ranere,,17,45.95,11.2833333
albergo monte rovere,,17,45.95,11.2833333
alberica,,05,44.9166667,11.0333333
albero,,05,44.0333333,11.6166667
albero,,20,45.3166667,11.4333333
alberobello,11112,13,40.7833333,17.2666667
alberona,,13,41.4333333,15.1166667
alberone,,05,45.1333333,9.5
alberone,,06,45.7566667,13.5088889
alberoni,,06,45.7566667,13.5088889
alberoni,,20,45.3491667,12.3230556
albes,,17,46.6833333,11.6333333
albettone,,20,45.35,11.5833333
albi,,03,39.0166667,16.6
albiano,,08,44.1666667,9.9166667
albiano,,17,46.1333333,11.2
albiano d'ivrea,,12,45.45,7.95
albiate,,09,45.65,9.25
albidona,,03,39.9166667,16.4666667
albignano,,09,45.5,9.4833333
albignasego,19835,20,45.35,11.8666667
albina,,20,45.8327778,12.4672222
albinea,,05,44.6166667,10.6
albino,17387,09,45.7666667,9.7833333
albisano,,20,45.6,10.7
albisola marina,,08,44.3166667,8.5
albissola marina,,08,44.3166667,8.5
albizzate,,09,45.7333333,8.8
albonese,,12,45.3,8.7
albonico,,09,46.2,9.4166667
albuzzano,,09,45.1833333,9.2666667
alcamo,44278,15,37.9833333,12.9666667
alcara,,15,38.0166667,14.7
alcara li fusi,,15,38.0166667,14.7
alcheda,,06,46.1975,12.5908333
aldegheri,,20,45.6,11.1666667
aldeno,,17,45.9666667,11.0833333
aldina seconda,,05,44.2166667,12.3166667
ales,,14,39.7708333,8.815
alessandria,,03,39.95,16.3833333
alessandria,,12,44.9,8.6166667
alessandria del carretto,,03,39.95,16.3833333
alessandria della rocca,,15,37.5666667,13.45
alessano,,13,39.8833333,18.3333333
alesso,,06,46.3194444,13.055
alezio,,13,40.0666667,18.05
alfano,,04,40.1833333,15.4166667
alfedena,,07,41.7333333,14.0333333
alfero,,05,43.85,12.05
alfiano natta,,12,45.05,8.2
alfiano nuovo,,09,45.2333333,10.1166667
alfonsine,11963,05,44.5061111,12.0563889
al gallo,,17,46.85,11.1666667
al geccio,,09,46.1,8.4333333
alghero,42034,14,40.5588889,8.3180556
alguer,,14,40.5588889,8.3180556
algund,,17,46.6833333,11.1333333
alia,,15,37.7833333,13.7166667
ali,,15,38.0333333,15.4166667
ali,,18,42.95,12.9333333
alianello,,02,40.2666667,16.25
aliano,,02,40.3166667,16.2333333
alice castello,,12,45.3666667,8.0666667
alice superiore,,12,45.4666667,7.7833333
aliena,,18,42.75,13.0333333
alife,,04,41.3333333,14.3333333
ali marina,,15,38.0,15.4333333
alimena,,15,37.7,14.1166667
aliminusa,,15,37.8666667,13.7833333
alino,,09,45.85,9.6333333
ali superiore,,15,38.0333333,15.4166667
alla,,20,45.55,10.7666667
allai,,14,39.9580556,8.8638889
allana,,04,41.3833333,14.2
allano,,02,40.3166667,16.2333333
alleghe,,20,46.4102778,12.0213889
allerona,,05,42.8166667,11.9666667
allesa,,19,45.7333333,7.75
alle sarche,,17,46.05,10.95
alli,,20,45.55,10.7666667
alliste,,13,39.95,18.0833333
alloche,,12,45.7,8.2166667
allumiere,,07,42.15,11.9
almadis,,06,46.2086111,12.8936111
al maso,,17,46.5166667,10.95
alme,,09,45.7333333,9.6166667
almenno san bartolomeo,,09,45.75,9.5666667
almenno san salvatore,,09,45.75,9.5833333
almese,,12,45.1166667,7.3833333
alo di stura,,12,45.3166667,7.3166667
al passo,,09,46.3166667,8.3833333
alpe acquanegra,,09,46.2666667,9.9166667
alpe acquanera,,09,46.2666667,9.9166667
alpe agrosa,,09,46.1166667,8.1333333
alpe airale,,09,46.2333333,9.7666667
alpe balma rossa,,09,46.4,8.4
alpe basciumo,,09,46.05,8.2333333
alpe basso,,09,46.1,8.45
alpe busarasca,,09,46.05,8.4833333
alpe caldenno,,09,46.2,9.75
alpe campo,,09,46.05,8.45
alpe campo,,17,46.25,10.15
alpe campo di sotto,,09,46.05,8.45
alpe campolomana,,09,46.1,8.0666667
alpe campolungo,,09,46.2833333,9.9
alpe casarolo,,09,46.05,8.4
alpe cavegna,,09,46.2333333,8.45
alpe cazzola,,09,46.1666667,8.4166667
alpe cheggio,,09,46.0833333,8.1166667
alpe ciamporino,,09,46.2666667,8.2
alpe col,,09,46.1666667,8.3666667
alpe cortefreddo,,09,46.2333333,8.3833333
alpe cortelancio,,09,46.0166667,8.1166667
alpe cortevecchio,,09,46.05,8.3666667
alpe cortone,,09,46.2166667,8.4166667
alpe devero,,09,46.3166667,8.25
alpe di bondeno,,09,46.3833333,9.3666667
alpe di camona,,09,46.1833333,8.1666667
alpe di corfino,,16,44.2,10.4
alpe di dumenza,,09,46.0333333,8.8166667
alpe di lenno,,09,46.0,9.15
alpe di teste,,09,46.1,8.1
alpe dosde,,17,46.4166667,10.1833333
alpe forgnone,,09,46.2,8.4166667
alpe forno,,09,46.0333333,9.45
alpe gembre,,09,46.3166667,9.95
alpe gera,,09,46.3166667,9.9333333
alpe giove,,09,46.35,8.3666667
alpe grasso,,09,46.0166667,9.4
alpe groppera,,09,46.4333333,9.3666667
alpe i motti,,09,46.2,8.4666667
alpe lagarasc,,09,46.0166667,8.3333333
alpe lagarsc,,09,46.0166667,8.3333333
alpe larecchio,,09,46.2166667,8.5
alpe lareccio,,09,46.0333333,8.0666667
alpe la satta,,09,46.35,8.3
alpe lorino,,09,46.1833333,8.2166667
alpe mandetto,,19,45.4333333,7.1333333
alpe marghino,,09,46.1666667,8.2666667
alpe mattignale,,09,46.25,8.4166667
alpe mulecetto,,09,46.4166667,9.4166667
alpe ogliana,,09,46.05,8.35
alpe ogliano,,09,46.05,8.35
alpe olza,,09,46.1,9.6166667
alpe pilocca,,19,45.4666667,7.15
alpe piodella,,09,46.2833333,9.2833333
alpe pitocca,,19,45.4666667,7.15
alpe rasica,,09,46.05,9.45
alpe rebella,,09,46.45,9.4333333
alpe rebellao,,09,46.45,9.4333333
alpe regina,,09,46.45,8.45
alpe steblino,,17,46.4833333,10.1
alpe strencia,,17,46.1833333,10.1833333
alpet,,09,46.0333333,8.8166667
alpe tartarea,,12,44.6333333,7.1833333
alpe torcelli,,09,46.1,8.2333333
alpette,,12,45.4166667,7.5833333
alpe vago,,17,46.45,10.0833333
alpe valaverta,,09,46.0333333,8.0833333
alpe vald,,09,46.0833333,8.4166667
alpe valle,,09,46.0833333,8.4166667
alpe vauzone,,09,46.0833333,8.1666667
alpe zucchero,,09,46.0666667,8.4833333
alpe zunchi,,09,46.0833333,8.5
alpicella,,08,44.5166667,9.4666667
alpicelle,,08,44.5166667,9.4666667
alpi di vaudet,,19,45.5333333,7.0166667
alpiggia,,09,46.35,9.4333333
alpignano,17390,12,45.1,7.5166667
alpi vaudet,,19,45.5333333,7.0166667
alseno,,05,44.9,9.9833333
alsium,,07,41.9333333,12.1
al solivo,,17,46.2166667,10.35
alta marina,,10,43.65,13.3333333
altamura,66119,02,40.8166667,16.55
altana,,06,46.1036111,13.5472222
altare,,08,44.3333333,8.3333333
altavilla,,01,42.5833333,13.5666667
altavilla,,04,40.5333333,15.1333333
altavilla irpina,,04,41.0,14.7833333
altavilla milicia,,15,38.0333333,13.5333333
altavilla silentina,,04,40.5333333,15.1333333
altavilla vicentina,10643,20,45.5166667,11.4666667
altedo,,05,44.6666667,11.4833333
altessano,,12,45.1333333,7.65
altidona,,10,43.1,13.8
altieri,,07,41.6833333,12.65
altilia,,03,39.1333333,16.25
altino,,01,42.1,14.3166667
altino,,10,42.8666667,13.3
altino,,20,45.5444444,12.3933333
altipiani di arcinazzo,,07,41.85,13.1833333
altofonte,,15,38.05,13.3
altomonte,,03,39.7,16.1333333
alto nove,,20,46.0530556,12.3194444
altopascio,12150,16,43.8166667,10.6666667
altovia,,01,42.6,13.4666667
altuis,,20,46.5833333,11.9166667
alture,,06,45.8538889,13.3536111
alvera,,20,46.5488889,12.1555556
alvi,,01,42.55,13.45
alviano,,07,42.5833333,12.3
alviano,,10,43.3333333,13.6833333
alvignanello,,04,41.2,14.4333333
alvignano,,04,41.25,14.3333333
alvisopoli,,20,45.8058333,12.92
alvito,,07,41.6833333,13.75
alzano,,01,42.2333333,13.1833333
alzano,,09,45.7333333,9.7166667
alzano di sopra,,09,45.7333333,9.7333333
alzano lombardo,12767,09,45.7333333,9.7166667
alzano maggiore,,09,45.7333333,9.7166667
alzano sopra,,09,45.7333333,9.7333333
alzate,,12,45.5666667,8.5833333
alzate con linduno,,12,45.5666667,8.5833333
amalafede,,04,40.2333333,15.0666667
amalfi,,04,40.6333333,14.6
amandola,,10,42.9833333,13.35
amantea,13733,03,39.1333333,16.0666667
amaro,,06,46.3777778,13.0958333
amaroni,,03,38.7833333,16.45
amaseno,,07,41.4666667,13.3333333
amato,,15,38.3833333,16.1333333
amatrice,,01,42.6333333,13.2833333
ambra,,16,43.4166667,11.6
ambrogiana,,16,43.7333333,11.0166667
ambrogio,,05,44.9166667,11.9166667
ambrogio,,07,41.4,13.8833333
ambuletum,,20,45.0833333,10.95
ameglia,,08,44.0666667,9.95
amelia,11282,18,42.55,12.4166667
amendolara,,03,39.95,16.5833333
ameno,,09,45.7833333,8.4333333
amica,,03,39.6,16.6833333
ammonite,,05,44.4477778,12.09
amola,,05,44.45,11.1666667
amola del piano,,05,44.65,11.1666667
amola di piano,,05,44.65,11.1666667
amorosi,,04,41.2,14.4666667
ampezzo,,06,46.4138889,12.7947222
ampinana,,05,43.9333333,11.5333333
ampugnano,,16,43.2666667,11.25
anacapri,,04,40.55,14.2166667
anagni,21519,07,41.7333333,13.15
ancaiano,,16,43.3,11.2166667
ancaiano,,18,42.65,12.7666667
ancarano,,10,42.8333333,13.1
anchiano,,16,43.8166667,10.7666667
anchione,,16,43.8166667,10.7666667
ancona,100982,10,43.6333333,13.5
anconella,,05,44.3,11.3166667
andagna,,08,43.9833333,7.7833333
andali,,03,39.0166667,16.7666667
andalo,,17,46.1666667,11.0
andezeno,,12,45.0333333,7.8666667
andogno,,17,46.0666667,10.8833333
andonno,,12,44.3,7.4333333
andorno cacciorna,,12,45.6166667,8.05
andorno micca,,12,45.6166667,8.05
andrano,,13,39.9833333,18.3833333
andrate,,12,45.5333333,7.8833333
andraz,,20,46.4833333,11.9833333
andrazza,,06,46.4138889,12.5911111
andreis,,06,46.2058333,12.6127778
andreoli,,01,42.2,14.4
andrers,,06,46.2058333,12.6127778
andretta,,04,40.9333333,15.3166667
andria,93819,13,41.2166667,16.2833333
anduins,,06,46.2380556,12.9658333
anela,,14,40.45,9.05
anfo,,09,45.7666667,10.4833333
angeli,,18,43.05,12.5666667
angellara,,04,40.2333333,15.2833333
angera,,09,45.7666667,8.5833333
anghiari,,05,43.5333333,12.05
angoli,,03,38.9666667,16.4333333
angolo,,09,45.8833333,10.1333333
angolo terme,,09,45.8833333,10.1333333
angoris,,06,45.9391667,13.4619444
angri,29745,04,40.7333333,14.5666667
anguillara,,20,45.1333333,11.8833333
anguillara sabazia,17734,07,42.0833333,12.2666667
anguillara veneta,,20,45.1333333,11.8833333
anitrella,,07,41.6333333,13.55
anna,,15,37.9333333,15.7666667
annicco,,05,45.2333333,9.8666667
annifo,,18,43.05,12.85
annone di brianza,,09,45.8,9.3333333
annone veneto,,20,45.7983333,12.6838889
annunziata,,03,39.1666667,16.0666667
annunziata,,07,41.3833333,13.75
annunziata,,14,39.3022222,9.5052778
annunziata,,15,37.7666667,15.1833333
anoia,,03,38.45,16.0833333
anoia superiore,,15,38.4333333,16.1
anqua,,16,43.2166667,10.9833333
anquillara sabazia,,07,42.0833333,12.2666667
ansedonia,,16,42.4,11.3
ansizio,,09,45.6166667,8.85
antea,,09,45.85,9.6666667
antegnate,,09,45.4833333,9.7833333
antei sant'andrea,,19,45.8,7.6
antella,,16,43.7333333,11.3166667
anterivo,,20,46.2833333,11.3666667
antermoia,,17,46.6833333,11.85
anterselva,,17,46.8630556,12.1044444
anterselva bassa,,17,46.8333333,12.0833333
anterselva di mezzo,,17,46.8630556,12.1044444
anterselva mezzavalle,,17,46.8630556,12.1044444
antesica,,05,44.5666667,10.2166667
antesiea,,05,44.5666667,10.2166667
antey-saint-andre,,19,45.8,7.6
antholz-mitterthal,,17,46.8630556,12.1044444
antica fonte di peio,,20,46.35,10.6666667
antico,,05,43.85,12.3
antico di maiolo,,05,43.85,12.3
anticoli corrado,,07,42.0166667,12.9833333
antignano,,16,43.5,10.3166667
antignano di livorno,,16,43.5,10.3166667
antillo,,15,37.9666667,15.25
antognola,,18,43.2333333,12.35
antona,,16,44.0666667,10.1833333
antonimina,,15,38.2666667,16.15
antrodoco,,01,42.4166667,13.0833333
antronapiana,,09,46.05,8.1166667
antrosano,,01,42.0666667,13.4
anversa,,01,41.9833333,13.8
anversa degli abruzzi,,01,41.9833333,13.8
anzano,,20,45.9883333,12.3291667
anzano del parco,,09,45.7666667,9.2
anzano di puglia,,04,41.1166667,15.2833333
anzi,,02,40.5166667,15.9166667
anzino,,09,45.9833333,8.15
anzio,41629,07,41.45,12.6166667
anzo,,08,44.2166667,9.55
anzola,,05,44.55,11.1833333
anzola dell'emilia,,05,44.55,11.1833333
anzola d'emilia,,05,44.55,11.1833333
anzola d'ossola,,09,45.9833333,8.35
anzolla,,08,44.4833333,10.2
anzu,,20,46.0,11.9333333
aonedis,,06,46.1508333,12.9644444
aosta,33503,19,45.7333333,7.3333333
apagni,,18,42.8833333,12.8833333
apatia,,03,39.2166667,16.75
apecchio,,05,43.55,12.4166667
apice,,04,41.1166667,14.9333333
apiro,,10,43.3833333,13.1333333
apoleggia,,18,42.5,12.8333333
apollosa,,04,41.0833333,14.7
appecano,,18,42.6333333,12.65
appennino,,18,42.9666667,13.0666667
appiano,,09,45.7333333,8.9833333
appiano,13521,17,46.4666667,11.25
appiano gentile,,09,45.7333333,8.9833333
appignano,,01,42.5333333,13.85
appignano,,10,43.35,13.3333333
appignano del tronto,,10,42.9,13.6666667
aprica,,09,46.15,10.1
apricale,,08,43.8833333,7.65
apricena,13753,13,41.7833333,15.45
apriglianello,,03,39.0833333,17.05
aprigliano,,03,39.2333333,16.3333333
aprilia,67935,07,41.6,12.65
apuania,,16,44.0833333,10.1
aquara,,04,40.4333333,15.25
aquarone,,15,38.3,15.55
aquasanta,,10,42.7666667,13.4166667
aquasparta,,18,42.6833333,12.55
aquaviva picena,,10,42.95,13.8166667
aquila,,01,42.3666667,13.3666667
aquila degli abruzzi,,01,42.3666667,13.3666667
aquilaia,,18,42.8333333,13.05
aquilano,,01,42.55,13.6166667
aquilea,,16,43.9166667,10.5166667
aquileia,,06,45.7702778,13.3683333
aquileja,,06,45.7702778,13.3683333
aquilinia,,06,45.6,13.8
aquilonia,,13,41.0,15.4833333
aquino,,07,41.5,13.7
araba,,20,46.5,11.8666667
arabba,,20,46.5,11.8666667
aradeo,9108,13,40.1333333,18.1333333
arafranca,,01,42.6166667,13.3
aragno,,01,42.55,13.45
aragona,10490,15,37.4,13.6166667
aramo,,16,43.9666667,10.7
arangea,,03,38.1,15.7
arba,,06,46.1461111,12.7925
arbatax,,14,39.9344444,9.7055556
arbatax di tortoli,,14,39.9344444,9.7055556
arbocco,,08,44.3833333,9.1916667
arbod,,19,45.7666667,7.3
arborea,,14,39.7744444,8.5819444
arboree,,14,39.7744444,8.5819444
arborio,,12,45.5,8.3833333
arboro,,12,45.5,8.3833333
arbus,,14,39.5272222,8.5994444
arcade,,20,45.7888889,12.2188889
arcano,,06,46.1444444,13.0163889
arce,,07,41.5833333,13.5666667
arcello,,05,44.95,9.4333333
arcene,,09,45.5666667,9.6
arceto,,05,44.6166667,10.7166667
arcetri,,16,43.75,11.2333333
arcevia,,05,43.5,12.9333333
arche,,17,46.0333333,10.8666667
archi,,01,42.0833333,14.3833333
archi,,03,38.15,15.65
arcidosso,,16,42.8666667,11.55
arco,15373,17,45.9166667,10.8833333
arcola,,06,46.2005556,12.5244444
arcola,10170,08,44.1166667,9.9
arcole,,20,45.35,11.2833333
arconate,,09,45.55,8.85
arcore,17361,09,45.6166667,9.3166667
arcugnano,,20,45.5,11.5333333
arcumeggia,,09,45.9166667,8.7166667
ardali,,14,40.0166667,9.6333333
ardara,,14,40.6166667,8.8
ardauli,,14,40.0833333,8.9
ardea,32934,07,41.6,12.55
ardenno,,09,46.15,9.6333333
ardenza,,16,43.5166667,10.3166667
ardesio,,09,45.9333333,9.9333333
ardore,,15,38.1833333,16.1666667
ardore marina,,15,38.1666667,16.2
ardore superiore,,15,38.1833333,16.1666667
arena,,03,38.5666667,16.2166667
arena,,10,42.8666667,13.4333333
arenabianca,,04,40.3,15.6833333
arena po,,09,45.0833333,9.35
arenas,,14,39.1166667,8.5666667
arenzano,11572,08,44.4,8.6833333
arese,19649,09,45.5333333,9.0833333
arezzo,,08,44.6,9.05
arezzo,95233,16,43.4166667,11.8833333
arezzo,,18,42.7166667,12.6166667
arfanta,,20,45.9675,12.2
argallo,,08,43.9166667,7.8
argegno,,09,45.9333333,9.1333333
argelato,,05,44.6333333,11.35
argenta,22005,05,44.6166667,11.8333333
argentera,,12,44.4,6.95
argentiera,,12,44.8833333,6.9333333
argentiera,,14,40.7405556,8.1497222
argiano,,16,42.9833333,11.4166667
argignano,,05,43.3333333,12.95
argine,,09,45.0666667,9.1166667
argine del sabato,,05,44.95,11.55
arginella,,05,44.75,10.7666667
argnai,,09,46.2333333,8.2666667
argusto,,03,38.6666667,16.4333333
ariano di puglia,,04,41.15,15.0833333
ariano ferrarese,,05,44.9411111,12.1175
ariano irpino,23034,04,41.15,15.0833333
ariano nel polesine,,20,44.94,12.1388889
ariano polesine,,20,44.94,12.1388889
ariano polesino,,20,44.94,12.1388889
ari,,01,42.2833333,14.25
ariccia,19033,07,41.7166667,12.6666667
arielli,,01,42.25,14.3
arienzo,,04,41.0166667,14.5
arienzo san felice,,04,41.0166667,14.5
arietta,,03,39.05,16.7833333
arigliano,,13,39.85,18.35
arigna,,09,46.1333333,9.9833333
arignano,,12,45.0333333,7.9
ariis,,06,45.8727778,13.0872222
aringo,,01,42.55,13.2666667
arini,,15,37.8166667,12.4833333
ariola,,03,38.5833333,16.2333333
arischia,,01,42.4166667,13.3333333
aritzo,,14,39.9555556,9.1969444
arixi,,14,39.5352778,9.1552778
arlena di castro,,07,42.4666667,11.8166667
arli,,10,42.8,13.45
arliod,,19,45.7666667,7.3
arluno,10662,09,45.5,8.9333333
arma di taggia,,08,43.8333333,7.85
armarolo,,05,44.6,11.4666667
armeno,,09,45.8166667,8.4333333
armentano,,04,39.9666667,15.9
armento,,04,40.3,16.0666667
armo,,03,38.0833333,15.7333333
armungia,,14,39.5233333,9.3808333
arnara,,07,41.5833333,13.3833333
arnauds,,12,45.0666667,6.6833333
arnaz,,19,45.6333333,7.7166667
arnesano,,13,40.3333333,18.0833333
arni,,16,44.0666667,10.25
arnoga,,17,46.4666667,10.1666667
arnone,,04,41.0666667,14.0333333
arola,,04,40.6333333,14.4333333
arola,,05,44.9333333,9.5166667
arola,,09,45.8,8.35
arola,,10,42.7666667,13.45
arona,14423,09,45.7666667,8.5666667
arosio,,09,45.7,9.2
arpaia,,04,41.0333333,14.55
arpaise,,04,41.0333333,14.7333333
arpesina,,09,44.9333333,9.1166667
arpino,,07,41.65,13.6
arpiola,,08,44.3166667,9.9
arqua petrarca,,20,45.2666667,11.7166667
arquata,,08,44.6833333,8.8833333
arquata del tronto,,10,42.7666667,13.3
arquata scrivia,,08,44.6833333,8.8833333
arquata serivia,,08,44.6833333,8.8833333
arre,,20,45.2166667,11.9333333
arresi,,14,39.0019444,8.6413889
arrone,,18,42.5833333,12.7666667
arsago,,09,45.6833333,8.7333333
arsago seprio,,09,45.6833333,8.7333333
arsego,,20,45.5333333,11.8666667
arsenti podere mont,,16,43.0666667,10.9
arsie,,20,45.9833333,11.75
arsiera,,20,46.3733333,12.2275
arsiero,,20,45.8,11.35
arsita,,01,42.5,13.7833333
arsoli,,07,42.0333333,13.0166667
arta,,06,46.4769444,13.0308333
artallo,,08,43.9,8.0
artana,,08,44.65,9.2166667
arta terme,,06,46.4769444,13.0308333
artegna,,06,46.2325,13.1127778
artemisio,,01,42.6,13.8666667
artena,11564,07,41.7333333,12.9166667
arten,,20,46.0,11.8333333
arteselle,,20,45.1833333,11.7666667
artimino,,16,43.7833333,11.05
artogna campo,,19,45.7833333,7.95
artogne,,09,45.85,10.1666667
arvie,,19,45.7,7.1833333
arvier,,19,45.7,7.1833333
arzachena,11716,14,41.0833333,9.3833333
arzana,,14,39.9197222,9.5269444
arzano,38397,04,40.9166667,14.2666667
arzano,,07,41.2319444,13.5680556
arzarello,,20,45.2741667,12.0041667
arzene,,06,46.0047222,12.8463889
arzene,,08,43.95,7.8666667
arzeno,,08,44.35,9.4666667
arzenutto,,06,46.0166667,12.8666667
arzercavalli,,20,45.25,11.9333333
arzergrande,,20,45.2666667,12.0475
arzeri di sopra,,20,45.7,12.55
arzignano,24565,20,45.5166667,11.3333333
arzona,,03,38.6333333,16.05
ascagnano,,18,43.25,12.3833333
ascea,,04,40.1333333,15.1833333
aschi,,01,41.9666667,13.7333333
aschio,,18,42.9666667,13.05
asciano,,16,43.2333333,11.55
ascoli,,10,42.85,13.5666667
ascoli piceno,50092,10,42.85,13.5666667
ascoli satriano,,13,41.2,15.5666667
ascrea,,01,42.2,13.0
aselogna,,20,45.1666667,11.25
asiago,,20,45.8666667,11.5
asola,10112,09,45.2166667,10.4
asolo,,20,45.8,11.9
asproli,,18,42.75,12.35
asseggiano,,20,45.4833333,12.1833333
assemini,26309,14,39.2905556,8.9969444
assergi,,01,42.4166667,13.5
assero,,15,37.6166667,14.4166667
assieni,,15,38.05,12.6833333
assisi,25749,18,43.0666667,12.6166667
asso,,09,45.8666667,9.2666667
assolo,,14,39.8102778,8.9194444
assoro,,15,37.6166667,14.4166667
astfeld,,17,46.6666667,11.3666667
asti,72194,12,44.9,8.2
asuai,,14,40.0,9.2166667
asuni,,14,39.8727778,8.9461111
ateleta,,11,41.85,14.2
atella,,02,40.8666667,15.65
atena,,02,40.45,15.55
atena lucana,,02,40.45,15.55
atena lucano,,02,40.45,15.55
atessa,11081,01,42.0666667,14.45
atina,,07,41.6166667,13.8
atolia,,15,38.0833333,15.45
atrani,,04,40.6333333,14.6166667
atri,11904,01,42.5833333,13.9666667
atripalda,11361,04,40.9166667,14.8333333
attiggio,,05,43.3166667,12.9166667
attigliano,,07,42.5166667,12.2833333
attilia,,03,39.1833333,16.8666667
attimis,,06,46.1886111,13.3152778
atzara,,14,39.9913889,9.0780556
auditore,,05,43.7333333,12.5666667
augusta,33635,15,37.2166667,15.2166667
augusta taurinorum,,12,45.05,7.6666667
auletta,,02,40.5666667,15.4166667
aulla,10492,08,44.2,9.9666667
aulpi,,07,41.2666667,13.9
auna di sopra,,17,46.55,11.4
auna di sotto,,17,46.5166667,11.4333333
aunede,,20,46.4327778,12.2930556
aupa,,06,46.5066667,13.2522222
aurava,,06,46.0383333,12.8836111
aurelia,,07,42.1333333,11.7833333
aurighi,,08,43.95,7.8166667
aurigo,,08,43.9833333,7.9166667
auri grande,,19,45.6833333,7.1333333
aurisina,,06,45.7475,13.6786111
aurisina case,,06,45.7491667,13.6705556
auronzo,,20,46.5555556,12.4380556
auronzo di cadore,,20,46.5555556,12.4380556
ausa-corno,,06,45.7580556,13.2380556
ausonia,,07,41.35,13.75
austis,,14,40.0666667,9.0833333
autagne,,12,44.9833333,6.8166667
auzate,,09,45.7333333,8.4166667
avacelli,,05,43.4666667,12.9833333
avaglio,,06,46.4363889,12.9152778
avaglio,,16,43.95,10.7833333
avasinis,,06,46.2908333,13.0475
avausa,,06,46.5219444,12.8247222
aveacco,,06,46.1752778,13.1325
aveggio,,08,44.3666667,9.3
ave gratia plena,,04,41.1333333,14.4
avelengo,,17,46.6333333,11.2166667
avella,,04,40.9666667,14.6
avellino,52466,04,40.9,14.7833333
avena,,03,39.8666667,15.9166667
avenale,,10,43.35,13.2333333
avendita,,18,42.75,13.0333333
avenza,,16,44.05,10.0666667
averara,,09,45.9833333,9.6333333
aversa,56626,04,40.9666667,14.2
avert d' ingherina,,09,46.2333333,9.2833333
avert d'inghirina,,09,46.2333333,9.2833333
avesa,,20,45.4666667,11.0
avetrana,,13,40.35,17.7166667
avezzano,38957,01,42.0333333,13.4166667
aviano,,06,46.0705556,12.5947222
aviano-castello,,06,46.0527778,12.5613889
avigliana,12080,12,45.0833333,7.3833333
avigliano,11881,02,40.7333333,15.7166667
avigliano,,18,42.65,12.4333333
avigliano lucana,,02,40.7333333,15.7166667
avigna,,17,46.5666667,11.35
avilla,,01,42.65,13.7
avilla,,06,46.205,13.1058333
avio,,20,45.7333333,10.9333333
avola,32767,15,36.9,15.1333333
avolasio,,09,45.8833333,9.5166667
ayasse grauson,,19,45.6333333,7.3833333
aymaville,,19,45.7,7.2333333
aymavilles,,19,45.7,7.2333333
azeglio,,12,45.4166667,8.0
azienda le trezze,,20,45.55,12.45
azienda piave - isonzo,,20,45.5480556,12.6130556
azzanello,,06,45.8230556,12.6466667
azzanello,,09,45.3,9.9166667
azzano,,06,46.0341667,13.4041667
azzano,,16,44.0166667,10.2333333
azzano,,18,42.8166667,12.7333333
azzano,,20,45.3666667,10.9333333
azzano decimo,13421,06,45.8830556,12.7130556
azzate,,09,45.7833333,8.8
azzida,,06,46.1105556,13.4852778
azzone,,09,45.9833333,10.1166667
baccano,,18,42.9166667,12.2333333
bacciolino,,05,44.0308333,12.1844444
bacedasco,,05,44.85,9.9
baceno,,09,46.2666667,8.3166667
bacezza,,08,44.3202778,9.3136111
bacoli,26579,04,40.8,14.0833333
bacu abis,,14,39.2436111,8.4619444
bacugno,,01,42.5333333,13.1166667
badaiuz,,06,46.4425,13.1775
badalucco,,08,43.9166667,7.85
badde salighes,,14,40.35,8.8833333
baddes salighes,,14,40.35,8.8833333
badesi,,14,40.9666667,8.8833333
badessa,,01,42.35,14.0333333
badesse,,16,43.3833333,11.2666667
badia agnano,,16,43.4333333,11.65
badia al fiolo,,05,43.3166667,12.6166667
badia a prataglia,,05,43.7833333,11.8666667
badia a ruoti,,16,43.4,11.6
badia,,01,42.0833333,13.9166667
badia,,03,38.4,15.95
badia,,05,43.0833333,12.0
badia,,15,38.1666667,15.5166667
badia,,16,43.55,11.0166667
badia,,17,46.6166667,11.9
badia calavena,,20,45.5666667,11.15
badia cantignano,,16,43.8,10.5
badia di santo spirito,,01,42.0833333,13.9166667
badia di voltre,,05,44.0344444,12.0408333
badia morronese,,01,42.0833333,13.9166667
badia nuova,,05,44.15,11.2
badia pavese,,05,45.1166667,9.4833333
badia polesine,10947,20,45.0833333,11.4833333
badia prataglia,,05,43.7833333,11.8666667
badia tebalda,,05,43.7,12.1833333
badia tedalda,,05,43.7,12.1833333
badia vecchia,,15,38.0,15.1
badiazza,,15,38.2166667,15.5333333
badino,,07,41.2833333,13.2
badiola al fango,,16,42.7833333,10.9666667
badiola,,16,43.5833333,11.5166667
badiola,,18,43.0166667,12.3166667
badoara,,20,45.0166667,11.95
badoere,,20,45.6352778,12.0833333
badolato,,03,38.5666667,16.5166667
badolato stazione,,03,38.5666667,16.5666667
badolo,,05,44.3666667,11.2833333
baffi,,03,39.5833333,16.3
bafia,,15,38.0666667,15.2
bagaggiolo,,20,45.5694444,12.4116667
bagaladi,,15,38.0166667,15.8166667
bagarotto,,05,44.9666667,9.9166667
baggio,,09,45.45,9.0833333
baggio,,20,45.6833333,11.85
bagheria,55388,15,38.0833333,13.5
bagini,,09,46.0833333,9.65
baglio biro,,15,38.1,12.7333333
baglio d'inferno,,15,37.8166667,12.55
baglio guarine,,15,37.8666667,12.6666667
baglio guttaja,,15,37.7666667,12.6666667
baglio inferno,,15,37.8166667,12.55
baglio manzo,,15,37.85,12.5166667
baglio messina,,15,38.0833333,12.7166667
baglio messinello,,15,37.8166667,12.6666667
baglio perino,,15,37.8166667,12.5333333
baglio rinazzo,,15,37.8166667,12.6
baglio rizzo,,15,37.95,12.6833333
baglio spano,,15,37.85,12.5333333
bagnacavallo,16423,05,44.4166667,12.0
bagnaia,,07,42.4166667,12.15
bagnaia,,16,43.2166667,11.2833333
bagnara,,04,41.05,14.7833333
bagnara,,20,45.8416667,12.8511111
bagnara calabra,11165,03,38.2833333,15.8
bagnara di romagna,,05,44.3833333,11.8166667
bagnario arsa,,06,45.8841667,13.2861111
bagnarola,,06,45.8708333,12.8569444
bagnarola di sopra,,05,44.1633333,12.3511111
bagnasco,,08,44.3,8.0333333
bagnena,,05,43.5833333,11.7833333
bagni acque albule,,07,41.95,12.7166667
bagni albule,,07,41.95,12.7166667
bagni,,04,40.7333333,13.95
bagni,,05,44.8,12.2666667
bagni,,07,41.95,12.7166667
bagni,,09,46.25,9.6
bagni,,12,44.3,7.0833333
bagni,,17,46.6813889,12.3691667
bagni,,18,42.7833333,12.1166667
bagni braies vecchia,,17,46.7163889,12.2208333
bagni della porretta,,05,44.15,10.9833333
bagni del lido,,20,45.4130556,12.3741667
bagni del masino,,09,46.25,9.6
bagni di casciana,,16,43.5166667,10.6166667
bagni di chianciano,,05,43.05,11.8333333
bagni di lavina bianca,,17,46.4833333,11.55
bagni di lucca,,16,44.0166667,10.5833333
bagni di lusnizza,,06,46.4972222,13.3716667
bagni di masino,,09,46.25,9.6
bagni di mommialla,,16,43.4666667,10.9166667
bagni di moso,,17,46.6813889,12.3691667
bagni di piandimaia,,17,46.7269444,12.1902778
bagni di pisa,,16,43.7666667,10.4333333
bagni di rabbi,,20,46.4,10.8
bagni di riomolino,,17,46.8572222,12.0175
bagni di salomone,,17,46.8233333,12.0780556
bagni di san candido,,17,46.7211111,12.3094444
bagni di san giuliano,,16,43.7666667,10.4333333
bagni di sesto,,17,46.6813889,12.3691667
bagni di stigliano,,07,42.1166667,12.0333333
bagni di tivoli,,07,41.95,12.7166667
bagni di vicarello,,07,42.1666667,12.2
bagni di vinadio,,12,44.3,7.0833333
bagnile,,05,44.2247222,12.2708333
bagni pervalle,,17,46.7372222,12.0058333
bagni san cataldo,,02,40.75,15.65
bagni san filippo,,05,42.9333333,11.7
bagni san giuliano,,16,43.7666667,10.4333333
bagno a ripoli,25431,16,43.75,11.3166667
bagno,,01,42.3,13.4166667
bagno,,04,40.7333333,13.95
bagno,,16,42.7833333,10.2166667
bagno di piano,,05,44.65,11.2833333
bagno di romagna,,05,43.8333333,11.95
bagno d'ischia,,04,40.7333333,13.95
bagnogrande,,01,42.3,13.4166667
bagnola,,10,43.4166667,13.5
bagnole,,05,44.2455556,12.1108333
bagnoli,,04,40.8166667,14.1666667
bagnoli,,06,45.6175,13.8211111
bagnoli,,16,42.8666667,11.55
bagnoli,,20,45.1833333,11.8833333
bagnoli della rosandra,,06,45.6175,13.8211111
bagnoli del trigno,,11,41.7,14.45
bagnoli di sopra,,20,45.1833333,11.8833333
bagnoli irpino,,04,40.8333333,15.0666667
bagnolo,,01,42.65,13.2166667
bagnolo,,05,44.2130556,12.2177778
bagnolo,,07,42.4,12.3833333
bagnolo,,12,44.75,7.3166667
bagnolo,,13,40.15,18.35
bagnolo,,16,42.85,11.6166667
bagnolo,,20,45.2666667,10.8833333
bagnolo cremasco,,09,45.35,9.6
bagnolo del salenio,,13,40.15,18.35
bagnolo del salento,,13,40.15,18.35
bagnolo in piano,,05,44.7666667,10.6666667
bagnolo mella,12165,09,45.4333333,10.1666667
bagnolo piemonte,,12,44.75,7.3166667
bagnolo san vito,,20,45.0833333,10.8833333
bagnone,,08,44.3166667,9.9833333
bagnore,,16,42.85,11.5666667
bagnoregio,,07,42.6166667,12.0833333
bagno roselle,,16,42.8,11.1333333
bagno san giacomo,,05,44.85,11.7666667
bagno termine,,17,46.4833333,11.55
bagno vignoni,,16,43.0333333,11.6166667
bagolino,,09,45.8166667,10.4666667
baia,,04,40.8166667,14.0666667
baia domizia,,07,41.1833333,13.8166667
baiana,,06,45.7833333,13.2666667
baiano,,04,40.95,14.6166667
baiano,,18,42.7166667,12.6666667
baiardo,,08,43.9,7.7166667
baiessa,,09,46.0166667,8.55
baigno,,05,44.1333333,11.0833333
bainsizza,,07,41.4833333,12.7833333
baio dora,,12,45.5,7.8333333
baiso,,05,44.5,10.6
baita,,06,45.75,13.7166667
baita dosso,,17,46.45,10.2166667
baita la rua,,09,46.1,9.9166667
baite altomera,,17,46.4333333,10.1833333
baite altumeira,,17,46.4333333,10.1833333
baite bota,,09,46.1166667,10.1333333
baite cigola,,09,46.05,9.8666667
baite della rua,,09,46.1,9.9166667
baite del zebru,,17,46.4666667,10.45
baite di bota,,09,46.1166667,10.1333333
baite di dombastone,,17,46.3166667,10.3666667
baite dombastone,,17,46.3166667,10.3666667
baite dorena,,17,46.2,10.2833333
baite ronzone,,17,46.3666667,10.4166667
baite rua,,09,46.1,9.9166667
baito,,20,45.6833333,11.0666667
bajo dora,,12,45.5,7.8333333
balanello,,03,39.6,16.6666667
balangero,,12,45.2666667,7.5166667
balano di falco,,03,39.6,16.6833333
balata,,15,36.9666667,14.8
balata di baida,,15,38.0333333,12.7833333
balata di modica,,15,36.9666667,14.8
balata di modico,,15,36.9666667,14.8
balbano,,16,43.8333333,10.4
baldassarri,,13,40.4166667,17.9666667
baldichieri,,12,44.9,8.1166667
baldichieri d'asti,,12,44.9,8.1166667
baldissero torinese,,12,45.0666667,7.8166667
balestrate,,15,38.05,13.0
balestrino,,08,44.1166667,8.1666667
balifrascio,,04,40.1833333,15.6333333
ballabio,,09,45.9,9.4166667
ballabio inferiore,,09,45.8833333,9.4166667
ballabio superiore,,09,45.9,9.4166667
ballan,,20,44.9666667,11.7833333
ballao,,14,39.5483333,9.3625
ballata,,15,37.9666667,12.6833333
ballerini,,08,44.7166667,9.3833333
balletto,,15,37.9166667,13.1333333
ballino,,17,45.9666667,10.8
balma,,12,45.65,8.0166667
balme,,12,45.3,7.2166667
balmelle,,09,46.2333333,8.15
balmuccia,,09,45.8166667,8.1333333
balocco,,12,45.4666667,8.2833333
balsamo,,15,36.8,15.1
balsorano,,07,41.8,13.5666667
balsorano nuovo,,07,41.8166667,13.5666667
balsorano vecchio,,07,41.8,13.5666667
balvano,,02,40.65,15.5166667
balze,,05,43.7833333,12.0833333
balzi,,04,41.1166667,14.3666667
balzo,,10,42.8333333,13.3166667
balzola,,12,45.1833333,8.4
bampensiere,,15,37.4666667,13.7833333
bana,,08,44.3494444,9.1816667
banari,,14,40.5666667,8.7
bando,,06,45.8791667,12.9138889
bannari,,14,39.7969444,8.8194444
bannari di usellus,,14,39.7969444,8.8194444
bannari d'usellus,,14,39.7969444,8.8194444
banne,,06,45.6747222,13.8002778
bannia,,06,45.9208333,12.7552778
bantine,,14,40.5833333,9.0833333
banzena,,05,43.7166667,11.8666667
banzi,,02,40.8666667,16.0166667
banzola,,05,44.7666667,10.0166667
banzuola nuova,,05,44.45,10.8666667
baone,,20,45.2333333,11.6833333
baracca del brigante,,15,38.1,15.8833333
baraccamenti,,14,41.1333333,9.4666667
baracche tirivolo,,03,39.1,16.6166667
baradili,,14,39.7225,8.8986111
baragazza,,05,44.1333333,11.2
baraggia,,12,45.5666667,8.3333333
baraggia di santa maria,,12,45.5666667,8.3333333
baragiano,,02,40.6833333,15.5833333
baranello,,11,41.5333333,14.5666667
barano,,01,42.3,13.2666667
barano,,04,40.7,13.9166667
barano d'ischia,,04,40.7,13.9166667
baranzate,,09,45.5333333,9.1166667
baratili san pietro,,14,39.9930556,8.5552778
barazzetto,,06,46.0602778,13.0286111
barba,,04,41.0333333,14.7666667
barbaiana,,09,45.55,9.0
barbana nel collio,,06,45.9833333,13.4666667
barbanella,,16,42.7833333,11.1333333
barbania,,12,45.2833333,7.6333333
bar,,12,45.1833333,6.9833333
barbara,,05,43.75,13.0166667
barbarano,,13,39.8666667,18.3166667
barbarano romano,,07,42.25,12.0666667
barbarano vicentino,,20,45.4,11.5333333
barbarasco,,08,44.2333333,9.9333333
barbaricina,,16,43.7166667,10.3666667
barbariga,,20,45.1,11.8666667
barbarighe,,20,45.1202778,12.0302778
barbeano,,06,46.0827778,12.8694444
barberini,,05,43.8666667,12.1833333
barberino,,16,44.0,11.25
barberino di mugello,10271,16,44.0,11.25
barberino di val d'elsa,,16,43.5333333,11.1666667
barberino val d'elsa,,16,43.5333333,11.1666667
barbialla,,16,43.6166667,10.8833333
barbiallo,,16,43.6166667,10.8833333
barbiana,,09,45.55,9.0
barbiana,,16,43.9,11.4666667
barbianello,,09,45.0833333,9.2
barbiano,,05,43.7333333,11.6833333
barbona,,01,42.5166667,13.1333333
barbona,,20,45.1,11.7
barbuglio,,20,45.1,11.6
barbusi,,14,39.1966667,8.5005556
barcellona-pozzo di gotto,,15,38.15,15.2166667
bar cenisia,,12,45.1833333,6.9833333
bar cenisio,,12,45.1833333,6.9833333
barche,,20,45.8544444,12.0291667
barcheo,,08,43.9,8.0166667
barchessa,,05,44.7333333,11.6166667
barchessone,,20,44.9166667,11.2333333
barchi,,05,45.1833333,10.4166667
barcis,,06,46.1925,12.5569444
barco,,05,44.0666667,11.3833333
barco,,06,45.8208333,12.6680556
barco,,20,45.8294444,12.2355556
barco di gallo,,03,39.0833333,16.9833333
barco di gullo,,03,39.0833333,16.9833333
barcola,,06,45.6830556,13.7519444
barcon,,20,45.7205556,12.0119444
bardano,,07,42.75,12.05
bard,,19,45.6,7.75
bard cenisio,,12,45.1833333,6.9833333
bardi,,08,44.6333333,9.7333333
bardineto,,08,44.2,8.1333333
bardolino,,20,45.55,10.7166667
bardonazzi,,08,44.75,9.6833333
bardonecchia,,12,45.0833333,6.7
bareggio,17271,09,45.4666667,8.9833333
baressa,,14,39.7141667,8.8758333
barete,,01,42.4333333,13.2666667
bareto,,05,44.0,12.2
barga,10292,16,44.0666667,10.4833333
bargagli,,08,44.45,9.0833333
barge,,12,44.7166667,7.3333333
barghe,,09,45.6833333,10.4
bargi,,05,44.1333333,11.0666667
bargino,,16,43.6166667,11.1833333
bargone,,08,44.3,9.4666667
bari,303049,13,41.1333333,16.85
baricella,,05,44.65,11.5333333
barigazzo,,05,44.2666667,10.65
barile,,02,40.95,15.6666667
bari sardo,,14,39.8425,9.6386111
barisciano,,01,42.3166667,13.5833333
barkovlje,,06,45.6830556,13.7519444
barlassina,,09,45.65,9.1333333
barletta,92650,13,41.3166667,16.2833333
barlia,,19,45.8666667,7.3
barni,,09,45.9,9.2666667
barone,,15,38.2,15.2333333
baronissi,16375,04,40.7333333,14.75
barra,,04,40.8333333,14.3166667
barrabisa,,14,41.1833333,9.3166667
barrafranca,12737,15,37.3666667,14.2
barrali,,14,39.4772222,9.1005556
barrea,,07,41.75,13.9833333
barre,,04,40.2333333,15.2833333
barretta,,03,39.1666667,16.9166667
barriera,,20,45.8636111,12.2508333
barriera di stura,,12,45.0833333,7.7166667
barrittieri,,03,38.3333333,15.8666667
barucchella,,20,45.7422222,12.1847222
baruchella,,20,45.0666667,11.45
barumini,,14,39.7036111,9.0022222
barzana,,09,45.7333333,9.5666667
barzaniga,,05,45.25,9.8833333
barzano,,09,45.7333333,9.3166667
barzesto,,09,46.0,10.1333333
barzotti,,05,43.4666667,12.3
basagliapenta,,06,45.9977778,13.0794444
basaldella,,06,46.0255556,13.2144444
basalghelle,,20,45.8347222,12.5088889
basanello,,01,42.4166667,13.25
bascape,,09,45.3,9.3
bascemi,,15,37.0833333,14.8833333
baschi,,07,42.6666667,12.2166667
basciano,,01,42.5833333,13.7333333
basedo,,06,45.8452778,12.7494444
baseglia,,06,46.1288889,12.9025
baselga,,17,46.0833333,11.0333333
baselga di pine,,17,46.1333333,11.2333333
baselica,,05,44.9666667,9.6333333
baselice,,11,41.4,14.9666667
basico,,15,38.0666667,15.0666667
basiliano,,06,46.0141667,13.07
basilicano,,05,44.7,10.35
basilicanova,,05,44.7,10.35
basilico,,03,39.2166667,16.8166667
basilico,,15,38.1666667,15.8333333
basoia,,06,46.2666667,12.5166667
basovizza,,06,45.6438889,13.8638889
bassacutena,,14,41.1,9.25
bassa di mai,,05,44.95,10.0666667
bassanello,,07,42.4166667,12.35
bassano,,09,46.1,8.75
bassano,,20,45.7666667,11.7333333
bassano bresciano,,09,45.3166667,10.1166667
bassano del grappa,42457,20,45.7666667,11.7333333
bassano di sutri,,07,42.2166667,12.2
bassano in teverina,,07,42.4666667,12.3166667
bassano romano,,07,42.2166667,12.2
bassiano,,07,41.55,13.0333333
bassignana,,12,45.0,8.7333333
basso fadalto,,20,46.0686111,12.3241667
basso nove,,20,46.05,12.3166667
bassura,,12,44.5,7.1166667
bastia,,05,43.35,12.8166667
bastia,,18,43.0666667,12.55
bastia,,20,46.1325,12.3325
bastida de' dossi,,09,45.0333333,8.9166667
bastida dei dossi,,09,45.0333333,8.9166667
bastiglia,,05,44.7166667,10.9833333
bastione,,15,38.1166667,14.7166667
basto,,10,42.7333333,13.5
batignano,,16,42.8666667,11.1666667
battaglia,,01,42.7166667,13.6333333
battaglia,,04,40.15,15.6166667
battaglia,,20,45.2833333,11.7833333
battaglia terme,,20,45.2833333,11.7833333
battaias,,06,46.2638889,12.9386111
battedizzo,,05,44.3833333,11.25
batteglia,,06,46.1211111,13.0636111
battidizzo,,05,44.3833333,11.25
battiferro,,20,45.85,12.0833333
battifolle,,16,43.4333333,11.7833333
battipaglia,52818,04,40.6166667,14.9666667
battipiedi,,03,40.05,16.1833333
baucca,,05,43.4333333,12.2666667
baucina,,15,37.9166667,13.5333333
bauladu,,14,40.0166667,8.6666667
baulen,,19,45.6833333,7.1
baunei,,14,40.0333333,9.6666667
baura,,05,44.85,11.7166667
bauso,,15,38.2333333,15.4333333
bavaria,,20,45.8125,12.1825
bavarol,,20,45.9283333,12.4433333
baveno,,09,45.9166667,8.5
baver,,20,45.9055556,12.3969444
bazovica,,06,45.6438889,13.8638889
bazzano,,01,42.3333333,13.45
bazzano,,05,44.5,11.0833333
bazzano inferiore,,18,42.7833333,12.7833333
bazzano superiore,,18,42.7833333,12.8
beano,,06,45.9980556,13.0258333
beaulard,,12,45.05,6.7666667
bebbio,,05,44.4333333,10.5833333
beccacivetta,,20,45.35,10.95
becedasco,,05,44.85,9.9
bedizzano,,16,44.0833333,10.1333333
bedole,,20,46.2,10.6
bedollo,,17,46.1666667,11.3
bedonia,,08,44.5,9.6333333
beffi,,01,42.1833333,13.6666667
begliano,,06,45.8161111,13.4652778
beinasco,17416,12,45.0166667,7.5833333
beinette,,12,44.3666667,7.65
beivars,,06,46.0913889,13.2697222
belcolle,,17,46.75,12.1833333
belevedere,,03,39.6166667,15.8666667
belfiore,,20,45.3833333,11.2
belforte all'isauro,,05,43.7166667,12.3666667
belforte,,08,44.5,9.8666667
belforte,,10,43.1666667,13.2333333
belforte,,18,42.85,12.9666667
belforte del chienti,,10,43.1666667,13.2333333
belforte sul chienti,,10,43.1666667,13.2333333
belgioioso,,09,45.1666667,9.3166667
belgirate,,09,45.8333333,8.5666667
belgrado,,06,45.8922222,12.9627778
belicchi,,05,44.8,10.1833333
beligna,,06,45.7666667,13.3833333
belito,,08,44.7833333,9.5333333
bella,,02,40.75,15.5333333
belladama,,03,38.85,16.6666667
belladonna,,03,38.85,16.6666667
bella farnia,,07,41.3666667,12.9666667
bellagio,,09,45.9833333,9.25
bellaguarda,,05,45.0,10.6
bellamonte,,20,46.3166667,11.65
bellano,,09,46.0333333,9.3
bellante,,01,42.75,13.8
bellaria,,05,44.1516667,12.4691667
bellariva,,05,44.0522222,12.6044444
bellegra,,07,41.8833333,13.0166667
bellimadore,,20,45.4833333,11.3
bellinzago,,12,45.5666667,8.6333333
bellinzago novarese,,12,45.5666667,8.6333333
bellisio di sopra,,05,43.5333333,12.8333333
bellizzi irpino,,04,40.8833333,14.8
belloca,,05,43.7166667,12.7833333
bellocchi,,10,43.8,12.9833333
bellombra,,20,45.0108333,12.0344444
bellona,,04,41.1666667,14.25
bellosguardo,,04,40.4166667,15.3166667
bellosguardo,,16,43.7666667,11.2166667
belluno,35895,20,46.145,12.2213889
belluno veronese,,20,45.6833333,10.8833333
belmonte,,03,39.15,16.0833333
belmonte,,09,46.0833333,9.2666667
belmonte calabro,,03,39.15,16.0833333
belmonte castello,,07,41.5833333,13.8
belmonte del sannio,,11,41.8,14.4166667
belmonte in sabina,,01,42.3166667,12.8833333
belmonte mezzagno,11279,15,38.0333333,13.3833333
belmonte piceno,,10,43.0833333,13.5333333
belmontino soprano,,15,37.4166667,14.55
belmontino superiore,,15,37.4166667,14.55
belnome,,08,44.65,9.25
belpasso,22316,15,37.5833333,14.9666667
belsiio,,03,39.1666667,16.2833333
belsito,,03,39.1666667,16.2833333
beltiglio,,04,41.05,14.75
beltiglio di ceppaloni,,04,41.05,14.75
belvedere,,03,39.2,16.8833333
belvedere,,05,42.9,11.9666667
belvedere,,06,45.7283333,13.395
belvedere,,08,44.4166667,8.9
belvedere,,16,42.7666667,11.6333333
belvedere,,17,46.05,11.1
belvedere,,18,42.65,12.75
belvedere di siracusa,,15,37.1,15.2166667
belvedere di spinello,,03,39.2,16.8833333
belvedere fogliense,,05,43.85,12.6833333
belvedere langhe,,08,44.5,7.9666667
belvedere marittimo,8880,03,39.6166667,15.8666667
belvedere ostrense,,05,43.5666667,13.15
belvedere spinello,,03,39.2,16.8833333
belvedete,,15,37.1,15.2166667
belvi,,14,39.9611111,9.1863889
benarifi,,15,36.7333333,14.8
benedello,,05,44.3666667,10.8666667
benestare,,15,38.1833333,16.15
benetutti,,14,40.45,9.1666667
bene vagienna,,12,44.55,7.8333333
benevello,,08,44.6333333,8.1
benevento,61728,04,41.1333333,14.75
benna,,12,45.5166667,8.1333333
bentivoglio,,05,44.6333333,11.4166667
benvignante,,05,44.6833333,11.7333333
beo,,08,44.3833333,9.6333333
beorchia,,06,46.0783333,12.5952778
berbenno,,09,46.1666667,9.7333333
berbenno di valtellina,,09,46.1666667,9.7333333
berbenno valtellina,,09,46.1666667,9.7333333
berceto,,08,44.5166667,9.85
berchidda,,14,40.7833333,9.1666667
berchiddeddu,,14,40.8166667,9.45
bereguardo,,09,45.25,9.0166667
berere,,09,46.0166667,9.6666667
berga,,08,44.6,9.1166667
bergamo,113603,09,45.6833333,9.7166667
bergantino,,20,45.0666667,11.25
bergeggi,,08,44.25,8.4333333
bergerie giulian,,12,44.8333333,7.0666667
bergi,,08,43.9,7.7166667
bergiera grauson,,19,45.6333333,7.3833333
bergiola foscalina,,16,44.0666667,10.1166667
bergullo,,05,44.3166667,11.7333333
berioli,,08,44.1333333,8.0833333
berlingo,,09,45.5,10.0333333
bernalda,11532,02,40.4,16.6833333
bernarda,,20,45.0,11.65
bernardina,,05,44.2,10.6166667
bernardine di bonavigo,,20,45.2666667,11.3
bernate ticino,,12,45.4833333,8.8166667
beroide,,18,42.8333333,12.7166667
berra,,20,44.9833333,11.9666667
bersagliera,,05,44.45,11.1
bersano,,05,44.9833333,10.0166667
bersatichello,,05,44.5666667,10.2666667
bersenico,,09,45.6666667,10.3333333
bersezio,,12,44.3833333,6.9666667
berta,,20,45.8,11.2666667
bertacci,,15,38.3666667,16.3666667
bertagia,,20,45.1333333,12.25
bertaglia,,20,45.1333333,12.25
bertesina,,20,45.55,11.6
bertigaro,,08,44.4666667,9.3666667
bertigo,,20,45.8666667,11.55
bertinoro,9941,05,44.1469444,12.1388889
bertiolo,,06,45.9436111,13.0508333
bertoldi,,17,45.95,11.25
bertone,,08,44.6166667,9.2666667
bertonico,,05,45.2333333,9.6666667
bertonio,,09,46.2166667,8.2333333
bertoulla,,12,45.1,7.75
bertuccia,,15,37.3666667,15.05
berzano di san pietro,,12,45.1,7.95
berzano san pietro,,12,45.1,7.95
berzi,,08,43.9,7.7166667
berzigala,,05,44.3833333,10.8
berzo,,17,46.1,10.3333333
berzo demo,,17,46.1,10.3333333
berzo inferiore,,09,45.9166667,10.2666667
besana,,09,45.7,9.2833333
besana brianza,,09,45.7,9.2833333
besana in brianza,15703,09,45.7,9.2833333
besanigo,,05,43.9833333,12.6166667
besano,,09,45.8666667,8.8833333
besate,,09,45.3166667,8.9666667
bes,,20,46.1258333,12.1525
besenello,,17,45.9333333,11.1166667
besenzone,,05,44.9833333,9.95
besnate,,09,45.7,8.7666667
besozzo,,09,45.85,8.65
besozzo inferiore,,09,45.85,8.65
besozzola,,08,44.75,9.8833333
besozzo superiore,,09,45.85,8.65
besse-bas,,12,44.9333333,6.8666667
besse-haut,,12,44.9333333,6.8666667
bessen-bas,,12,44.9333333,6.8666667
bessen-haut,,12,44.9333333,6.8666667
bessude,,14,40.55,8.7166667
bettelmatt,,09,46.45,8.3666667
bettola,,08,44.7833333,9.6
bettola,,20,45.5333333,11.1166667
bettolelle,,05,43.65,13.1666667
bettolle,,16,43.2,11.8
bettona,,18,43.0166667,12.4833333
beura,,09,46.0833333,8.3
beura cardezza,,09,46.0833333,8.3
bevadoro,,20,45.5,11.7333333
bevagna,,18,42.9333333,12.6
bevazzana,,20,45.6736111,13.0641667
bevera,,08,43.8166667,7.5833333
bevera,,09,45.75,9.35
beverone,,08,44.2333333,9.7833333
bevilacqua,,20,45.2333333,11.4
bezzo inferiore,,09,45.9166667,10.2666667
biacci,,14,40.7833333,9.55
biacis,,06,46.15,13.4841667
biadene,,20,45.7961111,12.0497222
biancade,,20,45.6483333,12.3591667
biancano,,04,41.15,14.3666667
biancareddu,,14,40.8011111,8.1972222
biancavilla,22829,15,37.6333333,14.8666667
bianchi,,03,39.1,16.4
bianco,,15,38.0833333,16.15
bianconese,,05,44.85,10.2166667
biandrate,,12,45.45,8.4666667
biandronno,,09,45.8166667,8.7166667
bianze,,12,45.3,8.1166667
bianzone,,09,46.1833333,10.1
biassono,12090,09,45.6166667,9.2666667
biati,,14,40.7833333,9.55
biauzzo,,06,45.9544444,12.9272222
biaxi,,14,40.7833333,9.55
biaza,,20,45.6833333,10.7333333
bibano,,20,45.905,12.4394444
bibano di sotto,,20,45.9,12.4333333
bibbiano,,05,44.6666667,10.4666667
bibbiano,,16,43.1166667,11.45
bibbiena,12123,05,43.7,11.8166667
bibbona,,16,43.2666667,10.5833333
bibione,,20,45.6358333,13.0538889
bibione pineda,,20,45.6327778,13.0075
biccari,,13,41.4,15.1833333
bicchignano,,05,44.8833333,9.6166667
bicinicco,,06,45.9344444,13.2522222
bicinicco di sopra,,06,45.9386111,13.2525
bicinicco di sotto,,06,45.9316667,13.2525
bidasio,,20,45.8108333,12.2316667
bidocchio,,05,44.4833333,11.6166667
bidoni,,14,40.1166667,8.9333333
biede,,07,42.2666667,12.0166667
biella,45636,12,45.5666667,8.05
bienno,,09,45.9333333,10.3
bientina,,16,43.7,10.6166667
bier,,06,46.2025,12.7727778
biestro,,08,44.3333333,8.2333333
bif,,12,45.1166667,6.95
bigioni,,18,42.5833333,12.9333333
biglini,,12,44.7,7.9833333
bigliolo,,08,44.2333333,10.05
bigolino,,20,45.8697222,12.0130556
bilgalzu,,14,40.8,9.0166667
binanuova,,09,45.2333333,10.1666667
binasco,,09,45.3333333,9.1
bindella,,20,45.2333333,11.25
bindo,,09,46.0,9.3666667
bioglio,,12,45.6166667,8.1333333
biolla,,12,45.7,8.1833333
bionaz,,19,45.8666667,7.4166667
bionde,,20,45.2,11.1
bionde di visegna,,20,45.2,11.1
birandola,,05,44.3,11.9666667
birbesi,,20,45.2833333,10.5666667
birchabruch,,17,46.4166667,11.4833333
birgi vecchi,,15,37.8833333,12.4833333
birori,,14,40.2666667,8.8166667
bisaccia,,04,41.0166667,15.3666667
bisacquino,,15,37.7,13.25
bisarina,,20,45.0833333,11.0333333
biscari,,15,37.0333333,14.4666667
bisceglie,52878,13,41.2333333,16.5
bisciano,,15,37.95,12.5166667
biscina,,18,43.2166667,12.5833333
bisegna,,01,41.9166667,13.75
biselli argentigli,,18,42.8,12.9833333
biselli,,18,42.8,12.9833333
bisenti,,01,42.5333333,13.8
bisignano,11136,03,39.5166667,16.2833333
bisignano,,10,42.8333333,13.35
bissone,,09,45.1333333,9.4166667
bistagno,,08,44.6666667,8.3666667
bistrigna,,06,45.7933333,13.5016667
bitetto,10662,13,41.0333333,16.75
bithia,,14,38.9166667,8.8833333
bitonto,58242,13,41.1,16.6833333
bitritto,10384,13,41.05,16.8333333
bitti,,14,40.4833333,9.3833333
bivai,,20,46.0733333,12.0072222
biverone,,20,45.7,12.7
bivia lupotto,,15,37.9,13.3666667
bivigliano,,16,43.9,11.3166667
bivio bonacci,,03,39.05,16.4
bivio donnici,,03,39.25,16.2833333
bivio lupotto,,15,37.9,13.3666667
bivio sant'angelo,,10,43.3333333,13.1833333
bivona,,03,38.7,16.1
bivona,,15,37.6166667,13.4333333
bivongi,,15,38.4666667,16.45
bizzuno,,05,44.45,11.9166667
blavy,,19,45.75,7.4666667
blera,,07,42.2666667,12.0166667
blessaglia,,20,45.8052778,12.725
blessano,,06,46.0436111,13.1013889
blevy,,19,45.75,7.4666667
blucchi,,08,44.7333333,9.55
blumau,,17,46.5,11.45
boara,,05,44.8833333,11.6833333
boara polesine,,20,45.1166667,11.8
boaria,,20,45.65,12.7
boaria calonga,,20,45.0833333,11.85
boaria cavallara,,05,44.6666667,11.85
boaria cavriana,,05,44.9333333,11.65
boaria gavriana,,05,44.9333333,11.65
boaria marcello,,20,45.5833333,12.2833333
boaria saline,,20,45.2833333,11.5666667
boaria solferino,,20,45.1666667,12.1
boaria val di spino,,05,44.6666667,11.8333333
boarie tessera,,20,45.5066667,12.3283333
boario terme,,09,45.8833333,10.1833333
bobbio,,08,44.7666667,9.3833333
bobbio,,12,44.8,7.1166667
bobbio pellice,,12,44.8,7.1166667
bocale,,15,37.9833333,15.65
bocca callalta,,20,45.7,12.45
bocca di callalta,,20,45.7,12.45
bocca di croce,,09,45.6,10.4833333
boccadifalco,,15,38.1,13.3
boccaleone,,05,44.65,11.8
boccalona,,05,44.95,10.6
boccalupo,,04,39.9333333,15.8166667
bocca pignone,,08,44.2166667,9.75
boccasette,,20,45.0011111,12.4233333
boccatossa,,20,45.6611111,12.7475
boccea,,07,41.9666667,12.3166667
boccheggiano,,16,43.0833333,11.0333333
bocchere,,20,45.2666667,10.5333333
bocchetto,,08,44.6166667,10.0166667
bocchiglicro,,03,39.4166667,16.75
bocchigliero,,03,39.4166667,16.75
bocchignano,,07,42.25,12.7
boccioleto,,09,45.8333333,8.1
boccon,,20,45.3166667,11.65
bocenago,,17,46.1166667,10.75
boceto,,01,42.7166667,13.7333333
bochicchio,,02,40.8333333,15.8833333
bodengo,,09,46.2666667,9.3
boffalora,,09,45.4333333,9.1666667
boffalora,,12,45.4666667,8.8333333
boffalora d'adda,,09,45.35,9.4833333
boffalora sopra ticino,,12,45.4666667,8.8333333
boffalora ticino,,12,45.4666667,8.8333333
boffat,,20,45.9166667,11.8
bogliasco,,08,44.3833333,9.0666667
bogliasco pieve,,08,44.3833333,9.0666667
bognanco terme,,09,46.1166667,8.2
boiano,,11,41.4833333,14.4833333
boio,,08,44.6333333,9.9833333
boion,,20,45.3372222,12.065
bojano,,11,41.4833333,14.4833333
bolago,,20,46.1555556,12.1333333
bolano,,08,44.1833333,9.9
bolca,,20,45.6,11.2
bolgheri,,16,43.2333333,10.6166667
boljunec,,06,45.6175,13.8211111
bollate,49620,09,45.55,9.1166667
bollengo,,12,45.4666667,7.95
bollone,,20,45.7333333,10.5666667
bologna,367168,05,44.4833333,11.3333333
bolognana,,16,44.0333333,10.4666667
bolognano,,01,42.2166667,13.95
bolognetta,,15,37.9666667,13.45
bolognola,,10,42.9833333,13.2333333
bolotana,,14,40.3333333,8.95
bolsena,,07,42.65,11.9833333
bolzaneto,,08,44.45,8.9
bolzano,,06,45.9713889,13.3908333
bolzano,91209,17,46.5166667,11.3666667
bolzano,,20,46.1552778,12.1541667
bolzano novarese,,09,45.7666667,8.45
bolzano vicentino,,20,45.6,11.6166667
bomarzo,,07,42.4833333,12.25
bomba,,01,42.0333333,14.3666667
bombiana,,05,44.2166667,10.9666667
bombile,,15,38.2,16.1833333
bombili,,15,38.2,16.1833333
bombino,,03,39.25,16.2833333
bomerano,,04,40.6333333,14.5333333
bominaco,,01,42.2333333,13.65
bompensiere,,15,37.4666667,13.7833333
bompietro,,15,37.7333333,14.1
bomplan,,19,45.7,7.4333333
bomporto,,05,44.7333333,11.0333333
bona,,05,44.0452778,12.1880556
bonacquisto,,18,42.55,12.8
bonaldo,,20,45.3333333,11.3333333
bonarcado,,14,40.1,8.65
bonassola,,08,44.1833333,9.5833333
bonate di sopra,,09,45.6833333,9.55
bonavicina,,20,45.25,11.1666667
bonavigo,,20,45.25,11.2666667
bonavilla,,06,46.0647222,13.1658333
bonazza,,20,45.7319444,12.7841667
boncellino,,05,44.3833333,11.9833333
bonconvento,,05,44.6166667,11.3
bondeno,15698,05,44.8833333,11.4166667
bondione,,09,46.0333333,10.0
bondo breguzzo,,20,46.0,10.7
bonea,,04,41.0666667,14.6166667
bonefro,,11,41.7,14.9333333
boneggio,,18,43.0666667,12.35
bonelli,,20,44.8719444,12.4641667
bonferraro,,20,45.1833333,11.0
bonifati,,03,39.5833333,15.9
bonisiolo,,20,45.5833333,12.3
bonito,,04,41.1,15.0
bonivini,,15,36.7666667,15.0166667
bonizzo,,20,45.0333333,11.1833333
bonnanaro,,14,40.5333333,8.75
bono,,14,40.4166667,9.0333333
bono,,17,46.0166667,10.8333333
bonocozza,,15,37.7833333,14.1166667
bonocozzo,,15,37.7833333,14.1166667
bonomo,,01,42.1166667,14.6166667
bonorva,,14,40.4166667,8.7666667
bonzicco,,06,46.0755556,12.9333333
borassi,,08,44.6333333,9.0
boratella,,05,44.0163889,12.1619444
borbona,,01,42.5166667,13.1333333
borca,,09,45.95,8.0
borca,,20,46.4408333,12.225
borca di cadore,,20,46.4408333,12.225
borca verzasco,,09,46.1833333,8.45
bordano,,06,46.3169444,13.0975
bordiana,,17,46.3833333,10.9666667
bordighera,9965,08,43.7666667,7.65
bordignano,,05,44.1666667,11.4166667
bordogna,,09,45.95,9.7166667
bordolano,,09,45.2833333,9.9833333
bordonaro,,15,38.1833333,15.5166667
bordonchio,,05,44.1275,12.4758333
bore,,08,44.7166667,9.7833333
borella,,05,44.1872222,12.3869444
borello,,05,44.0516667,12.1769444
boretti,,16,43.45,10.3666667
boretto,,05,44.9,10.55
borgagne,,13,40.2333333,18.3666667
borganzo,,08,43.95,8.05
borgaria,,18,42.4833333,12.5
borgaro torinese,14353,12,45.15,7.6666667
borgata caprile,,05,44.8627778,12.1741667
borgata pozzo san nicola,,14,40.8333333,8.2766667
borgata sestriere,,12,44.9666667,6.8833333
borgata stazione,,03,39.6166667,16.5
borgata zarattini,,05,44.4166667,12.1333333
borgatello,,16,43.4333333,11.0833333
borgesati,,15,37.8,12.8166667
borgetto,,15,38.05,13.1333333
borghese,,05,44.9333333,10.0666667
borghettio d'arroscia,,08,44.0666667,7.9833333
borghetto,,05,43.1833333,12.0166667
borghetto,,07,42.3333333,12.45
borghetto,,08,44.0666667,7.9833333
borghetto,,09,46.4333333,9.2833333
borghetto,,10,43.5833333,13.2833333
borghetto,,20,45.6,11.8833333
borghetto d'arroscia,,08,44.0666667,7.9833333
borghetto di fenigli,,05,43.5666667,12.7833333
borghetto di vara,,08,44.2166667,9.7166667
borghetto lodigiano,,09,45.2166667,9.5
borghetto primo,,05,44.2788889,12.2211111
borghetto san nicolo,,08,43.8,7.6666667
borghetto santo spirito,,08,44.1,8.2333333
borghetto secondo,,05,44.275,12.2152778
borghi,,05,44.0319444,12.3605556
borgia,,03,38.8166667,16.5
borgiallo,,12,45.4166667,7.6666667
borgianello,,10,43.15,13.1833333
borgiano,,10,43.15,13.2
borgiano,,18,42.7333333,12.7833333
borgnano,,06,45.9313889,13.4438889
borgo a buggiano,,16,43.8833333,10.7333333
borgo a collina,,05,43.75,11.7166667
borgo adorno,,08,44.7333333,9.0833333
borgo a giovi,,16,43.5333333,11.8666667
borgo aie,,12,44.7833333,8.4333333
borgo alla collina,,05,43.75,11.7166667
borgo a mozzano,,16,43.9833333,10.55
borgo bainsizza,,07,41.4833333,12.7833333
borgo bellussi,,20,45.8225,12.3591667
borgo bianchi,,20,45.8038889,12.4130556
borgo,,03,39.5166667,15.9333333
borgo,,06,46.0727778,13.3444444
borgo,,08,43.9333333,7.95
borgo,,10,42.9833333,13.8666667
borgo,,13,40.05,17.9833333
borgo,,20,44.9888889,12.0177778
borgo carso,,07,41.5333333,12.8833333
borgo casale,,13,40.65,17.95
borgo celano,,13,41.7,15.65
borgocollefegato,,01,42.2,13.2333333
borgo d'ale,,12,45.35,8.05
borgo dell anime,,05,44.46,12.1233333
borgo della stazione,,13,40.4833333,17.2333333
borgo del molino,,20,45.7544444,12.3919444
borgo di bisano,,05,44.2666667,11.3833333
borgo di ronta,,05,44.1880556,12.2522222
borgo di sopra,,20,45.8636111,12.4008333
borgo di terzo,,09,45.7166667,9.8833333
borgo di tossignano,,05,44.2666667,11.5833333
borgo di villanova,,05,44.4427778,12.0244444
borgo d'oneglia,,08,43.9166667,8.0166667
borgo ermada,,07,41.3,13.1666667
borgo faiti,,07,41.4666667,13.0
borgo fanti,,07,41.4666667,13.0
borgoforte,,05,45.05,10.75
borgoforte,,20,45.1333333,11.9333333
borgo fosso ghiaia,,05,44.3558333,12.2591667
borgofranco,,12,45.5,7.85
borgofranco d'ivrea,,12,45.5,7.85
borgo frassine,,20,45.25,11.4833333
borgo fusara,,05,44.4319444,12.1411111
borgo gallina,,05,44.5125,12.0563889
borgo garibaldi,,05,44.4963889,12.0397222
borgo giuliano,,15,37.8166667,14.7
borgo grappa,,07,41.3833333,12.95
borgo grotta gigante,,06,45.7091667,13.7622222
borgo isonzo,,07,41.4166667,12.9
borgo lavezzaro,,12,45.3166667,8.7
borgo littorio,,08,44.2,8.0166667
borgo lucrezia,,05,43.7666667,12.9333333
borgo lupo,,15,37.3333333,14.6166667
borgo maggiore,,05,43.9333333,12.45
borgomale,,08,44.6166667,8.1333333
borgomale priosa,,08,44.6166667,8.1333333
borgo malpasso,,05,44.8333333,11.6333333
borgomanero,20133,09,45.7,8.4666667
borgomaro,,08,43.9666667,7.9333333
borgomasca,,05,44.9666667,9.5666667
borgomasino,,12,45.3666667,7.9833333
borgo montanari,,05,44.3225,12.0897222
borgo montello,,07,41.5,12.7666667
borgo montenero,,07,41.2833333,13.1
borgo municipio,,20,45.8669444,12.4005556
borgone,,09,45.9666667,8.0666667
borgone susa,,12,45.1333333,7.2333333
borgonovo,,05,44.9666667,10.25
borgonovo,,08,44.3833333,9.3833333
borgonovo,,16,43.85,10.6166667
borgonovo di mezzanego,,08,44.3833333,9.3833333
borgonovo val tidone,,05,45.0166667,9.4333333
borgonuova,,05,44.4333333,11.2833333
borgonuovo,,01,42.6333333,13.6
borgo nuovo,,05,44.4333333,11.2833333
borgonuovo,,08,44.4166667,8.7333333
borgonuovo,,16,43.2166667,11.9
borgo odescalchi,,07,42.0833333,11.8
borgo pace,,05,43.65,12.2833333
borgo paglia,,05,44.1197222,12.215
borgo panigale,,05,44.5166667,11.2666667
borgo pantano,,07,42.1416667,11.7583333
borgo partenope,,03,39.2666667,16.3
borgo pasubio,,07,41.4,13.0333333
borgo piave,,07,41.4833333,12.8666667
borgo piave,,13,40.4158333,18.2175
borgo pietro lupo,,15,37.3333333,14.6166667
borgo pipa,,05,44.2344444,12.2352778
borgo plobili,,20,45.9116667,12.4175
borgo po,,12,45.05,7.7
borgo podgora,,07,41.5166667,12.85
borgo ponte,,08,44.2,8.0166667
borgo prino,,14,40.8833333,7.9833333
borgo priolo,,09,44.9666667,9.15
borgo quinzio,,07,42.1666667,12.7166667
borgoratto alessandrino,,12,44.8333333,8.5333333
borgoratto,,09,44.9333333,9.1833333
borgoratto mormorolo,,09,44.9333333,9.1833333
borgo regalmici,,15,37.7,13.7166667
borgoricco,,20,45.5333333,11.9666667
borgo roma,,20,45.4,10.9833333
borgorose,,01,42.2,13.2333333
borgo sabotino,,07,41.4166667,12.8333333
borgo sacco,,17,45.8833333,11.0166667
borgo saline,,20,45.2833333,11.5666667
borgo salvatore giuliano,,15,37.8166667,14.7
borgo san dalmazzo,11857,12,44.3333333,7.5
borgo san giacomo,,05,44.85,11.7666667
borgo san giacomo,,09,45.35,9.9666667
borgo san lorenzo,16628,16,43.95,11.3833333
borgo san martino,,12,45.0833333,8.5166667
borgo san michele,,07,41.4333333,12.9666667
borgo santa maria,,05,43.8666667,12.8
borgo santa rita,,07,41.6333333,12.4833333
borgosatollo,,09,45.4666667,10.2333333
borgo seganti,,05,44.5202778,12.0658333
borgosesia,14144,12,45.7166667,8.2666667
borgo sisa,,05,44.2741667,12.1116667
borgotaro,,08,44.4833333,9.7666667
borgo ticino,,09,45.6833333,8.6
borgo tossignano,,05,44.2666667,11.5833333
borgo val di taro,,08,44.4833333,9.7666667
borgo valle,,20,45.7355556,12.92
borgo valsugana,,20,46.05,11.45
borgo velino,,01,42.4,13.05
borgo vercelli,,12,45.35,8.4666667
borgo villa,,20,45.8405556,12.3491667
borgo vodica,,07,41.3333333,13.1
borgo vodice,,07,41.3333333,13.1
borgo zanetti,,20,45.9833333,12.35
borgunto,,16,43.8,11.3
borio,,05,44.9333333,9.9666667
bormida,,08,44.4333333,8.15
bormio,,17,46.4666667,10.3666667
bornasco,,09,45.2666667,9.2166667
borno,,09,45.9333333,10.2
boroneddu,,14,40.1,8.8666667
borore,,14,40.2166667,8.8
borra,,05,44.3,10.7
borrano,,10,42.7833333,13.6833333
borra sanatorio,,05,44.3,10.7
borrello,,11,41.9166667,14.3
borriana,,12,45.5,8.0333333
borro,,16,43.5333333,11.7166667
borsano,,09,45.5833333,8.85
borsecchio,,16,43.6333333,11.0
borselli,,16,43.8,11.5333333
borso,,20,45.8166667,11.8
borso del grappa,,20,45.8166667,11.8
borsoi,,20,46.15,12.4
borst,,06,45.6241667,13.8619444
bortigali,,14,40.2833333,8.8333333
bortigiadas,,14,40.8833333,9.0333333
borutta,,14,40.5333333,8.7333333
borzago,,17,46.1,10.7333333
borzano,,05,44.6,10.6333333
borzonasca,,08,44.4166667,9.3833333
bosa,,14,40.3,8.5
bosa marina,,14,40.2833333,8.4833333
bosaro,,20,45.0,11.7666667
boscarini,,06,46.1775,12.7583333
boschetto,,05,45.1833333,10.0333333
boschetto,,08,44.3458333,9.1666667
boschetto,,15,37.85,14.7833333
boschi,,08,44.5833333,9.4166667
boschi,,20,45.2166667,11.3833333
boschi di bardone,,08,44.6333333,10.0833333
boschi di bord,,08,44.6333333,10.0833333
boschiere,,20,45.5666667,12.15
boschietto,,19,45.5166667,7.4833333
bosco,,05,44.5166667,11.1
bosco,,08,44.45,10.0333333
bosco,,18,43.1333333,12.4666667
bosco,,20,45.3333333,11.15
bosco chiesanuova,,20,45.6166667,11.0333333
bosco del monaco,,20,45.0166667,11.7833333
bosco di rossano,,08,44.3,9.8
bosco fraccia,,15,37.9166667,13.0666667
boscomare,,08,43.8833333,7.9
bosco marengo,,12,44.8166667,8.6833333
bosco mesola,,05,44.8763889,12.2313889
bosco monaco,,20,45.0166667,11.7833333
bosconero,,12,45.2666667,7.7666667
boscoreale,26944,04,40.7833333,14.4666667
boscoriva di sopra,,20,45.6833333,11.4166667
bosco soprano,,08,43.95,7.8666667
boscotrecase,10393,04,40.7666667,14.4666667
bosellina,,05,44.85,10.9166667
bosellino,,05,44.85,10.9166667
bosentino,,17,46.0,11.2166667
bosisio parini,,09,45.8,9.2833333
bosmenso superiore,,08,44.8,9.2166667
bosmenzo,,08,44.8,9.2166667
bosplaris,,06,46.1980556,12.6238889
bossare,,08,43.8666667,7.5166667
bossolasco,,08,44.5333333,8.0333333
botazzo,,06,45.6166667,13.8833333
botindari,,15,37.8666667,14.1833333
botricello,,03,38.9333333,16.85
botrugno,,13,40.05,18.3166667
botta,,09,45.7666667,9.6
bottanuco,,09,45.6333333,9.5
botteghe,,05,44.6166667,10.5833333
botteghe d'albinea,,05,44.6166667,10.5833333
botteghino,,05,44.4,11.4
botteghino,,16,43.2666667,11.3
botteghino di zocca,,05,44.4,11.4
botticino sera,,09,45.5333333,10.3
bottida,,14,40.3833333,9.0
bottidda,,14,40.3833333,9.0
botto,,07,42.6833333,12.15
bottricello,,03,38.9333333,16.85
bottrighe,,20,45.0244444,12.0869444
botzen,,17,46.5166667,11.3666667
bousson,,12,44.9333333,6.8166667
bovalino,,15,38.15,16.1833333
bovalino marina,,15,38.15,16.1833333
bovalino superiore,,15,38.1833333,16.1666667
bova marina,,15,37.9333333,15.9166667
bovaria,,20,45.5,11.2333333
bovasenda,,12,45.5333333,8.3166667
bove,,15,38.0,15.9333333
bovecchio,,16,43.9833333,11.1833333
bovedo,,06,45.6833333,13.7666667
boveglio,,16,43.9833333,10.65
bovegno,,09,45.8,10.2666667
boves,9782,12,44.3166667,7.55
bovezzo,,09,45.5833333,10.2333333
bovicoio,,17,46.6166667,11.1
bovicolo,,17,46.6166667,11.1
boville ernica,,07,41.6333333,13.4666667
bovino,,13,41.25,15.3333333
bovisa,,09,45.5,9.15
bovisio,,09,45.6166667,9.1333333
bovisio masciago,,09,45.6166667,9.1333333
bovisio-masciago milanese,,09,45.6166667,9.1333333
bovo,,20,45.3666667,11.0
bovolenta,,20,45.2666667,11.9333333
bovolone,14128,20,45.25,11.1166667
bozen,,17,46.5166667,11.3666667
bozza,,01,42.55,13.9166667
bozzole,,12,45.0666667,8.6
bozzolo,,05,45.1,10.4833333
bra,29454,12,44.7,7.85
braccagni,,16,42.8833333,11.0833333
bracciano,,05,44.1363889,12.1638889
bracciano,15003,07,42.1,12.1666667
bracco,,08,44.25,9.5
bracelli,,08,44.1833333,9.75
bracigliano,,04,40.8166667,14.7
bragadina,,20,45.15,12.0
braglia vecchia,,05,44.8833333,11.8166667
braglie,,05,44.2666667,10.55
braida bottari,,06,45.9105556,12.875
braidacurti,,06,45.8827778,12.7955556
braidi,,15,38.05,15.0166667
brallo,,08,44.7333333,9.2666667
brallo di pregola,,08,44.75,9.2666667
branca,,05,43.2666667,12.6833333
brancaleone,,15,37.9666667,16.0833333
brancaleone marina,,15,37.9666667,16.1
brancaleone superiore,,15,37.9666667,16.0833333
brancere,,05,45.0666667,10.0666667
brancorsi,,16,43.15,10.65
brandizzo,,12,45.1833333,7.85
branta,,20,45.2322222,12.1127778
branzolino,,05,44.2944444,12.0583333
branzoll,,17,46.4,11.3166667
branzone,,08,44.5333333,9.85
braone,,09,45.9833333,10.3333333
brasi,,08,44.3666667,8.5333333
bratto,,08,44.45,9.85
braulins,,06,46.2875,13.0875
braz,,20,46.1161111,12.4086111
brazzacco,,06,46.1294444,13.1561111
brazzano,,06,45.9752778,13.4591667
brazzolo,,05,44.8666667,11.9
brebbia,,09,45.8333333,8.65
bre,,05,44.9833333,10.0666667
breccanecca,,08,44.3322222,9.3691667
brecciasecca,,01,42.3333333,13.2666667
breda di piave,,20,45.7225,12.3308333
brefaro,,04,39.9833333,15.7666667
bregalla,,08,44.0,7.7333333
breganze,,20,45.7,11.5666667
breguzzo,,20,46.0,10.7
breia,,08,44.4833333,9.7
breia,,09,45.7666667,8.3
breja,,08,44.4833333,9.7
brembate,,09,45.6,9.5166667
brembilla,,09,45.8166667,9.6
brembio,,09,45.2166667,9.5666667
breme,,12,45.1333333,8.6166667
brendola,,20,45.4666667,11.45
brenna,,09,45.7333333,9.1833333
brennerbad,,17,46.9666667,11.4833333
brenner,,17,47.0,11.5
brennero,,17,47.0,11.5
breno,,09,45.95,10.3
brentanella,,20,45.6333333,11.95
brentone,,20,45.5,11.2666667
brentonico,,20,45.8166667,10.95
breolungi,,12,44.4333333,7.8
breonio,,20,45.6166667,10.9
brescello,,05,44.9,10.5166667
brescia,193713,09,45.55,10.25
bresega,,20,45.2166667,11.5833333
bressa,,06,46.0363889,13.1441667
bressana bottarone,,09,45.0833333,9.1333333
bressana,,09,45.0833333,9.1333333
bressanone,18599,17,46.7166667,11.65
bressanvido,,20,45.65,11.6333333
bresso,26815,09,45.5333333,9.1833333
breuil,,19,45.9333333,7.6333333
breuil-cervinia,,19,45.9333333,7.6333333
breuson,,19,45.85,7.3333333
brez,,17,46.4333333,11.1166667
briana,,20,45.5166667,12.0333333
briatico,,03,38.7166667,16.0333333
bribano,,20,46.0986111,12.0891667
bric castellaccio,,08,44.4333333,8.8
bric gallo,,12,44.8833333,8.05
bricherasio,,12,44.8166667,7.3
brie,,17,46.4833333,11.4833333
brieis,,12,44.4666667,7.1
brienno,,09,45.9166667,9.1333333
briga,,15,38.0833333,15.45
briga novarese,,09,45.7333333,8.45
brignano,,08,44.8166667,9.0333333
brignano gera d'adda,,09,45.5333333,9.6333333
brignole,,08,44.5166667,9.3666667
brigolo,,06,45.6988889,13.0458333
brigolo,,20,45.6986111,13.0280556
brigolo di sopra,,20,45.6986111,13.0280556
brigolo di sotto,,06,45.6988889,13.0458333
brindisi,92457,13,40.6333333,17.9333333
brindisi di montagna,,02,40.6,15.9333333
brintazzi,,08,44.75,9.1333333
brinzio,,09,45.9,8.7833333
brirus,,12,44.5166667,7.3333333
brische,,20,45.8211111,12.6272222
brischis,,06,46.1658333,13.4838889
brisciki,,06,45.7091667,13.7622222
brisighella,,05,44.2166667,11.7666667
brissago valtravaglia,,09,45.95,8.7333333
brissogne,,19,45.7166667,7.4
bristie,,06,45.75,13.7
brittoli,,01,42.3166667,13.8666667
brivio,,09,45.7333333,9.45
brixen,,17,46.7166667,11.65
brizzolara,,08,44.4333333,9.3666667
broendli,,05,44.9322222,12.0427778
broletto,,05,44.6,10.5833333
brolo,,15,38.15,14.8333333
brondolo,,20,45.1858333,12.2847222
broni,9514,09,45.0666667,9.2666667
bronte,19134,15,37.7833333,14.8333333
bronzacco,,06,46.17,13.0241667
bronzo,,05,43.8166667,12.5
bronzola,,20,45.5166667,11.9166667
bronzolo,,17,46.4,11.3166667
brossasco,,12,44.5666667,7.35
brosso,,12,45.5,7.8
brozzi,,01,42.6,13.6166667
brozzo,,06,45.7166667,14.1
bruca,,15,37.9666667,12.8
brucanuova,,15,37.9666667,12.8
brucciano,,16,43.2333333,11.2833333
bruciato,,05,43.9666667,12.4166667
brucoli,,15,37.2833333,15.1833333
brufa,,18,43.05,12.4666667
bruggi,,08,44.7,9.1833333
brugherio,32439,09,45.55,9.3
brugine,,20,45.3,12.0
brugnato,,08,44.2333333,9.7166667
brugnera,,06,45.9044444,12.5263889
brugneto,,08,44.6666667,9.4166667
brugnola,,08,44.5666667,9.7666667
brugoli,,15,37.2833333,15.1833333
bruino,,12,45.0166667,7.4666667
brumano,,09,45.85,9.4833333
bruna,,18,42.8166667,12.6833333
brunate,,09,45.8166667,9.1
brunech,,17,46.8,11.9333333
bruneck,,17,46.8,11.9333333
brunella,,14,40.7,9.6333333
brunetti,,08,43.8333333,7.6
brunetto,,03,39.6833333,16.3
brunico,13982,17,46.8,11.9333333
bruno,,12,44.7833333,8.4333333
brusadaz,,20,46.3825,12.1402778
brusa de la merle,,12,44.9166667,6.8833333
brusa-del plan,,12,44.9,6.9
brusa des planes,,12,44.9,6.9
brusago,,17,46.1833333,11.3166667
brusaporco,,20,45.6333333,11.9833333
brusaroma,,05,44.5316667,12.1880556
brusasco,,12,45.15,8.0666667
brusasco-cavagnolo,,12,45.15,8.0666667
brusciano,,01,42.2666667,13.15
brusciano,,04,40.9166667,14.4166667
brusnengo,,12,45.6,8.25
bruso,,20,45.1780556,12.1
brussa,,20,45.6605556,12.945
brusson,,19,45.75,7.7333333
brussone,,19,45.75,7.7333333
brusuglio,,09,45.5333333,9.1666667
bruzzano,,09,45.5333333,9.1833333
bruzzano zeffirio,,15,38.0333333,16.0833333
bubbaco,,20,45.4666667,12.4166667
bubbio,,08,44.6666667,8.2833333
bubegno,,09,46.0833333,9.1166667
buccheri,,15,37.1333333,14.85
bucchianico,,01,42.3,14.1833333
bucchi,,03,39.1833333,17.1
bucciano,,04,41.0833333,14.5666667
bucciano,,16,43.6333333,10.8
buccino,,02,40.6333333,15.3666667
buchi,,03,39.1833333,17.1
bucine,9940,16,43.4833333,11.6166667
buda,,01,42.6333333,13.0333333
buddusa,,15,37.4666667,14.5333333
budduso,,14,40.5833333,9.25
budino,,18,42.95,12.6333333
budoia,,06,46.0472222,12.5322222
budoio,,06,46.0472222,12.5322222
budrie,,05,44.5833333,11.1833333
budrio,16322,05,44.5333333,11.5333333
budrione,,05,44.8166667,10.8666667
buggerru,,14,39.3966667,8.4025
buggiana,,05,43.95,11.9666667
buggiano,,16,43.8833333,10.7333333
buggiano,,18,42.85,12.9
buggio,,08,43.9666667,7.6833333
bugia,,05,44.6166667,10.8666667
bugiallo,,09,46.1833333,9.3833333
bugiano,,18,42.85,12.9
bugliaga,,09,46.2166667,8.1666667
buglio,,09,46.1833333,9.6666667
buglio in monte,,09,46.1833333,9.6666667
bugnano,,09,45.5666667,9.15
bugnara,,18,42.85,13.0166667
bugnins,,06,45.9127778,12.9386111
buia,,06,46.2127778,13.1147222
bulgaria,,05,44.1297222,12.3269444
bulgarno,,05,44.1369444,12.3419444
bulicciano,,16,43.3833333,11.05
buliciano,,16,43.3833333,11.05
bulisciano,,16,43.3833333,11.05
bulla,,20,46.5666667,11.6333333
bullicame,,07,42.4166667,12.0833333
bultei,,14,40.45,9.05
bulzi,,14,40.85,8.8333333
buniccu,,14,41.0,8.9333333
buompietro,,15,37.7333333,14.1
buonabitacolo,,04,40.2666667,15.6166667
buonacquisto,,18,42.55,12.8
buonalbergo,,04,41.2166667,14.9833333
buonanotte,,01,41.9833333,14.3333333
buoncammino,,14,41.2166667,9.1833333
buonconvento,,16,43.1333333,11.4833333
buonvicino,,03,39.6833333,15.8833333
buoro,,20,45.1361111,12.1397222
buosi,,20,45.8,12.3333333
burana,,05,44.9166667,11.35
burano,,20,45.4836111,12.4163889
burcei,,14,39.3458333,9.3616667
burchio,,16,43.6833333,11.45
burgeis,,20,46.7,10.5166667
burgio,,15,36.7333333,15.0333333
burgos,,14,40.3833333,8.9833333
burgusio,,20,46.7,10.5166667
buriane,,05,44.6,11.6
buriano,,16,42.8333333,10.9833333
buriasco,,12,44.8666667,7.4166667
burolo,,12,45.4833333,7.9333333
buronzo,,12,45.4833333,8.2666667
burzanella,,05,44.2,11.1166667
busachi,,14,40.0333333,8.9
busalla,,08,44.5666667,8.95
busana,,08,44.3666667,10.3166667
busano,,12,45.3333333,7.65
busca,10168,12,44.5166667,7.4833333
buscate,,12,45.55,8.8166667
buscemi,,15,37.0833333,14.8833333
busche,,20,46.0333333,11.9833333
buschi,,08,44.8333333,9.1666667
busco,,20,45.7408333,12.5147222
buscoldo,,20,45.1,10.6833333
buseto inferiore,,15,38.0166667,12.7333333
buseto superiore,,15,38.0,12.7333333
busiago,,20,45.5666667,11.8333333
busonengo,,12,45.4,8.3166667
bussana,,08,43.8166667,7.85
bussana nuova,,08,43.8166667,7.85
bussecchio,,05,44.1975,12.0263889
bussentino,,04,40.0833333,15.5333333
busseto,,05,44.9833333,10.0333333
bussi officine,,01,42.1833333,13.8333333
bussi sul tirino,,01,42.2,13.8166667
busso,,11,41.55,14.55
bussolengo,18755,20,45.4666667,10.85
bussoleno,,12,45.1333333,7.15
busta,,20,45.7333333,12.0
busti,,08,44.6333333,9.0166667
busto arsizio,79229,09,45.6166667,8.85
busto garolfo,13520,09,45.55,8.8833333
butera,,15,37.1833333,14.1833333
buti,,16,43.7333333,10.5833333
butino,,18,42.65,12.9333333
buttapietra,,20,45.3333333,11.0
buttigliera alta,,12,45.0666667,7.4333333
buttrio,,06,46.0119444,13.3383333
by,,19,45.8833333,7.3
ca baglioni,,20,45.55,12.0
ca ballarin,,20,45.4680556,12.5138889
cabanne,,08,44.4833333,9.3333333
cabella ligure,,08,44.6666667,9.0833333
cabernardi,,05,43.5166667,12.8666667
ca bertacchi,,05,44.5666667,10.5833333
cabia,,06,46.4672222,13.0391667
ca bianca,,20,45.1922222,12.205
ca boano,,05,43.8166667,12.2666667
ca boatti,,09,44.95,9.1666667
cabras,9249,14,39.93,8.5313889
ca briani,,20,45.1188889,12.1402778
cabrovizza,,06,45.7263889,13.7294444
ca cappellino,,20,44.9913889,12.2575
ca castelle,,20,45.7166667,11.4333333
caccamo,,15,37.9333333,13.6666667
cacciampone,,05,43.45,12.9
cacciano,,04,41.15,14.65
caccivio,,09,45.7666667,9.0166667
caccivio colombaro,,09,45.7666667,9.0
caccuri,,03,39.2333333,16.7833333
caces,,17,46.0333333,10.8666667
cacnere,,20,45.8333333,11.9333333
ca corniani,,20,45.6144444,12.855
ca cottoni,,20,45.6463889,12.825
cadaglia,,09,46.05,8.6166667
ca d'amici,,05,44.9833333,10.4833333
cadarese,,09,46.3,8.35
caddo,,09,46.1333333,8.2666667
cadeasse,,20,45.1,11.75
ca de' boatti,,09,44.95,9.1666667
ca de' bonavogli,,05,45.1166667,10.2333333
cade,,05,44.7333333,10.5333333
ca degli oppi,,20,45.2833333,11.1166667
ca dei mattoni,,05,44.95,10.5666667
cadelbosco,,05,44.7666667,10.6
cadelbosco di sopra,,05,44.7666667,10.6
cadelbosco di sotto,,05,44.8,10.6166667
ca del lago,,20,45.2166667,11.2166667
ca dell'era,,05,44.9833333,10.9
ca del monte,,05,44.5166667,10.6333333
ca de' mari,,05,45.15,10.1
cadeo,,05,44.9666667,9.8333333
caderuschi,,20,44.9833333,12.0333333
caderzone,,17,46.1333333,10.75
cadignano,,05,44.3333333,10.7166667
cadignano,,09,45.35,10.05
ca di guido,,05,44.0,12.2
ca di lugo,,05,44.4666667,11.8833333
cadimarco,,09,45.2166667,10.35
ca'di marco di fiessa,,09,45.2166667,10.35
ca di nardo,,05,43.9333333,12.1833333
cadine,,17,46.0833333,11.0666667
ca di sola,,05,44.5333333,10.9666667
cadisotto,,05,44.9833333,10.7333333
cadola,,20,46.1697222,12.3119444
ca dolfin,,20,44.9391667,12.4319444
cadoneghe,15600,20,45.4333333,11.9166667
cadramazzo,,06,46.4247222,13.3275
caenere,,20,45.8333333,11.9333333
caerano di san marco,,20,45.7833333,12.0
ca falier,,20,45.7833333,11.8833333
caffaraccia,,08,44.5166667,9.7833333
caffaro,,20,45.8333333,10.5333333
caggiano,,02,40.5666667,15.4833333
ca giustinian,,20,45.0038889,12.2686111
cagliari,157343,14,39.2166667,9.1166667
cagliari,,20,46.3666667,10.85
cagli,9068,05,43.55,12.65
caglio,,09,45.8666667,9.2333333
cagnano varano,,13,41.8166667,15.7833333
cagnola,,20,45.2833333,11.8666667
cagnoletti,,09,46.2,9.8666667
ca grande pineda,,20,45.6577778,13.0575
ca grande pineta,,20,45.6577778,13.0575
ca grignella,,20,45.0722222,12.1036111
ca gusson,,20,45.3955556,12.1497222
caianello,,07,41.3,14.0333333
caianello vecchio,,07,41.3,14.0833333
caiazzo,,04,41.1833333,14.3666667
caidate,,09,45.75,8.7666667
cainpriond,,12,45.1,6.95
caira,,07,41.5333333,13.8166667
cairano,,04,40.9,15.3666667
cairate,,09,45.7,8.8833333
cairo,,07,41.5333333,13.8166667
cairo montenotte,13547,08,44.4,8.2666667
cais,,17,46.8333333,11.95
caivano,36860,04,40.95,14.3
calabernardo,,15,36.8666667,15.1333333
ca labia,,20,45.1219444,12.0894444
calabrina,,05,44.1825,12.3047222
calabritto,,04,40.7833333,15.2166667
calachina,,09,46.0666667,8.6
cala di forno,,16,42.6166667,11.0833333
cala di gonone,,14,40.3,9.6333333
cala d'oliva,,14,41.08,8.3341667
cala galera,,16,42.4013889,11.2013889
cala gonone,,14,40.3,9.6333333
calalzo,,20,46.44,12.3833333
calalzo di cadore,,20,46.44,12.3833333
calamandrana,,12,44.7333333,8.3333333
calambrone,,16,43.5833333,10.3
calamecca,,16,43.9833333,10.7833333
calamia,,03,39.55,16.3666667
calamonaci,,15,37.5166667,13.2833333
calangianus,,14,40.9333333,9.1833333
calanna,,15,38.1833333,15.7166667
calascibetta,,15,37.5833333,14.2666667
calascio,,01,42.3166667,13.7
calasetta,,14,39.05,8.3666667
calatabiano,,15,37.8166667,15.2333333
calatafimi,,15,37.9166667,12.8666667
ca latis,,20,44.8741667,12.3372222
calavino,,17,46.05,10.9833333
calbenzano,,05,43.6166667,11.8666667
calcara,,05,44.55,11.1166667
calcara,,10,42.9333333,13.15
calcarelh,,15,37.8,14.0333333
calcarelle,,15,37.8,14.0333333
calcarelli,,15,37.8,14.0333333
calcariola,,01,42.35,12.9666667
calcata,,07,42.2166667,12.4166667
calciano,,02,40.5833333,16.1833333
calci,,16,43.7333333,10.5166667
calcinaia,,16,43.6833333,10.6166667
calcinaja,,16,43.6833333,10.6166667
calcinate,,09,45.6166667,9.7833333
calcinato,11817,09,45.45,10.4
calcinelli,,05,43.75,12.9166667
calcini,,12,44.9333333,8.3666667
calcio,,09,45.5,9.8333333
caldana,,16,42.8833333,10.9166667
caldaro,,17,46.4166667,11.2333333
caldarola,,10,43.1333333,13.2166667
calderano,,20,45.895,12.5
calderara di reno,12521,05,44.5666667,11.2666667
caldes,,17,46.3666667,10.9333333
caldogno,10854,20,45.6,11.5
caldonazzo,,17,45.9833333,11.2666667
caldosa,,14,41.05,9.1
calegare,,05,44.4,11.3166667
caleipa,,20,46.1261111,12.2475
calendasco,,05,45.0833333,9.5833333
calenzano,15349,16,43.85,11.15
calepio,,09,45.6333333,9.9
caleri,,20,45.0966667,12.3241667
calessina,,07,41.8833333,12.3666667
calestano,,08,44.6,10.1166667
calgaretto,,06,46.5272222,12.8625
calghera,,08,44.8666667,9.2166667
calibano,,10,43.8833333,12.8666667
calibano san pietro,,10,43.8833333,12.8666667
calice al cornoviglio,,08,44.2333333,9.8333333
calice,,08,44.2333333,9.8333333
calice cornoviglio,,08,44.2333333,9.8333333
calich,,14,40.5969444,8.2830556
caligiana,,18,43.1666667,12.25
calimera,,03,38.5666667,16.0333333
calimera,,13,40.25,18.2833333
ca limo,,20,45.15,12.2833333
ca lino,,20,45.15,12.2833333
calisese,,05,44.1030556,12.3058333
calitri,,02,40.9,15.4333333
calizzano,,08,44.2333333,8.1166667
calla,,06,46.1827778,13.4288889
callaucin,,19,45.75,7.0666667
calle,,06,46.1641667,12.8083333
calliano,,12,45.0,8.25
calliano,,17,45.9333333,11.0833333
callieri,,12,44.2666667,7.05
callura,,15,37.3666667,14.8166667
calo,,09,45.6833333,9.2666667
calolzio,,09,45.8,9.4333333
calolziocorte,14168,09,45.8,9.4333333
calonega,,20,45.6,11.6666667
ca longa,,20,45.0833333,11.85
calopezzati,,03,39.55,16.8
caloveto,,03,39.5,16.75
calpera,,09,46.0166667,8.6
caltabellotta,,15,37.5666667,13.2166667
caltagirone,38753,15,37.2333333,14.5166667
caltana,,20,45.4802778,12.03
caltanisetta,,15,37.4833333,14.0666667
caltanissetta,64189,15,37.4833333,14.0666667
caltavuturo,,15,37.8166667,13.8833333
caltignaga,,12,45.5166667,8.5833333
calto,,20,44.9833333,11.35
caltrano,,20,45.7666667,11.45
calusco d'adda,,09,45.6833333,9.4666667
caluso,,12,45.3,7.8833333
calvanico,,04,40.7666667,14.8166667
calvario,,01,42.25,14.25
calvatone,,05,45.1166667,10.4333333
calvecchia,,20,45.6583333,12.6080556
calvello,,02,40.4666667,15.85
calvene,,20,45.7666667,11.5
calvenzano,,09,45.4833333,9.6
calvera,,03,40.15,16.15
calvi dell' umbria,,18,42.4,12.5666667
calvignano,,09,44.9833333,9.1666667
calvillano,,05,43.8166667,12.35
calvisano,,09,45.3333333,10.3333333
calvisi,,03,39.1333333,16.3
calvi vecchia,,04,41.2,14.1333333
calvizzano,13333,04,40.9,14.1833333
calvo,,08,43.8333333,7.55
calzaiolo,,16,43.6333333,11.1833333
calzajolo,,16,43.6333333,11.1833333
calzanatta,,08,44.4833333,9.2833333
calzolaro,,05,43.35,12.2166667
cama,,09,46.0666667,9.1666667
camaione,,16,43.7666667,11.0333333
camaiore,30860,16,43.9333333,10.3
camairago,,05,45.2,9.7166667
camaldoli,,04,40.85,14.2
camaldoli di napoli,,04,40.85,14.2
camalo,,20,45.7530556,12.1686111
camarda,,01,42.3833333,13.4833333
camarella,,03,39.6166667,16.0
camarlotti,,20,45.7833333,11.0
camaro,,15,38.2,15.5166667
camastra,,15,37.25,13.7833333
camastra ex solfara,,15,37.25,13.7833333
ca matte,,20,44.9,11.7666667
cambarie d'aspromonte,,15,38.1666667,15.8333333
cambariere,,15,37.9833333,15.6666667
cambiago,,09,45.5666667,9.4166667
cambiano,,12,44.9666667,7.7833333
camblione,,09,46.05,8.2
cambroso,,20,45.2833333,12.085
camburzano,,12,45.5333333,8.0
camedo,,09,46.1666667,8.6166667
camella,,04,40.2666667,15.0166667
ca mello,,20,44.9222222,12.3933333
camemi,,15,36.8166667,14.5666667
camerano,,10,43.5333333,13.55
camerata,,18,42.7,12.3833333
camerata cornello,,09,45.9,9.65
camerata nuova,,01,42.0166667,13.1
camerata picena,,10,43.5666667,13.35
camerata vecchia,,01,42.0,13.1166667
cameriano,,12,45.4,8.5333333
cameri,10236,12,45.5,8.65
camerino,,05,43.1333333,13.0666667
camerlona,,05,44.4433333,12.1141667
camerota,,04,40.0333333,15.3666667
camian,,18,42.9,12.6666667
camiano,,18,42.9,12.6666667
camigliano,,04,41.1833333,14.2166667
camigliano,,05,44.8833333,10.6
camigliano,,16,43.0,11.4
camigliatello bianchi,,03,39.3333333,16.45
camigliatello,,03,39.3333333,16.45
camigliatello silano,,03,39.3333333,16.45
camigliati,,03,39.3333333,16.45
camilgara,,20,45.8166667,11.3666667
caminata,,05,44.9,9.8333333
camin,,20,45.4,11.95
caminetto,,06,46.0069444,13.3241667
camini,,15,38.4333333,16.4833333
camino al tagliamento,,06,45.93,12.9375
camino,,06,45.9983333,13.3430556
camino,,12,45.1666667,8.2833333
camino,,20,45.8013889,12.4886111
camisa,,14,39.2977778,9.5225
camisano,,09,45.4333333,9.7333333
camisano,,20,45.5166667,11.7166667
camisano vicentino,,20,45.5166667,11.7166667
cammarata,,15,37.6333333,13.6333333
cammoro,,18,42.9,12.85
camnago,,09,45.8,9.1166667
camnago volta,,09,45.8,9.1166667
camogli,,08,44.35,9.15
ca molini,,20,45.9666667,12.2333333
ca moro,,20,45.0,11.5666667
camorone,,09,45.8,9.6
campagna,16760,04,40.6666667,15.1166667
campagnacito,,16,42.8833333,11.2666667
campagna lupia,,20,45.3508333,12.1005556
campagnano di roma,,07,42.1333333,12.3833333
campagnatico,,16,42.8833333,11.2666667
campagnazza,,20,45.05,11.8
campagnola,,06,46.2916667,13.1102778
campagnola,,07,41.3,14.0333333
campagnola,,20,45.2833333,11.9833333
campagnola emilia,,05,44.85,10.7666667
campagnolo,,20,45.2788889,12.0277778
campagrina,,16,44.0666667,10.25
campaiana,,16,44.2,10.4
campalano,,20,45.1666667,11.0833333
campalto,,20,45.4,11.0833333
campana,,01,42.2333333,13.5666667
campana,,03,39.4,16.8333333
campana,,12,44.45,7.4166667
campanarello,,04,41.05,14.9166667
campanella,,20,45.6,11.25
camparada,,09,45.65,9.3166667
campavaglio,,14,41.1333333,9.2333333
campea,,20,45.9305556,12.1066667
campegine,,05,44.7833333,10.5333333
campeglio,,06,46.13,13.3625
campeglio,,09,46.1333333,9.8666667
campelli,,09,46.1333333,9.8666667
campelli,,20,45.0786111,12.0575
campello,,09,46.2166667,10.0
campello,,18,42.8166667,12.7833333
campello sul clitunno,,18,42.8166667,12.7833333
campertogno,,12,45.8,8.0166667
campese,,16,42.3666667,10.8833333
campestri,,16,43.9,11.4333333
campestrin,,20,46.4666667,11.7166667
campiano,,05,44.3027778,12.2019444
campiano,,09,46.1166667,9.5666667
campi bisenzio,39555,16,43.8166667,11.1333333
campi,,08,44.4666667,9.7166667
campi,,17,45.8666667,11.1833333
campi,,18,42.85,13.0833333
campidimezzavia,,20,45.8333333,11.5666667
campiglia,,08,44.0666667,9.8
campiglia,,16,43.05,10.6166667
campiglia,,19,45.5333333,7.5333333
campiglia cervo,,12,45.6666667,8.0
campiglia dei berici,,20,45.3333333,11.5333333
campiglia d'orcia,,16,42.95,11.6666667
campiglia marittima,13014,16,43.05,10.6166667
campiglia soana,,19,45.5333333,7.5333333
campiglio,,05,44.4666667,10.9833333
campigna,,05,43.8666667,11.75
campiolo,,06,46.4036111,13.1638889
campione,,09,45.9666667,8.9666667
campione,,20,45.75,10.75
campione del garda,,20,45.75,10.75
campione d'italia,,09,45.9666667,8.9666667
campionna,,14,38.9166667,8.7666667
campi salentina,11120,13,40.3994444,18.0186111
campitello,,05,45.0833333,10.6
campitello,,17,46.6,11.3
campitello,,20,46.4666667,11.7333333
campivolo,,06,46.5252778,12.9258333
campli,,01,42.7166667,13.6833333
campo albino,,09,46.0333333,8.2833333
campobasso,47569,11,41.5666667,14.65
campobello di licata,11557,15,37.25,13.9166667
campobello di mazara,11225,15,37.6333333,12.75
campobello di mazzara,,15,37.6333333,12.75
campo bisenzio,,16,43.8166667,11.1333333
campo,,09,46.1333333,9.65
campo,,15,38.2666667,16.2666667
campo,,16,42.7333333,10.2333333
campo catino,,07,41.8333333,13.3333333
campochiaro,,11,41.45,14.5166667
campocroce,,20,45.5852778,12.2155556
campodarsego,12327,20,45.5,11.9
campodenno,,17,46.25,11.0333333
campo di carne,,07,41.55,12.6333333
campo di fiori,,09,45.9,8.7833333
campo di giove,,01,42.0166667,14.05
campodimele,,07,41.3833333,13.0333333
campo di mezza via,,20,45.8333333,11.5666667
campodipietra,,11,41.5666667,14.75
campo di pietra,,20,45.6919444,12.5302778
campo di trens,,17,46.8666667,11.4833333
campodolcino,,09,46.4,9.35
campodonico,,05,43.2333333,12.8666667
campodonico,,08,44.3363889,9.2972222
campodoro,,20,45.4833333,11.75
campo felice,,15,37.8333333,13.4833333
campofelice,,15,37.9833333,13.8833333
campofelice di fitalia,,15,37.8333333,13.4833333
campofelice di roccella,,15,37.9833333,13.8833333
campofelice roccella,,15,37.9833333,13.8833333
campofilone,,10,43.0666667,13.8
campofiorito,,15,37.75,13.2666667
campoformido,,06,46.0208333,13.1625
campoformio,,06,46.0208333,13.1625
campofranco,,15,37.5,13.7166667
campogalliano,,05,44.6833333,10.8333333
campogialli,,16,43.5333333,11.6833333
campo iemini,,07,41.6166667,12.5
campolamana,,09,46.1,8.0666667
campolano,,01,42.2166667,13.0833333
campolarzo,,10,43.1333333,13.15
campolasta,,17,46.6666667,11.3666667
campolattaro,,04,41.2833333,14.7333333
campolemisi,,16,44.0,10.3833333
campoleone,,07,41.65,12.6166667
campoli appennino,,07,41.7333333,13.6833333
campoli,,15,37.9833333,15.65
campoli del monte taburno,,04,41.1333333,14.65
campolieto,,11,41.6333333,14.7666667
campo ligure,,08,44.5333333,8.7
campolivaro,,03,39.2166667,16.0666667
campolo,,05,44.2166667,11.0833333
campo lomaso,,17,46.0166667,10.8666667
campolonghetto,,06,45.8663889,13.2908333
campolongo al torre,,06,45.8638889,13.3966667
campolongo,,20,45.8727778,12.3061111
campolongo maggiore,9607,20,45.3211111,12.0466667
campoluci,,16,43.5166667,11.8333333
campolungo,,10,42.85,13.6833333
campomaggiore,,02,40.55,16.1
campomarino,,13,41.95,15.0333333
campo marzio,,07,41.9,12.4666667
campo molino,,12,44.4166667,7.2166667
campomolino,,20,45.8625,12.4752778
campomolle,,06,45.8494444,13.0419444
campomorone,,08,44.5,8.8833333
campomorto,,07,41.5333333,12.7333333
campone,,06,46.2644444,12.8380556
camponogara,11841,20,45.385,12.0722222
campo pedrona,,17,46.3333333,10.15
campo pedruna,,17,46.3333333,10.15
campora,,04,40.3166667,15.2833333
camporbiano,,16,43.4833333,10.95
camporcioni,,16,43.85,10.7333333
camporeale,,15,37.9,13.1
campore,,08,44.35,9.5333333
campo reggiano,,05,43.3333333,12.4166667
camporgiano,,16,44.15,10.3333333
campo rossignole,,20,45.65,11.55
campo rossignolo,,20,45.65,11.55
camporosso,,06,46.5119444,13.5530556
camporosso,,08,43.8166667,7.6166667
camporosso in valcanale,,06,46.5119444,13.5530556
camporotondo di fiastrone,,10,43.1333333,13.2666667
camporovere,,20,45.8666667,11.4666667
camporsevoli,,05,42.9166667,11.9
camposampiero,11651,20,45.5666667,11.9333333
campo san martino,,20,45.5333333,11.8
camposano,,04,40.95,14.5333333
campo san piero,,20,45.5666667,11.9333333
campo san pietro,,20,46.0530556,12.0513889
camposanto,,05,44.7833333,11.1333333
camposasco,,08,44.3605556,9.2983333
camposilvano,,20,45.75,11.1333333
camposonaldo,,05,43.95,11.8833333
campospinoso albaredo,,09,45.0833333,9.25
campo tizzoro,,16,44.0333333,10.8666667
campotosto,,01,42.55,13.3666667
campo tures,,17,46.9166667,11.95
campovalano,,01,42.7333333,13.6666667
campozillone,,07,41.3833333,14.0
campra,,09,46.1166667,8.4
campriano,,16,43.6333333,10.9
campriond,,12,45.1,6.95
campu longu,,14,39.1283333,9.5066667
camucia,,16,43.2666667,11.9666667
camugnano,,05,44.1666667,11.0833333
cana,,16,42.8,11.4166667
canaglia,,14,40.7847222,8.2194444
canai,,14,39.0,8.4166667
canalaccia,,05,44.25,10.5166667
canal di grivo,,06,46.1688889,13.3611111
canale bianco,,05,44.9375,12.1133333
canale,,12,44.8,8.0
canale d'agordo,,20,46.3666667,11.9166667
canalelli,,03,38.85,16.4666667
canale monterano,,07,42.1333333,12.0833333
canale san bovo,,20,46.15,11.7166667
canalicchio,,18,42.95,12.45
canalutto,,06,46.1594444,13.4372222
canapile,,12,44.75,7.7
canargo,,09,46.1166667,9.45
canaro,,05,44.9333333,11.6666667
canavera,,08,44.9166667,9.2333333
canazei,,20,46.4666667,11.7666667
canazei di fassa,,20,46.4666667,11.7666667
cancellade,,20,46.2730556,12.0636111
cancellara,,02,40.7333333,15.9333333
cancelli,,05,43.3,12.8333333
cancello,,03,39.05,16.3333333
cancello,,04,40.9833333,14.4
cancello,,17,46.3333333,10.25
cancello ed arnone,,04,41.0666667,14.05
candate,,20,46.2,12.1166667
candeasco,,08,43.9833333,7.95
candela,,13,41.1333333,15.5166667
candelara,,10,43.85,12.8833333
candelo,,12,45.55,8.1166667
candelu,,20,45.7394444,12.3694444
candia canavese,,12,45.3333333,7.8833333
candia,,10,43.5666667,13.4833333
candia,,12,45.1833333,8.6
candia di ancona,,10,43.5666667,13.4833333
candia lomellina,,12,45.1833333,8.6
candiana,,20,45.2166667,11.9833333
candida,,04,40.95,14.8666667
candide,,20,46.5913889,12.5058333
candidoni,,03,38.5,16.0833333
candiolo,,12,44.95,7.6
candioni,,03,38.5,16.0833333
candoglia-albo,,09,45.9666667,8.4166667
candoglia,,09,45.9666667,8.4166667
canebola,,06,46.1783333,13.3883333
canedo,,08,44.8166667,9.3166667
canedole,,20,45.2333333,10.8333333
ca negra bassa,,20,45.0888889,12.1658333
ca negra,,20,45.0888889,12.1658333
canegrate,12649,09,45.5666667,8.9333333
canelli,10595,12,44.7166667,8.2833333
canepina,,07,42.3833333,12.2333333
canesano,,08,44.5666667,10.1333333
caneso,,08,44.4833333,9.5833333
caneva,,06,45.9688889,12.4497222
caneva di sacile,,06,45.9688889,12.4497222
canicatti,32514,15,37.35,13.85
canicattini bagni,,15,37.0333333,15.0666667
canicattini,,15,37.0333333,15.0666667
canigiano,,16,44.1833333,10.4
canigliari,,15,37.9833333,15.2333333
canili,,01,42.6666667,13.5166667
canino,,07,42.4666667,11.75
canischio,,12,45.3666667,7.6
canistro,,01,41.9333333,13.4
canizzano,,20,45.6416667,12.1902778
canna,,03,40.0833333,16.5
cannaiola,,18,42.8666667,12.7166667
cannalonga,,04,40.25,15.3
cannara,,18,43.0,12.5833333
cannava,,03,38.4,15.9666667
cannecelle,,03,39.9833333,16.0
cannella,,05,43.7,13.1666667
cannelli,,01,42.6833333,13.7
cannero,,09,46.0166667,8.6833333
cannero riviera,,09,46.0166667,8.6833333
canneto,,05,45.15,10.4166667
canneto,,07,42.1833333,12.7333333
canneto,,15,38.4833333,14.9666667
canneto,,16,43.2,10.7333333
canneto di bari,,13,41.0,16.8833333
cannetolo,,05,44.8833333,10.15
canneto pavese,,09,45.05,9.2833333
canneto sull'oglio,,05,45.15,10.4166667
cannicchio,,04,40.1833333,15.0333333
cannigione,,14,41.1,9.4333333
cannitello,,15,38.2333333,15.65
cannobio,,09,46.0666667,8.7
cannole,,13,40.1666667,18.35
cannuzzo,,05,44.2322222,12.2644444
ca noghera,,20,45.5230556,12.3566667
canolo,,05,44.8,10.7666667
canolo,,15,38.3166667,16.2
canonica,,05,44.0591667,12.4072222
canonica,,07,42.7,12.05
canonica,,09,45.9,8.7333333
canonica,,18,42.7833333,12.35
canosa di puglia,30426,13,41.2166667,16.0666667
canosa sannita,,01,42.2833333,14.3
canossa,,05,44.5833333,10.45
canova,,09,45.7333333,9.4
ca nova rosella,,20,45.4,11.0666667
canove,,12,44.7833333,8.1
canovello,,05,44.0833333,11.65
canovetta,,05,44.35,11.4
cansano,,01,42.0,14.0
cantaboa,,20,44.9666667,11.2
cantagallo,,16,44.0166667,11.0833333
cantagnenuova,,15,37.5666667,14.6833333
cantagrillo,,16,43.8666667,10.9166667
cantalice,,18,42.4666667,12.9
cantalupo,,12,44.8666667,8.55
cantalupo,,18,42.3,12.65
cantalupo del sannio,,11,41.5166667,14.4
cantalupo in sabina,,18,42.3,12.65
cantalupo ligure,,08,44.7166667,9.0333333
cantalupo nel sannio,,11,41.5166667,14.4
cantalupo sabino,,18,42.3,12.65
cantarana,,20,45.1972222,12.0991667
cantera,,15,37.1833333,15.2
cantia,,05,43.3666667,12.85
cantiano,,05,43.4666667,12.6333333
cantiere san rocco,,06,45.6077778,13.7561111
cantiglio,,09,45.8833333,9.6
cantoira,,12,45.35,7.3833333
canton,,20,45.6,12.3333333
cantone,,05,44.6333333,10.55
cantone,,18,42.8333333,12.1333333
cantone giacomello,,20,45.0833333,11.2666667
cantoniera,,20,45.7166667,11.8166667
cantoniera linari,,14,40.6,8.3166667
cantoniera minnina,,14,40.65,8.3166667
cantu,36513,09,45.7333333,9.1333333
canussio,,06,45.8433333,12.9902778
canzano,,01,42.65,13.8
canzo,,09,45.85,9.2666667
cao malnisio,,06,46.1416667,12.6288889
caonado,,20,45.7852778,12.0705556
caoria,,20,46.2,11.6833333
caorle,11647,20,45.5997222,12.8838889
caorso,,05,45.05,9.8666667
capaccio,21122,04,40.4166667,15.0833333
capaci,10559,15,38.1666667,13.2333333
ca paini,,09,46.1833333,9.9
capalbio,,16,42.45,11.4166667
capanne,,03,39.0666667,16.6333333
capanne,,16,42.6833333,11.5333333
