names,population,state_code,lat,lon
9zenic view,,02,48.533333,-123.55
abbey,,11,50.733333,-108.75
abbotsford,151685,02,49.05,-122.3
abbotsford,,10,45.433333,-72.883333
abbottsford,,02,49.05,-122.3
abee,,01,54.233333,-113.016667
aberdeen,,11,52.316667,-106.283333
abord a plouffe,,10,45.55,-73.733333
abrahams cove,,05,48.516667,-58.9
acadia valley,,01,51.15,-110.2
acme,,01,51.5,-113.5
actinolite,,08,44.55,-77.333333
acton,8204,08,43.633333,-80.033333
acton vale,5135,10,45.633333,-72.566667
adams landing,,01,58.383333,-115.116667
adeytown,,05,48.083333,-53.916667
admiral,,11,49.716667,-108.016667
admirals beach,,05,47.016667,-53.616667
advocate harbour,,07,45.333333,-64.783333
agassiz,,02,49.233333,-121.766667
agincourt,,08,43.783333,-79.266667
aguanish,,10,50.216667,-62.083333
ahousat,,02,49.283333,-126.05
aillik,,05,55.183333,-59.216667
airdrie,24673,01,51.266667,-114.016667
aishihik,,12,61.566667,-137.5
aiyansh,,02,55.25,-129.083333
ajax,,08,43.85,-79.016667
aklavika,,13,68.216667,-135
aklavik,648,13,68.216667,-135
akviligjuaq,,14,68.533333,-89.816667
alameda,,11,49.266667,-102.283333
albanel,1087,10,48.866667,-72.416667
albany,,07,44.8,-65.05
albany,,08,52.25,-81.616667
albany station,,07,44.8,-65.05
alba station,,07,45.933333,-61.016667
alberni,,02,49.266667,-124.8
albert canyon,,02,51.133333,-117.866667
alberton,1147,09,46.8,-64.066667
albertville,,11,53.416667,-105.533333
albreda,,02,52.633333,-119.15
albright,,01,55.266667,-119.5
alcona,,08,50.066667,-91.75
alderson,,01,50.283333,-111.35
aldouane,,04,46.616667,-65.05
alert,,14,82.483333,-62.25
alert bay,,02,50.583333,-126.916667
alexander,,03,49.816667,-100.3
alexander bay,,05,48.683333,-54.116667
alexander bay station,,05,48.683333,-54.116667
alexandria,,02,52.633333,-122.45
alexandria,3559,08,45.3,-74.633333
alexis creek,,02,52.083333,-123.283333
alexo,,01,52.466667,-115.783333
aleza lake,,02,54.116667,-122.066667
alfred,1424,08,45.55,-74.866667
algonquin park,,08,45.55,-78.6
alice arm,,02,55.45,-129.483333
alida,,11,49.383333,-101.866667
alix,,01,52.4,-113.183333
alkali lake,,02,51.766667,-122.3
allan,,11,51.9,-106.066667
allan water,,08,50.233333,-90.2
allenford,,08,44.533333,-81.166667
alliance,,01,52.433333,-111.783333
alliford bay,,02,53.2,-131.983333
allison harbour,,02,51.033333,-127.516667
alliston,10224,08,44.15,-79.866667
alluvia,,02,49.1,-122.833333
alma,,04,45.6,-64.95
alma,29527,10,48.55,-71.65
almaville,,10,46.516667,-72.75
almonte,4921,08,45.216667,-76.2
alonsa,,03,50.8,-98.983333
alpen,,01,54.426111,-112.923611
alpen siding,,01,54.4275,-112.954722
alsask,,11,51.366667,-109.983333
alta lake,,02,50.116667,-122.983333
alticane,,11,52.9,-102.483333
altona,3613,03,49.1,-97.566667
alvena,,11,52.516667,-106.016667
amadjuak,,14,64.033333,-72.65
amaranth,,03,50.6,-98.733333
amazon,,11,51.55,-105.466667
amber valley,,01,54.733333,-112.930833
amesbury,,01,55.081944,-112.496667
amesdale,,08,50.016667,-92.933333
amherst,9336,07,45.833333,-64.2
amherstburg,11459,08,42.1,-83.1
amos,10435,10,48.566667,-78.116667
amprior,,08,45.433333,-76.366667
amqui,5117,10,48.466667,-67.433333
amulet,,11,49.616667,-104.75
amyot,,08,48.483333,-84.95
anahim lake,,02,52.45,-125.3
ancaster,,08,43.225,-79.98
ancienne lorette,,10,46.783333,-71.383333
anderson river,,13,69.733333,-128.95
andrew,,01,53.883333,-112.333333
angliers,,10,47.55,-79.233333
angus,,08,44.316667,-79.883333
anjou,,10,45.6,-73.533333
annapolis,,07,44.733333,-65.516667
annapolis royal,,07,44.733333,-65.516667
annaville,,10,46.216667,-72.433333
anse au griffon,,10,48.933333,-64.3
anse au loup,,05,51.516667,-56.833333
anse comeau,,10,49.216667,-68.15
anson,,08,44.3,-77.6
ansonville,,08,48.75,-80.683333
anteuil,,10,45.616667,-73.75
antigonish,5003,07,45.616667,-61.966667
antigonishe,,07,45.616667,-61.966667
anyox,,02,55.416667,-129.833333
apex,,14,63.716667,-68.45
apex hill,,14,63.716667,-68.45
apple river,,07,45.466667,-64.783333
apsley,,08,44.75,-78.083333
arborfield,,11,53.116667,-103.65
arborg,,03,50.9,-97.216667
archive,,11,50.283333,-105.616667
arcola,,11,49.633333,-102.483333
arctic bay,,14,73.033333,-85.166667
arctic red river,,13,67.433333,-133.75
ardbeg,,08,45.633333,-80.083333
ardmore,,01,54.332222,-110.477222
ardrossan,,01,53.55,-113.133333
arelee,,11,52.25,-107.5
arena,,11,49.116667,-109.266667
argenta,,02,50.183333,-116.933333
argentia,,05,47.3,-54
argyle,,07,43.8,-65.85
arichat,,07,45.516667,-61.016667
armadale,,09,46.416667,-62.433333
armagh,,10,46.75,-70.583333
armit,,11,52.833333,-101.85
armley,,11,53.116667,-104.033333
armstrong,4275,02,50.45,-119.183333
armstrong,,08,50.3,-89.033333
armstrong station,,08,50.3,-89.033333
arnot,,03,55.766667,-96.7
arnprior,9607,08,45.433333,-76.366667
arntfield,,10,48.2,-79.25
aroland,,08,50.233333,-86.95
aroostook,,04,46.8,-67.716667
aroostook junction,,04,46.8,-67.716667
arrandale,,02,54.966667,-130
arrowhead,,02,50.7,-117.916667
arrow river,,03,50.133333,-100.766667
arthabaska,,10,46.033333,-71.916667
arthur,2413,08,43.833333,-80.533333
arviat,,14,61.116667,-94.05
arvida,,10,48.433333,-71.183333
asbestos,7190,10,45.783333,-71.933333
ascot corner,,10,45.45,-71.766667
ashcroft,1796,02,50.716667,-121.266667
ashern,,03,51.183333,-98.333333
ashmont,,01,54.129722,-111.568056
ashville,,03,51.166667,-100.283333
askow,,01,49.933333,-111.7
aspen grove,,02,49.883333,-120.633333
asquith,,11,52.116667,-107.216667
assiniboia,2320,11,49.616667,-105.983333
aston junction,,10,46.166667,-72.233333
athabasca,2539,01,54.716667,-113.266667
athabaska,,01,54.716667,-113.266667
athalmer,,02,50.516667,-116.033333
athelmer,,02,50.516667,-116.033333
atherley,,08,44.6,-79.366667
athol,,07,45.683333,-64.216667
atikameg,,01,55.916667,-115.65
atikokan,3760,08,48.75,-91.616667
atikup,,08,52.766667,-90.783333
atlee,,01,50.85,-110.95
atlin,,02,59.583333,-133.716667
atmore,,01,54.819444,-112.548056
atnarko,,02,52.383333,-125.816667
attachie,,02,56.216667,-121.433333
attawapiskat,1366,08,52.916667,-82.433333
aubigny,,10,46.8,-71.166667
auden,,08,50.25,-87.9
aurora,,08,44,-79.466667
austin,,03,49.95,-98.933333
auteuil,,10,45.616667,-73.75
authier,,10,48.716667,-78.866667
authier-nord,,10,48.833333,-78.866667
avenir,,01,55.037778,-112.279722
aviron bay,,05,47.583333,-56.816667
avola,,02,51.783333,-119.316667
avonlea,,11,50.016667,-105.066667
avonport,,07,45.1,-64.25
ayers cliff,,10,45.166667,-72.033333
ayersville,,10,45.633333,-74.366667
aylesbury,,11,50.933333,-105.7
aylesford,,07,45.033333,-64.833333
aylmer,7527,08,42.783333,-80.983333
aylmer,,10,45.4,-75.85
aylsham,,11,53.2,-103.8
ayr,3841,08,43.283333,-80.45
ayton,,08,44.05,-80.933333
babine,,02,55.316667,-126.616667
babine portage,,02,54.516667,-125.183333
bacotville,,10,48.35,-70.883333
baddeck,,07,46.1,-60.75
baden,,08,43.4,-80.666667
badger,,03,49.183333,-95.966667
badger,,05,48.966667,-56.033333
bad harbour,,05,50.833333,-57.033333
bagotville,1081,10,48.35,-70.883333
baie-comeau,10435,10,49.216667,-68.15
baie-de-la-trinite,,10,49.416667,-67.316667
baie des rochers,,10,51.316667,-58.016667
baie-des-sables,,10,48.716667,-67.866667
baie-du-poste,,10,50.416667,-73.866667
baie-d'urfe,,10,45.4,-73.916667
baie-sainte-catherine,,10,48.1,-69.733333
baie-sainte-claire,,10,49.883333,-64.483333
baie-saint-paul,4512,10,47.433333,-70.5
baie verte,,05,49.916667,-56.183333
bailey,,04,45.633333,-66.583333
bainbridge,,02,49.316667,-124.85
baine harbour,,05,47.366667,-54.916667
baker lake,,14,64.316667,-96.016667
bala,,08,45.016667,-79.616667
balcarres,,11,50.8,-103.55
baldonnel,,02,56.216667,-120.683333
baldur,,03,49.383333,-99.233333
balfour,,02,49.633333,-116.966667
baljennie,,11,52.533333,-107.883333
balzac,,01,51.216667,-114.016667
bamberton,,02,48.583333,-123.516667
bamfield,,02,48.833333,-125.15
bancroft,,08,45.05,-77.85
banff,7502,01,51.166667,-115.566667
bannockburn,,08,44.65,-77.55
barachois,,10,48.616667,-64.266667
barachois de malbaie,,10,48.616667,-64.266667
barclay,,08,49.766667,-92.7
bar haven,,05,47.7,-54.233333
barich,,01,54.180833,-112.626944
barkerville,,08,53.066667,-121.516667
barlow,,12,63.733333,-137.65
barnaby,,04,46.883333,-65.516667
barnaby river,,04,46.883333,-65.516667
barnet,,02,49.283333,-122.933333
barons,,01,49.983333,-113.083333
barrasway de plate,,05,47.483333,-55.116667
barraute,1180,10,48.433333,-77.633333
barr'd harbour,,05,50.833333,-57.033333
barrett,,02,54.433333,-126.75
barrett lake,,02,54.433333,-126.75
barrhead,4430,01,54.116667,-114.4
barrie,182070,08,44.383333,-79.7
barriere,,02,51.183333,-120.133333
barriere,,10,47.5,-76.7
barrington,,07,43.566667,-65.566667
barrington passage,,07,43.516667,-65.6
barrisway de plate,,05,47.483333,-55.116667
barrows,,03,52.816667,-101.433333
barry bay,,08,45.483333,-77.683333
barrys bay,,08,45.483333,-77.683333
bartibog,,04,47.283333,-65.616667
bartibog station,,04,47.283333,-65.616667
bartibogue,,04,47.283333,-65.616667
bartibogue station,,04,47.283333,-65.616667
bartletts harbour,,05,50.933333,-56.983333
barvas,,11,51.2,-102.1
barwick,,08,48.65,-93.983333
bashaw,,01,52.583333,-112.966667
bassano,1388,01,50.783333,-112.466667
batchawana,,08,46.9,-84.6
bateman,,11,50.016667,-106.733333
bath,,08,44.183333,-76.766667
bathurst,18179,04,47.6,-65.65
bathurst inlet,,14,66.833333,-108.033333
batiscan,,10,46.5,-72.25
batteau,,05,53.4,-55.783333
battle creek,,11,49.433333,-109.833333
battleford,,11,52.766667,-108.3
battle harbor,,05,52.266667,-55.583333
battle harbour,,05,52.266667,-55.583333
bauline,,05,47.716667,-52.833333
bay bulls,,05,47.333333,-52.833333
bay de verde,,05,48.066667,-52.933333
bayfield,,08,43.566667,-81.7
bay roberts,13735,05,47.583333,-53.3
bay saint lawrence,,07,47,-60.466667
bay trail,,11,52.116667,-105.133333
beachberg,,08,45.733333,-76.85
beachburg,,08,45.733333,-76.85
beach point,,09,46.016667,-62.483333
beacon corner,,01,54.181389,-111.151389
beacon hill,,11,54.355556,-109.652222
beaconia,,03,50.433333,-96.566667
beaconsfield,,10,45.433333,-73.833333
beament,,02,55.15,-127.383333
beamsville,9556,08,43.166667,-79.466667
bear creek,,12,60.816667,-137.683333
beardmore,,08,49.6,-87.95
bear flat,,02,56.283333,-121.233333
bear lake,,02,56.2,-126.85
bearn,,10,47.283333,-79.333333
bear river,,07,44.566667,-65.633333
bearskin lake,,08,53.933333,-90.983333
beaton,,02,50.733333,-117.733333
beatty,,11,52.9,-104.783333
beaual,,11,55.15,-107.616667
beauceville,4480,10,46.2,-70.766667
beauceville-est,,10,46.2,-70.766667
beauchene,,10,46.633333,-79.016667
beaufort,,10,46.85,-71.183333
beauharnois,,10,45.316667,-73.866667
beaumont,,05,49.6,-55.683333
beauport,,10,46.85,-71.183333
beaupre,5287,10,47.05,-70.883333
beausejour,2886,03,50.066667,-96.516667
beauval,,11,55.15,-107.616667
beaver,,02,51.516667,-117.416667
beaver,,10,45.016667,-74.366667
beaver brook station,,04,47.116667,-65.6
beaver cove,,02,50.533333,-126.866667
beaver crossing,,01,54.361944,-110.205833
beaver crossing,,10,45.016667,-74.366667
beaverdam,,01,54.203611,-110.306667
beaver harbour,,07,44.9,-62.416667
beaver lake,,01,54.759722,-111.9125
beaverley,,02,53.816667,-122.866667
beaverlodge,2219,01,55.2,-119.45
beavermouth,,02,51.516667,-117.416667
beaver river,,01,54.37,-110.270833
beaverton,3237,08,44.433333,-79.15
beaver tower,,10,45.016667,-74.366667
becancour,,10,46.333333,-72.433333
becscie,,10,49.716667,-64.066667
bede,,03,49.383333,-100.966667
bedford,,07,44.728889,-63.664444
bedford,2711,10,45.116667,-72.983333
bednesti,,02,53.866667,-123.083333
bedworth,,08,49.766667,-92.7
beebe,,10,45.016667,-72.15
beebe plain,,10,45.016667,-72.15
beechy,,11,50.883333,-107.383333
beiseker,,01,51.383333,-113.533333
belanger,,11,55.783333,-106.216667
belbutte,,11,53.366667,-107.816667
belcher,,03,57.933333,-94.2
belcher islands,,14,56.2,-78.866667
belcourt,,10,48.4,-77.35
bella bella,,02,52.15,-128.133333
bella coola,,02,52.366667,-126.75
bellakula,,02,52.366667,-126.75
bellburns,,05,50.35,-57.533333
belleau,,10,46.583333,-73.083333
belleoram,,05,47.516667,-55.45
belle plaine,,11,50.4,-105.15
belle river,,08,42.3,-82.716667
belleville,65368,08,44.166667,-77.383333
bellevue,,01,49.583333,-114.366667
bellevue,,05,47.633333,-53.75
bellin,,10,60.016667,-70.033333
bellis,,01,54.143056,-112.151111
bell island,,05,47.65,-52.933333
belloy,,01,55.75,-118.233333
bell rock,,13,60.016667,-112.1
bellsite,,03,52.583333,-101.05
bellvue,,05,47.633333,-53.75
belmont,,03,49.416667,-99.45
belmont,,07,45.416667,-63.383333
beloeil,43016,10,45.566667,-73.2
beloeil village,,10,45.566667,-73.2
beloud post,,12,60.366667,-137.05
benalto,,01,52.3,-114.283333
bend,,02,53.766667,-121.066667
bengough,,11,49.4,-105.116667
benito,,03,51.916667,-101.55
ben-my-chree,,02,59.416667,-134.466667
bennett,,02,59.85,-134.983333
bentley,,01,52.466667,-114.05
benton,,01,51.35,-110.333333
benton,,04,45.983333,-67.6
benton,,05,48.9,-54.433333
benton station,,01,51.35,-110.333333
benton station,,05,48.9,-54.433333
berens river,,03,52.366667,-97.033333
beresford lake,,03,50.866667,-95.25
bergen,,01,51.7,-114.633333
bergland,,08,48.933333,-94.383333
bernard,,14,68.783333,-114.783333
bernard harbour,,14,68.783333,-114.783333
berry mill,,04,46.116667,-64.95
berry mills,,04,46.116667,-64.95
berrys mills,,04,46.116667,-64.95
bersimis,,10,48.95,-68.65
berthier,,10,46.933333,-70.733333
berthier-en-bas,,10,46.933333,-70.733333
berthier-sur-mer,,10,46.933333,-70.733333
berthierville,4411,10,46.083333,-73.166667
bervierville,,10,46.083333,-73.166667
berwick,2271,07,45.033333,-64.733333
berwyn,,01,56.15,-117.75
bethany,,08,44.183333,-78.566667
bethune,,11,50.7,-105.216667
betsiamites,1652,10,48.95,-68.65
beulah,,03,50.266667,-101.033333
beverly,,01,53.566667,-113.4
bic,,10,48.366667,-68.7
bickerdike,,01,53.55,-116.633333
bield,,03,51.216667,-101.15
bienfait,,11,49.15,-102.8
big barachois,,05,47.133333,-54.066667
big beaver,,11,49.1,-105.166667
big beaverhouse,,08,52.95,-89.883333
big brook,,05,51.516667,-56.133333
big creek,,02,51.716667,-123.016667
biggar,2068,11,52.05,-107.983333
big meadow,,01,54.395556,-110.653889
bigolet,,05,54.166667,-58.433333
big river,,11,53.833333,-107.033333
big salmon,,12,61.866667,-134.933333
big sandy,,08,43.95,-77.35
big valley,,01,52.033333,-112.75
bigwood,,08,46.033333,-80.6
bilby,,01,53.7,-114.1
bilodeau,,10,48.333333,-72.166667
bindloss,,01,50.883333,-110.266667
binscarth,,03,50.616667,-101.283333
birch hills,,11,52.983333,-105.433333
birch island,,08,46.05,-81.783333
birch river,,03,52.383333,-101.1
birchy bay,,05,49.333333,-54.733333
bird creek,,08,45.116667,-77.866667
bird river,,03,50.4,-95.683333
birds creek,,08,45.116667,-77.866667
birken,,02,50.483333,-122.6
birsay,,11,51.1,-106.983333
birtle,,03,50.433333,-101.05
biscotasing,,08,47.3,-82.1
bishops falls,,05,49.016667,-55.516667
bissett,,03,51.016667,-95.666667
bissett,,08,46.216667,-78.066667
bissett creek,,08,46.216667,-78.066667
bittern lake,,01,53,-113.05
bitumount,,01,57.383333,-111.633333
bjorkdale,,11,52.716667,-103.633333
black bear bay,,05,53.3,-55.95
black cape,,10,48.133333,-65.816667
black creek,,02,52.3,-121.116667
black diamond,3663,01,50.7,-114.233333
black duck bank,,05,48.7,-58.916667
black duck brook,,05,48.7,-58.916667
blackfalds,3198,01,52.383333,-113.8
black hawk,,08,48.8,-93.983333
black hills,,12,63.483333,-138.833333
blackie,,01,50.6,-113.616667
black lake,,10,46.033333,-71.366667
black pines,,02,50.966667,-120.25
black pool,,02,51.583333,-120.116667
blackville,,04,46.733333,-65.833333
blackwater,,08,44.233333,-79.05
bladworth,,11,51.366667,-106.133333
blaeberry,,02,51.433333,-117.05
blaine lake,,11,52.833333,-106.883333
blainville,,10,45.673,-73.88
blairmore,2095,01,49.6,-114.433333
blanc-sablon,,10,51.433333,-57.116667
blanshard,,08,43.283333,-81.25
blenheim,5065,08,42.333333,-82
blind channel,,02,50.416667,-125.516667
blind river,2966,08,46.183333,-82.95
bliss landing,,02,50.033333,-124.816667
blissville,,04,45.633333,-66.583333
bloedel,,02,50.116667,-125.366667
blubber bay,,02,49.8,-124.616667
blucher,,11,52.016667,-106.216667
blucher hall,,02,51.1,-120.016667
blue jay,,01,54.879722,-112.5225
blue ridge,,01,54.116667,-115.383333
blue river,,02,52.1,-119.3
blue rock,,07,44.35,-64.25
blue rocks,,07,44.35,-64.25
bluesky,,01,56.066667,-118.25
bluffton,,01,52.75,-114.283333
boat basin,,02,49.483333,-126.4
bobcaygeon,3015,08,44.533333,-78.55
bodmin,,11,53.75,-106.966667
bodo,,01,52.15,-110.083333
bogard,,08,44.05,-76.933333
boharm,,11,50.4,-105.716667
boiestown,,04,46.45,-66.4
boischatel,,10,46.9,-71.133333
boisdale,,07,46.1,-60.5
bois-des-filion,,10,45.65,-73.766667
boissevain,1557,03,49.233333,-100.05
bold point,,02,50.183333,-125.15
bolkow,,08,48.1,-83.916667
boloeil,,10,45.566667,-73.2
bolsdale,,07,46.1,-60.5
bolton,21709,08,43.883333,-79.733333
bon accord,1611,01,53.833333,-113.416667
bon accord,,04,46.65,-67.583333
bonarlaw,,08,44.433333,-77.616667
bonaventure,1480,10,48.05,-65.466667
bonavista,3658,05,48.633333,-53.1
bondiss,,01,54.595278,-112.701944
bongard,,08,44.05,-76.933333
bongards,,08,44.05,-76.933333
bonne bay,,05,49.5,-57.933333
bonnyville beach,,01,54.229722,-110.862778
bonnyville,6003,01,54.267778,-110.750833
bordeaux,,10,45.533333,-73.7
borden,,08,44.283333,-79.916667
borden,,09,46.25,-63.7
borden,,11,52.4,-102.233333
borden-carleton,,09,46.25,-63.666667
boscombe,,01,54.152778,-111.43
boston creek,,08,48.016667,-79.95
boswarlos,,05,48.566667,-58.816667
boswell,,02,49.466667,-116.766667
botwood,2940,05,49.15,-55.366667
bouchard,,10,47.483333,-70.383333
boucherville,,10,45.6,-73.45
boundary,,02,56.683333,-131.816667
boundary,,12,64.683333,-140.983333
bourkes,,08,48.283333,-80.233333
bourlamaque,,10,48.1,-77.766667
bowden,,01,51.916667,-114.033333
bow island,1792,01,49.866667,-111.366667
bowmanville,,08,43.9,-78.683333
bowness,,01,51.083333,-114.166667
bow river,,01,49.933333,-111.7
bowser,,02,49.433333,-124.683333
boyds cove,,05,49.433333,-54.666667
boyle,,01,54.590833,-112.809167
brabant,,13,69.45,-133.066667
bracebridge,8238,08,45.033333,-79.3
bracken,,11,49.183333,-108.083333
brackendale,,02,49.766667,-123.15
bradford,18811,08,44.116667,-79.566667
braeburn,,12,61.516667,-135.833333
braeside,,08,45.466667,-76.4
bralorne,,02,50.783333,-122.816667
brampton,,08,43.683333,-79.766667
brancepeth,,11,53,-105.25
branch,,05,46.883333,-53.966667
brandon,26234,03,49.833333,-99.95
brantford,87761,08,43.133333,-80.266667
brazeau,,01,52.466667,-116.083333
brazeou,,01,52.466667,-116.083333
brazil lake,,07,43.983333,-66.016667
brechin,,08,44.55,-79.183333
bredenbury,,11,50.933333,-102.033333
brent,,08,46.033333,-78.466667
brentwood bay,,02,48.583333,-123.466667
bretona,,01,53.433333,-113.333333
breton,,01,53.116667,-114.483333
breynat,,01,55.141111,-112.493611
bridge lake,,02,51.483333,-120.7
bridgeport,,08,43.483333,-80.483333
bridge river,,02,50.733333,-122.233333
bridgetown,1063,07,44.85,-65.15
bridgewater,8070,07,44.366667,-64.516667
briercrest,,11,50.166667,-105.266667
briereville,,01,54.472778,-111.773889
brig bay,,05,51.05,-56.916667
brighton,5152,08,44.033333,-77.733333
brigus,,05,47.516667,-53.216667
brimley,,08,43.733333,-79.25
brisco,,02,50.816667,-116.283333
bristol,,04,46.15,-64.183333
britannia beach,,02,49.633333,-123.183333
britannia,,08,45.366667,-75.8
britt,,08,45.783333,-80.533333
broadacres,,11,52.05,-108.966667
broadlands,,10,48,-66.766667
broadview,,11,50.383333,-102.566667
brochet,,03,57.883333,-101.666667
brocket,,01,49.55,-113.766667
brockville,23887,08,44.583333,-75.683333
broderick,,11,51.483333,-106.933333
bromhead,,11,49.183333,-103.666667
bromptonville,,10,45.466667,-71.933333
brookfield,,07,45.25,-63.283333
brooklands,,03,49.916667,-97.183333
brooks,12745,01,50.566667,-111.9
brooksby,,11,53,-104.3
brossard,,10,45.45,-73.483333
broughton island,,14,67.55,-64.033333
brower,,08,49.016667,-80.833333
brownrigg,,08,49.683333,-81.516667
brownsburg,2597,10,45.683333,-74.4
brownsdale,,05,48.033333,-53.116667
brownvale,,01,56.116667,-117.9
bruce mines,,08,46.283333,-83.783333
bruceton,,08,45.216667,-77.4
bruederheim,,01,53.8,-112.916667
brule lake,,08,45.633333,-78.816667
brule lake station,,08,45.633333,-78.816667
bruno,,11,52.266667,-105.516667
bryson,,10,45.683333,-76.616667
buchanan,,11,51.7,-102.75
buchans,,05,48.816667,-56.866667
buchans junction,,05,48.85,-56.466667
buckhorn,,08,44.55,-78.333333
buckingham,21373,10,45.583333,-75.416667
buctouche,,04,46.466667,-64.733333
buffalo,,01,50.8,-110.683333
buffalo,,11,55.9275,-108.938889
buffalo narrows,,11,55.854167,-108.484167
buffalo river,,13,60.883333,-115.033333
bulkley canyon,,02,55.233333,-127.483333
bull river,,02,49.466667,-115.45
bulyea,,11,50.983333,-104.85
burbidge,,10,46.233333,-76.016667
burgeo,1627,05,47.6,-57.633333
burgis,,11,51.55,-102.433333
burgoyne cove,,05,48.166667,-53.716667
burgoynes cove,,05,48.166667,-53.716667
burin,,05,47.05,-55.183333
burketon station,,08,44.05,-78.8
burks falls,,08,45.616667,-79.416667
burlington,,05,49.75,-56.033333
burlington,,08,43.316667,-79.8
burnaby,,02,49.25,-122.95
burnside,,05,48.7,-53.8
burnside harbour,,14,66.833333,-108.033333
burns lake,2635,02,54.216667,-125.766667
burnsville,,04,47.7,-65.166667
burnt church,,04,47.2,-65.15
burntcoat,,07,45.316667,-63.783333
burnt creek,,10,54.816667,-66.883333
burr,,11,52.05,-105.133333
burriss,,08,48.683333,-93.65
burstall,,11,50.65,-109.916667
burwash,,08,46.233333,-80.866667
burwash,,12,61.35,-139
burwash landing,,12,61.35,-139
burwash station,,08,46.233333,-80.866667
burwell,,14,60.416667,-64.816667
busby,,01,53.95,-113.9
buswash landing,,12,61.35,-139
butedale,,02,53.15,-128.683333
butternut ridge,,04,46,-65.316667
byng inlet,,08,45.766667,-80.55
cabana,,11,54.078333,-108.253333
cabano,2710,10,47.683333,-68.883333
cabri,,11,50.616667,-108.45
cachalot,,02,49.983333,-127.15
cache creek,1061,02,50.8,-121.316667
cacouna,,10,47.916667,-69.5
cadillac,,10,48.216667,-78.383333
cadillac,,11,49.716667,-107.733333
calabogie,,08,45.3,-76.716667
calder,,11,51.15,-101.75
caledon,,08,43.866667,-80
caledon east,2085,08,43.866667,-79.866667
caledonia,,07,44.366667,-65.033333
caledonia,9065,08,43.066667,-79.95
calgary,968475,01,51.083333,-114.083333
callander,,08,46.216667,-79.366667
calling lake,,01,55.25,-113.2
calling river,,01,55.091667,-112.887778
calmar,2000,01,53.25,-113.783333
cambridge bay,,14,69.116667,-105.033333
cambridge,,07,45.2,-64.116667
cambridge,,08,43.383333,-80.316667
cambridge station,,07,45.066667,-64.633333
cameron bay,,13,66.05,-117.883333
cameron falls,,08,49.133333,-88.333333
camlaren,,13,62.983333,-113.2
campbellcroft,,08,44.066667,-78.366667
campbellford,3882,08,44.3,-77.8
campbell island,,02,52.166667,-128.133333
campbell river,33430,02,50.016667,-125.25
campbells bay,,10,45.733333,-76.6
campbellton,12064,04,48,-66.666667
campbellton,,05,49.283333,-54.933333
campbell-town,,04,48,-66.666667
camp borden,,08,44.266667,-79.883333
camp canol,,13,65.233333,-127.083333
camperdown,,07,44.266667,-64.6
camperville,,03,52.016667,-100.15
campo bello,,04,44.883333,-66.95
camrose,15687,01,53.016667,-112.816667
camsell portage,,11,59.616667,-109.216667
canaan station,,04,46.25,-65.066667
canal flats,,02,50.15,-115.833333
candiac,,10,45.383333,-73.516667
cando,,11,52.366667,-108.216667
canfield,,08,42.966667,-79.75
canim lake,,02,51.766667,-120.9
canmore,12289,01,51.1,-115.35
cann,,10,47.9,-73.883333
cannington,2120,08,44.35,-79.033333
canoe lake,,11,55.098056,-108.323333
canoe narrows,,11,55.1675,-108.153333
canol camp,,13,65.233333,-127.083333
canol,,13,65.233333,-127.083333
canora,2055,11,51.633333,-102.433333
canso,,07,45.35,-61
canterbury station,,04,45.883333,-67.466667
canton-begin,,10,48.683333,-71.366667
canuck,,11,49.2,-108.4
canwood,,11,53.366667,-106.6
canyon,,12,60.866667,-137.033333
canyon city,,02,55.2,-129.216667
canyon city,,12,61.816667,-140.783333
capasin,,11,53.6,-107.383333
cap-aux-meules,1686,10,47.383333,-61.866667
cap-chat,1466,10,49.083333,-66.683333
cap-de-chate,,10,49.083333,-66.683333
cap-de-la-madeleine,,10,46.366667,-72.5
cap-des-rosiers,,10,48.866667,-64.2
cape auget,,07,45.483333,-61.033333
cape broyle,,05,47.083333,-52.95
cape chatte,,10,49.083333,-66.683333
cape cove,,10,48.433333,-64.333333
cape dorset,,14,64.233333,-76.55
cape dyer,,14,66.666667,-61.366667
cape enrage,,04,45.616667,-64.783333
cape freels,,05,49.233333,-53.516667
cape norman,,05,51.633333,-55.9
cape onion,,05,51.6,-55.633333
cape parry,,13,70.166667,-124.666667
cape pine,,05,46.616667,-53.533333
cape race,,05,46.666667,-53.083333
cape ray,,05,47.616667,-59.233333
cape saint charles,,05,52.216667,-55.633333
cape scott,,02,50.766667,-128.35
cape smith,,14,60.733333,-78.483333
capestick,,07,47,-60.516667
cape tormentine,,04,46.116667,-63.783333
caplan,,10,48.1,-65.683333
caplin cove,,05,48.033333,-52.983333
capreol,3666,08,46.7,-80.916667
cap-rouge,,10,46.75,-71.35
capstick,,07,47,-60.516667
caramat,,08,49.616667,-86.15
caraquet,4620,04,47.783333,-64.95
caraquette,,04,47.783333,-64.95
carberry,1575,03,49.866667,-99.35
carbondale,,01,53.75,-113.533333
carbonear,6814,05,47.733333,-53.25
carcross,,12,60.183333,-134.716667
carden,,08,44.65,-79.033333
cardigan,,09,46.233333,-62.616667
cardinal,1837,08,44.783333,-75.366667
cardross,,11,49.816667,-105.616667
cardston,3654,01,49.2,-113.316667
cargill,,08,44.2,-81.233333
caribou,,03,59.416667,-97.75
caribou,,12,60.183333,-134.716667
caribou crossing,,12,60.183333,-134.716667
caribou hide,,02,57.433333,-127.55
caribou island,,07,45.75,-62.733333
carleton,,09,46.25,-63.666667
carleton centre,,10,48.1,-66.1
carleton place,9743,08,45.133333,-76.133333
carleton siding,,09,46.25,-63.666667
carlton,,11,52.816667,-106.5
carlyle,1177,11,49.633333,-102.266667
carmacks,,12,62.1,-136.316667
carman,2948,03,49.5,-98
carmanville,,05,49.366667,-54.266667
carmel,,10,45.966667,-72.383333
carmi,,02,49.5,-119.133333
carnaby,,02,55.15,-127.75
carnduff,950,11,49.166667,-101.783333
carnegie,,03,49.966667,-100.1
caroline,,01,52.083333,-114.75
caronport,972,11,50.45,-105.816667
carp,,08,45.35,-76.033333
carrick,,03,49.25,-96.05
carrot river,,11,53.283333,-103.583333
carruthers,,11,52.866667,-109.266667
carseland,,01,50.85,-113.466667
carstairs,2370,01,51.533333,-114.1
cartier,,08,46.7,-81.55
cartierville,,10,45.533333,-73.716667
cartwright,,03,49.083333,-99.333333
cartwright,,05,53.7,-57.016667
cartyville,,05,48.233333,-58.816667
carway,,01,49.016667,-113.383333
cascade,,02,49.016667,-118.216667
cascapedia,,10,48.25,-65.9
casey,,10,47.883333,-74.183333
caslan,,01,54.631667,-112.511667
casselman,3074,08,45.3,-75.083333
cassidy,,02,49.066667,-123.866667
cassidy's,,02,49.066667,-123.866667
cassidy siding,,02,49.066667,-123.866667
cassils,,01,50.583333,-112.05
castlegar,8715,02,49.316667,-117.666667
castle junction,,01,51.266667,-115.916667
castor,,01,52.216667,-111.9
casummit lake,,08,51.466667,-92.35
catalina,1352,05,48.516667,-53.083333
cater,,11,53.366667,-108.05
cat lake,,08,51.716667,-91.8
caughnawaga,,10,45.416667,-73.683333
causapscal,2033,10,48.35,-67.216667
cavendish,,01,50.816667,-110.466667
cavendish,,05,47.716667,-53.5
cavers,,08,48.9,-87.683333
cayley,,01,50.45,-113.85
cayoosh flat,,02,50.683333,-121.933333
cecil lake,,02,56.3,-120.533333
cedars,,10,45.316667,-74.05
cedarvale,,02,55.016667,-128.333333
cedoux,,11,49.883333,-103.866667
ceepeecee,,02,49.866667,-126.7
centerville,,04,46.433333,-67.716667
central blissville,,04,45.633333,-66.583333
centralia,,08,43.283333,-81.466667
central patricia,,08,51.483333,-90.15
centre island,,02,49.833333,-126.933333
centreville,,02,59.266667,-129.416667
centreville,,04,46.433333,-67.716667
centreville,,07,44.533333,-66.016667
cereal,,01,51.416667,-110.8
ceylon,,11,49.45,-104.6
ceylon station,,11,49.45,-104.6
chabatok,,10,50.416667,-73.866667
chalk river,,08,46.016667,-77.45
chamatawa,,03,55.85,-92.083333
chamberlain,,11,50.85,-105.566667
chambly,,10,45.45,-73.3
chambly fort,,10,45.45,-73.266667
chambord,,10,48.433333,-72.05
champagne,,12,60.8,-136.483333
champcoeur,,10,48.666667,-77.633333
champion,,01,50.216667,-113.15
champlain,,10,46.433333,-72.35
chandik,,12,64.033333,-139.433333
chandike,,12,64.033333,-139.433333
chandindu,,12,64.033333,-139.433333
chandler,2863,10,48.333333,-64.666667
change island,,05,49.65,-54.383333
change islands,,05,49.65,-54.383333
channel,,05,47.566667,-59.15
channel-port aux basques,4220,05,47.566667,-59.15
channing,,03,54.75,-101.85
chapais,1824,10,49.783333,-74.866667
chapel arm,,05,47.516667,-53.666667
chapel hill,,10,58.1,-68.4
chapleau,2991,08,47.833333,-83.4
chaplin,,11,50.466667,-106.666667
chard,,01,55.846111,-110.907222
charlemagne,,10,45.716667,-73.483333
charlesbourg,,10,46.866667,-71.266667
charlie lake,,02,56.266667,-120.95
charlottetown,,05,48.433333,-54.016667
charlottetown,42403,09,46.233333,-63.133333
charlton,,08,47.816667,-80
charlton depot,,14,51.966667,-79.316667
charny,,10,46.716667,-71.266667
chase,2471,02,50.816667,-119.683333
chateau-d'eau,,10,46.866667,-71.366667
chateauguay-centre,,10,45.366667,-73.75
chateauguay,,10,45.383333,-73.75
chateauguay heights,,10,45.383333,-73.75
chateau richer,,10,46.966667,-71.016667
chater,,03,49.866667,-99.916667
chatfield,,03,50.783333,-97.566667
chatham,,04,47.033333,-65.433333
chatham,44554,08,42.4,-82.183333
chatsworth,,08,44.45,-80.883333
chaudiere-bassin,,10,46.733333,-71.266667
chauvin,,01,52.683333,-110.133333
cheadle,,01,51.016667,-113.533333
chebogue point,,07,43.75,-66.116667
chee house,,02,59.15,-127.616667
chelan,,11,52.616667,-103.383333
chelmsford,,08,46.583333,-81.2
chemainus,2718,02,48.916667,-123.7
cheminis,,08,48.166667,-79.533333
cherhill,,01,53.816667,-114.666667
cherry grove,,01,54.355,-110.08
cherry point,,01,56.183333,-119.95
cherry valley,,09,46.166667,-62.916667
cherryville,,02,50.233333,-118.616667
chesley,1986,08,44.3,-81.1
chester,1531,07,44.533333,-64.233333
chesterfield,,14,63.333333,-90.7
chesterfield inlet,,14,63.333333,-90.7
chesterville,1582,08,45.1,-75.216667
chesterville,,10,45.966667,-71.816667
chetacan,,07,46.616667,-61.016667
cheticamp,,07,46.616667,-61.016667
chetican,,07,46.616667,-61.016667
cheverie,,07,45.15,-64.166667
chibougamau,,10,49.866667,-74.35
chicotte,,10,49.216667,-63.05
chicoutimi,,10,48.433333,-71.066667
chicoutimi-nord,,10,48.45,-71.066667
chief lake,,02,54.1,-123.016667
chignecto,,07,45.733333,-64.216667
chilliwack,51942,02,49.166667,-121.95
chimney corner,,07,46.4,-61.15
chimo,,10,58.1,-68.4
china hat,,02,52.583333,-128.533333
chin,,01,49.766667,-112.45
chinook valley,,01,56.433333,-117.6
chipewyan,,01,58.716667,-111.15
chip lake,,01,53.616667,-115.45
chipman,,01,53.7,-112.633333
chipman,,04,46.166667,-65.883333
chippawa,,08,43.083333,-79.05
chippewa,,08,43.083333,-79.05
chisholm,,01,54.916667,-114.166667
chisholm mills,,01,54.916667,-114.166667
chitek,,11,53.783333,-107.75
chiverie,,07,45.15,-64.166667
chomedey,,10,45.55,-73.733333
church house,,02,50.316667,-125.083333
churchill,,03,58.766667,-94.166667
churchill,,08,44.25,-79.583333
church point,,07,44.333333,-66.116667
chute-aux-outardes,2000,10,49.116667,-68.383333
chute-shipshaw,,10,48.466667,-71.233333
chutine landing,,02,57.666667,-131.583333
cinema,,02,53.183333,-122.516667
clair,,11,52.016667,-104.066667
clairmont,1483,01,55.266667,-118.8
clandonald,,01,53.583333,-110.716667
clare,,07,44.333333,-66.116667
clarenville,,05,48.15,-53.966667
claresholm,3808,01,50.033333,-113.583333
clark city,,10,50.183333,-66.633333
clarke city,,10,50.183333,-66.633333
clarkes beach,,05,47.533333,-53.3
clarkes harbour,,07,43.45,-65.633333
clarkson,,08,43.516667,-79.616667
claxton,,02,54.066667,-130.1
clayhurst,,02,56.166667,-120.016667
clayoquot,,02,49.15,-125.916667
clear creek,,12,63.783333,-137.3
clear hills,,01,56.533333,-117.883333
clear prairie,,01,56.583333,-119.5
clearwater,,02,51.65,-120.033333
clearwater station,,02,51.633333,-120.033333
clemenceau,,11,52.666667,-102.533333
clericy,,10,48.366667,-78.866667
clermont,2912,10,47.683333,-70.233333
cliffside,,02,48.616667,-123.633333
climax,,11,49.2,-108.383333
clinton,,02,51.1,-121.6
clinton,3292,08,43.6,-81.533333
clive,,01,52.483333,-113.45
cloan,,11,52.6,-108.783333
clondyke,,12,64.033333,-139.433333
clo-oose,,02,48.65,-124.816667
cloridorme,,10,49.166667,-64.916667
clova,,10,48.116667,-75.366667
cloverdale,,02,49.1,-122.733333
clute,,08,49.183333,-81.066667
clyde,,14,70.45,-68.566667
clyde river,,07,43.633333,-65.483333
clyde river,1017,14,70.45,-68.566667
coal creek,,02,49.483333,-114.983333
coaldale,6317,01,49.733333,-112.616667
coal harbour,,02,50.6,-127.583333
coalspar,,01,53.183333,-117.016667
coalspur,,01,53.183333,-117.016667
coaticook,7021,10,45.133333,-71.8
cobalt,,08,47.383333,-79.683333
cobble hill,,02,48.683333,-123.6
cobden,,08,45.616667,-76.883333
coboconk,,08,44.666667,-78.8
cobourg,18100,08,43.966667,-78.166667
cochrane,16367,01,51.2,-114.45
cochrane,4407,08,49.066667,-81.016667
cochrane hill,,07,45.25,-62.016667
coderre,,11,50.133333,-106.383333
codette,,11,53.283333,-104.016667
codroy,,05,47.866667,-59.366667
codroy pond,,05,48.066667,-58.866667
cody,,04,45.866667,-65.816667
codys,,04,45.866667,-65.816667
coe hill,,08,44.85,-77.833333
coe hill mines,,08,44.85,-77.833333
colborne,2155,08,44.016667,-77.883333
colchester,2307,08,41.983333,-82.933333
cold lake,,01,54.465,-110.183056
coldwater,,08,44.716667,-79.816667
cole bay,,11,55.097222,-108.343333
colebrook,,02,49.1,-122.866667
coleman,,01,49.633333,-114.5
coleman,,09,46.683333,-64.183333
coleville,,11,51.7,-109.233333
colinet,,05,47.216667,-53.566667
colleymount,,02,54.033333,-126.15
colliers,,05,47.45,-53.233333
collingwood,15809,08,44.5,-80.216667
collins bay,,08,44.233333,-76.616667
collins,,08,50.283333,-89.45
collinson,,13,71.616667,-117.95
colonsay,,11,51.966667,-105.866667
colpton,,07,44.45,-64.85
colville lake,,13,67.033333,-126.116667
colvilletown,,02,49.15,-123.916667
colwell,,08,44.35,-79.783333
comax,,02,49.683333,-124.933333
comber,,08,42.233333,-82.55
combermere,,08,45.366667,-77.616667
comeau bay,,10,49.216667,-68.15
come by chance,,05,47.85,-53.983333
commanda,,08,45.95,-79.6
como,,10,45.45,-74.116667
comox,,02,49.683333,-124.933333
compeer,,01,51.866667,-110.016667
comuck,,02,49.683333,-124.933333
conception harbour,,05,47.433333,-53.216667
conche,,05,50.9,-55.9
coniston,,08,46.483333,-80.85
conklin,,01,55.6325,-111.082778
connaught,,08,48.616667,-80.933333
connaught station,,08,48.616667,-80.933333
connelly,,01,53.183333,-110.783333
connolly,,01,53.183333,-110.783333
connors,,04,47.2,-68.833333
conquest,,11,51.533333,-107.25
conrad city,,12,60.066667,-134.583333
conrad,,12,60.066667,-134.583333
consort,,01,52.016667,-110.8
contrecoeur,3587,10,45.85,-73.233333
cook harbour,,05,51.6,-55.866667
cookshire,1568,10,45.416667,-71.616667
cookson,,11,53.533333,-106.316667
coppell,,08,49.533333,-83.833333
copper city,,02,54.533333,-128.483333
copper cliff,,08,46.466667,-81.066667
copper creek,,02,50.783333,-120.783333
coppermine,,14,67.833333,-115.083333
copper mountain,,02,49.316667,-120.533333
copper river,,02,54.533333,-128.483333
coquitlam,,02,49.266667,-122.783333
coral harbour,,14,64.133333,-83.166667
coral rapids,,08,50.2,-81.666667
corbin,,02,49.516667,-114.65
corbyville,,08,44.216667,-77.366667
cordova mines,,08,44.533333,-77.783333
corinne,,11,50.05,-104.633333
cork,,04,45.683333,-66.916667
cork station,,04,45.683333,-66.916667
cormorant,,03,54.216667,-100.6
corner brook,18693,05,48.95,-57.933333
cornwall,48823,08,45.016667,-74.733333
cornwallis,,07,44.65,-65.633333
coronation,,01,52.083333,-111.45
coronation,,14,67.833333,-115.083333
cortes bay,,02,50.066667,-124.933333
coteau-landing,,10,45.266667,-74.233333
coteau station,,10,45.266667,-74.233333
cote,,11,51.516667,-101.8
cote-sainte-catherine,,10,45.4,-73.583333
cote-saint-luc,,10,45.45,-73.666667
cote saint michel,,10,45.566667,-73.616667
cottam,,08,42.133333,-82.75
cottonwood,,02,53.05,-122.15
cottrells cove,,05,49.483333,-55.283333
coulter,,03,49.083333,-100.983333
courtenay,32793,02,49.683333,-125
courtice,,08,43.9,-78.8
courtright,,08,42.816667,-82.466667
courville,,10,46.883333,-71.15
coutts,,01,49,-111.95
covered bridge,,04,46.233333,-66.616667
covered bridge station,,04,46.233333,-66.616667
cowansville,10888,10,45.2,-72.75
cow bay,,07,46.133333,-59.883333
cowell,,08,44.35,-79.783333
cow head,,05,49.916667,-57.9
cow head harbour,,05,49.916667,-57.9
cowichan bay,,02,48.733333,-123.616667
cowley,,01,49.566667,-114.066667
cowley,,12,60.516667,-134.916667
cox cove,,05,49.116667,-58.066667
coxheath,,07,46.116667,-60.233333
coyle,,02,50.15,-120.883333
crabtree,2248,10,45.966667,-73.466667
cracroft,,02,50.566667,-126.266667
craigend,,01,54.595833,-111.921111
craig harbour,,14,76.2,-81.016667
craigmyle,,01,51.666667,-112.233333
cranberry portage,,03,54.583333,-101.383333
cranbrook,18610,02,49.516667,-115.766667
crediton,,08,43.3,-81.55
cree lake,,11,57.366667,-106.833333
creemore,1391,08,44.316667,-80.1
creighton,,08,46.45,-81.166667
creighton mine,,08,46.45,-81.166667
cremona,,01,51.55,-114.466667
crescent valley,,02,49.433333,-117.55
creston,4816,02,49.1,-116.516667
crestwynd,,11,50.1,-105.7
crilly,,08,48.75,-92.283333
criss creek,,02,51.033333,-120.733333
croc,,05,51.033333,-55.833333
crofton,,02,48.866667,-123.65
cromer,,03,49.733333,-101.233333
crooked river,,11,52.85,-103.716667
crookston,,08,44.433333,-77.45
crosby,,08,44.65,-76.25
cross creek station,,04,46.266667,-66.633333
crossfield,2512,01,51.433333,-114.033333
cross lake,,03,54.616667,-97.783333
crowfoot,,01,50.816667,-112.666667
croydon station,,02,53.066667,-119.75
crozier,,08,48.616667,-93.533333
crutwell,,11,53.216667,-106.066667
crystal beach,7062,08,45.05,-79.4
crystal city,,03,49.133333,-98.95
crystal falls,,08,46.45,-79.883333
cudworth,,11,52.483333,-105.716667
culp,,01,55.783333,-117.533333
cumberland bay,,04,46.033333,-65.866667
cumberland,2630,02,49.616667,-125.016667
cumberland house,,11,53.95,-102.266667
cunningham landing,,13,60.033333,-112.133333
cuoq,,10,48.633333,-67.116667
cupar,,11,50.95,-104.2
curling,,05,48.966667,-58
current island,,05,51.183333,-56.833333
cut knife,,11,52.75,-109.016667
cypress river,,03,49.55,-99.083333
czar,,01,52.45,-110.833333
dacre,,08,45.366667,-76.983333
dafoe,,11,51.75,-104.533333
dakin,,01,54.799167,-112.573333
dalhousie,4137,04,48.066667,-66.366667
dalhousie east,,07,44.716667,-64.8
dalhousie junction,,04,48.033333,-66.483333
dalhousie road,,07,44.733333,-64.7
dalhousie settlement,,07,45.566667,-63
dalhousie west,,07,44.716667,-65.216667
dallas,,03,51.383333,-97.483333
dalmeny,1504,11,52.333333,-106.783333
dalton,,08,48.15,-84.033333
dalton mills,,08,48.116667,-84.066667
dalton post,,12,60.133333,-137.016667
dane,,08,48.066667,-80.016667
daniels cove,,05,50.233333,-57.583333
daniels harbour,,05,50.233333,-57.583333
danville,1761,10,45.783333,-72.016667
dapp,,01,54.35,-113.916667
dartmouth,,07,44.666667,-63.566667
dasserat,,10,48.2,-79.416667
dauphin,8418,03,51.15,-100.05
davangus,,10,48.45,-78.883333
davidson,967,11,51.266667,-105.966667
davis inlet,,05,55.85,-60.866667
dawson city,,12,64.066667,-139.416667
dawson creek,10802,02,55.766667,-120.233333
dawson,,12,64.066667,-139.416667
daylesford,,11,52.5,-104.9
daysland,,01,52.866667,-112.25
dayton,,08,46.233333,-83.333333
deadwood,,01,56.733333,-117.516667
dean lake,,08,46.2,-83.15
dease lake,,02,58.45,-130.033333
debden,,11,53.516667,-106.866667
debec,,04,46.066667,-67.683333
debert,,07,45.433333,-63.466667
debert station,,07,45.433333,-63.466667
decimal,,03,49.883333,-95.416667
decker lake,,02,54.283333,-125.833333
deep brook,,07,44.633333,-65.65
deepdale,,03,51.316667,-101.433333
deep river,4296,08,46.166667,-77.566667
deep river depot,,08,46.166667,-77.566667
deepwater creek,,05,52.366667,-55.65
deer,,03,49.966667,-98.766667
deer,,12,64.033333,-139.433333
deer harbour,,05,48.133333,-53.583333
deer lake,4163,05,49.183333,-57.433333
deer lake,,08,52.616667,-94.066667
defot,,02,58.9,-130.433333
delaire,,07,48.816667,-64.45
delamare,,08,46.166667,-80.7
delamere,,08,46.166667,-80.7
delburne,,01,52.2,-113.233333
de lery,,10,45.333333,-73.816667
delhi,4227,08,42.85,-80.5
deline,,13,65.183333,-123.416667
delisle,,10,48.633333,-71.7
delisle,,11,51.916667,-107.116667
deloraine,1068,03,49.183333,-100.5
deloro,,10,44.516667,-77.616667
delph,,01,54.007222,-112.678889
delson,,10,45.366667,-73.55
delson village,,10,45.366667,-73.55
delta,,02,49.0192,-123.0867
delta,,03,50.183333,-98.316667
delta station,,03,50.183333,-98.316667
demmitt,,01,55.45,-119.9
denare beach,,11,54.666667,-102.083333
denbigh,,08,45.15,-77.25
dendron,,11,50.116667,-107.1
denfield,,08,43.116667,-81.433333
denholm,,11,52.65,-108.016667
denman island,,02,49.533333,-124.816667
denzil,,11,52.233333,-109.65
depot harbour,,08,45.316667,-80.083333
dequen,,10,48.333333,-72.133333
deroche,,02,49.183333,-122.066667
derval,,10,45.45,-73.75
desbarats,,08,46.333333,-83.933333
desbiens,1147,10,48.416667,-71.95
deschaillons,,10,46.55,-72.1
deschaillons-sur-saint-laurent,,10,46.55,-72.116667
deschambault,,10,46.633333,-71.916667
deschenes,,10,45.383333,-75.8
d'escousse,,07,45.583333,-60.966667
deseronto,1897,08,44.2,-77.033333
desmeloizes,,10,48.95,-79.483333
destruction bay,,12,61.25,-138.8
deux-montagnes,,10,45.533333,-73.883333
deux rivieres,,08,46.25,-78.283333
devenish,,01,55.534722,-111.196667
devon,5225,01,53.366667,-113.733333
devonshire,,08,48.816667,-80.816667
dewette,,12,60.383333,-134.833333
dezadeash,,12,60.366667,-137.05
diana bay,,10,60.783333,-69.833333
didsbury,4134,01,51.666667,-114.133333
didyme,,10,48.883333,-72.666667
dieppe,,04,46.1,-64.75
digby,2052,07,44.6,-65.75
dildo,,05,47.55,-53.55
dilke,,11,50.866667,-105.25
dillon,,11,55.9275,-108.938889
dina,,01,52.933333,-110.083333
dingwall,,07,46.9,-60.466667
dinorwic,,08,49.7,-92.5
dinorwick,,08,49.7,-92.5
dinsmore,,11,51.333333,-107.45
dipper harbour,,04,45.083333,-66.416667
discovery harbor,,14,81.716667,-64.716667
disraeli,2678,10,45.9,-71.35
dixonville,,01,56.533333,-117.666667
doaktown,,04,46.55,-66.116667
doating cove,,05,49.433333,-53.95
dodsland,,11,51.8,-108.833333
doe river,,02,56.016667,-120.083333
dog creek,,02,51.583333,-122.25
dogpound,,01,51.466667,-114.383333
dolbeau,12916,10,48.866667,-72.233333
dollard-des-ormeaux,,10,45.45,-73.85
domain,,03,49.6,-97.316667
dominion city,,03,49.133333,-97.15
dominion,,07,46.216667,-60.016667
dominion number six,,07,46.183333,-59.866667
domino harbour,,05,53.466667,-55.766667
domremy,,11,52.783333,-105.733333
donalda,,01,52.583333,-112.566667
donald landing,,02,54.483333,-125.666667
donatville,,01,54.748056,-112.804167
donjek,,12,62.683333,-140.083333
donkin,,07,46.183333,-59.866667
don mills,,08,43.733333,-79.333333
donnacona,8014,10,46.666667,-71.733333
donnaconna,,10,46.666667,-71.733333
donnelly,,01,55.733333,-117.116667
dorchester crossing,,04,46.166667,-64.566667
dore lake,,11,54.666667,-107.116667
dorintosh,,11,54.355278,-108.628333
dorion,,10,45.383333,-74.016667
dorion-vaudreuil,,10,45.383333,-74.016667
dorothy,,01,51.283333,-112.316667
dorreen,,02,54.85,-128.333333
dorset,,08,45.233333,-78.883333
dorset,,14,64.233333,-76.55
dorval,,10,45.45,-73.75
dosquet,,10,46.466667,-71.516667
dot,,02,50.233333,-121.1
doting cove,,05,49.433333,-53.95
doucet,,10,48.233333,-76.583333
doughty,,02,54.95,-127.316667
douglas lake,,02,50.15,-120.183333
douglas station,,03,49.883333,-99.7
douglastown,,10,48.766667,-64.383333
douro,,08,44.383333,-78.2
doussal,,01,55.616667,-116.833333
dover,,05,48.85,-53.983333
dowling,,01,51.766667,-112
downie,,08,43.333333,-81.05
downsview,,08,43.716667,-79.483333
doyles,,05,47.85,-59.15
drayton valley,6099,01,53.216667,-114.983333
dresden,2727,08,42.583333,-82.166667
driftpile,,01,55.35,-115.766667
driftwood,,08,49.133333,-81.383333
drinkwater,,08,48.583333,-81.016667
drinkwater,,11,50.3,-105.133333
drinnan,,01,53.433333,-117.533333
drumbo,,08,43.233333,-80.55
drumheller,6557,01,51.466667,-112.7
drummondville,59489,10,45.883333,-72.483333
drummondville east,,10,45.883333,-72.483333
drummondville-ouest,,10,45.9,-72.516667
dryden,6924,08,49.783333,-92.833333
dubois,,10,48.016667,-78.933333
du brochet,,03,57.883333,-101.666667
dubuisson,,10,48.1,-77.9
duchess,,01,50.733333,-111.9
duck bay,,03,52.2,-100.166667
duck lake,,11,52.8,-106.216667
duffield,,01,53.516667,-114.333333
dufresne,,03,49.716667,-96.733333
dufrost,,03,49.35,-97.05
dugwal,,08,48.583333,-81.016667
dunblane,,11,51.2,-106.866667
duncan bay,,02,50.066667,-125.283333
duncan,22199,02,48.783333,-123.7
dundalk,,08,44.166667,-80.383333
dundas,,08,43.266667,-79.933333
dundas harbour,,14,74.516667,-82.4
dundurn,,11,51.8,-106.5
dunelm,,11,50.183333,-107.816667
dunfermline,,11,52.133333,-107.05
dunmore,,01,49.966667,-110.583333
dunnville,6006,08,42.9,-79.616667
dunsford,,08,44.45,-78.633333
dunster,,02,53.116667,-119.833333
dunville,,05,47.283333,-53.883333
duparquet,,10,48.516667,-79.216667
dupuy,,10,48.833333,-79.366667
durham bridge,,04,46.133333,-66.6
durham,,04,46.133333,-66.6
durham,2861,08,44.183333,-80.816667
durlingville,,01,54.284167,-110.649444
duvernay,,01,53.783333,-111.683333
duvernay,,10,45.566667,-73.85
dyer bay,,08,45.166667,-81.333333
dyers bay,,08,45.166667,-81.333333
dyment,,08,49.616667,-92.316667
eagle harbour,,02,49.35,-123.266667
eagle hill,,01,51.816667,-114.366667
eagle river,,08,49.783333,-93.183333
eaglesham,,01,55.783333,-117.9
earlton,,08,47.716667,-79.816667
earlton junction,,08,47.716667,-79.816667
east advocate,,07,45.333333,-64.766667
east angus,3634,10,45.483333,-71.666667
east braintree,,03,49.616667,-95.616667
east broughton station,,10,46.216667,-71.083333
east chezzetcook,,07,44.716667,-63.233333
east coulee,,01,51.333333,-112.483333
eastend,,11,49.516667,-108.816667
eastern,,07,46.616667,-61.016667
eastern passage,,07,44.616667,-63.483333
east kelowna,,02,49.866667,-119.4
east kildonan,,03,49.916667,-97.083333
east lahave,,07,44.3,-64.366667
east lake,,10,47.333333,-69.683333
east lehave,,07,44.3,-64.366667
eastmain,,10,52.233333,-78.516667
eastman,,10,45.3,-72.316667
east margaree,,07,46.383333,-61.066667
east mines,,07,45.433333,-63.516667
east pine,,02,55.716667,-121.183333
east poplar,,11,49.066667,-105.383333
eastport,,05,48.65,-53.766667
east river saint marys,,07,45.4,-62.183333
east souris,,09,46.35,-62.25
eastview centre,,08,45.433333,-75.65
eastview,,08,45.433333,-75.65
east windsor,,08,42.316667,-82.983333
echo bay,,08,46.483333,-84.066667
echo bay,,13,66.083333,-118.033333
economy,,07,45.383333,-63.916667
ecstew,,02,54.4,-129.1
ecum secum,,07,44.966667,-62.116667
edam,,11,53.183333,-108.766667
eddies cove,,05,51.4,-56.416667
eddies cove west,,05,50.75,-57.166667
eden,,03,50.366667,-99.466667
edgar,,08,44.516667,-79.616667
edgerton,,01,52.75,-110.45
edgewood,,02,49.783333,-118.133333
edgeworth,,11,49.733333,-104.95
edgington,,08,45.383333,-79.783333
edmonton,822319,01,53.55,-113.5
edmundston,17937,04,47.366667,-68.333333
edson,7975,01,53.583333,-116.416667
edwand,,01,54.143889,-112.275833
edwardsville,,07,46.166667,-60.233333
edzo,,13,62.783333,-116.033333
eganville,1299,08,45.533333,-77.1
egg island,,03,59.916667,-94.816667
egnelle,,02,58.266667,-131.8
egnell,,02,58.266667,-131.8
egnell's,,02,58.266667,-131.8
egremont,,01,54.033333,-113.116667
eholt,,02,49.15,-118.566667
eisenhower junction,,01,51.266667,-115.916667
elbow,,11,51.116667,-106.6
eldorado,,11,59.55,-108.5
elgin,,03,49.433333,-100.266667
elgin,,04,45.8,-65.116667
elkhorn,,03,49.966667,-101.25
elk lake,,08,47.716667,-80.333333
elko,,02,49.3,-115.116667
elk point,1514,01,53.9,-110.9
ellice river,,14,68.033333,-103.433333
elliot lake,12508,08,46.383333,-82.65
elliots cove,,05,48.133333,-53.916667
elliotts cove,,05,48.133333,-53.916667
elliston,,05,48.616667,-53.033333
elliston station,,05,48.566667,-53.1
ellscott,,01,54.503611,-112.900833
elma,,03,49.866667,-95.916667
elm creek,,03,49.666667,-98
elmira,8614,08,43.6,-80.55
elmira,,09,46.433333,-62.066667
elmsdale,,07,44.966667,-63.516667
elmvale,2298,08,44.583333,-79.866667
eloida,,08,44.683333,-75.966667
elora,,08,43.683333,-80.433333
elphinstone,,03,50.533333,-100.316667
elrose,,11,51.2,-108.033333
elsa,,12,63.916667,-135.483333
elsas,,08,48.516667,-82.916667
elzevir,,08,44.633333,-77.283333
embarras portage,,01,58.45,-111.5
emerald,,08,44.15,-76.766667
emerald,,09,46.366667,-63.55
emerson,,03,49,-97.2
emo,,08,48.616667,-93.833333
empress,,01,50.966667,-110.016667
emsdale,,08,45.533333,-79.316667
enchant,,01,50.166667,-112.416667
endako,,02,54.083333,-125.016667
enderby,2830,02,50.55,-119.133333
endiang,,01,51.966667,-112.15
engen,,02,54.016667,-124.283333
engineer,,02,59.5,-134.25
englee,,05,50.733333,-56.1
englehart,1685,08,47.816667,-79.866667
englewood,,02,50.55,-126.883333
english brook,,03,51.133333,-96.2
english harbour east,,05,47.65,-54.933333
english harbour west,,05,47.466667,-55.533333
enilda,,01,55.416667,-117.316667
ennadai,,14,61.133333,-100.883333
ensign,,01,50.466667,-113.433333
enterprise,,08,44.466667,-76.883333
enterprise,,13,60.55,-116.133333
entrance,,01,53.366667,-117.7
entwistle,,01,53.516667,-114.966667
erieau,,08,42.25,-81.916667
eriksdale,,03,50.866667,-98.1
erindale,,08,43.533333,-79.65
erin,3053,08,43.766667,-80.066667
erith,,01,53.416667,-116.683333
ernfold,,11,50.45,-106.9
erwood,,11,52.85,-102.2
escoumins,,10,48.35,-69.416667
eskimo point,,14,61.116667,-94.05
espanola,4682,08,46.25,-81.766667
esquimalt,,02,48.433333,-123.416667
essex,7396,08,42.166667,-82.816667
estaire,,08,46.3,-80.8
estcourt,,10,47.45,-69.216667
esterel,,10,46.033333,-74.033333
esterhazy,2194,11,50.65,-102.083333
estevan,9904,11,49.15,-103
esther,,01,51.683333,-110.25
eston,979,11,51.15,-108.75
estuary,,11,50.933333,-109.9
etang-du-nord,,10,47.366667,-61.933333
ethelbert,,03,51.516667,-100.4
etobicoke,,08,43.7,-79.566667
etzikom,,01,49.483333,-111.1
eugenia,,08,44.316667,-80.533333
eureka,,14,80.216667,-86.183333
evanston,,07,45.616667,-61.233333
evansville,,08,45.816667,-82.583333
evelyn,,02,54.883333,-127.266667
everard,,08,48.9,-88.35
evesham,,11,52.4,-109.833333
excel,,01,51.383333,-110.566667
exeter,4702,08,43.35,-81.483333
exstew,,02,54.4,-129.1
extension,,02,49.1,-123.966667
eyebrow,,11,50.8,-106.15
fabre,,10,47.2,-79.366667
fabre-station,,10,47.183333,-79.316667
fabreville,,10,45.566667,-73.65
factory river,,10,52.6,-78.716667
fairford,,03,51.6,-98.7
fair island,,05,48.983333,-53.7
fairmont hot springs,,02,50.316667,-115.866667
fairview,3312,01,56.066667,-118.4
falconbridge,,08,46.566667,-80.816667
falls creek,,02,50.066667,-121.55
false bay,,02,49.483333,-124.35
fancamp township,,10,49.566667,-74.583333
farnham,6061,10,45.283333,-72.966667
farrell creek,,02,56.183333,-121.583333
farrington,,08,48.766667,-92.833333
father point,,10,48.516667,-68.466667
fauquier,,02,49.883333,-118.083333
fauquier,,08,49.3,-82.033333
faust,,01,55.316667,-115.716667
favourable lake,,08,52.833333,-93.633333
fawcett,,01,54.533333,-114.083333
fee spur,,08,50.25,-89.766667
fellers heights,,02,55.6,-120.55
fenelon falls,1979,08,44.533333,-78.75
fenn,,01,52.133333,-112.75
fergus,17673,08,43.7,-80.366667
ferguson,,02,50.683333,-117.483333
ferintosh,,01,52.766667,-112.966667
ferland,,08,50.316667,-88.416667
ferme-neuve,2115,10,46.7,-75.45
fermeuse,,05,46.966667,-52.966667
fernie,5019,02,49.5,-115.066667
ferolle point,,05,51.016667,-57.1
ferrier,,01,52.366667,-115.066667
ferryland,,05,47.016667,-52.916667
feudal,,11,51.883333,-107.6
fichot island,,05,51.166667,-55.7
fiedmont,,10,48.383333,-77.666667
field,,02,51.4,-116.483333
field,,08,46.516667,-80.033333
fielding,,11,52.516667,-107.533333
figuery,,10,48.466667,-78.066667
fillmore,,11,49.883333,-103.433333
finch,,08,45.133333,-75.083333
fingal,,08,42.716667,-81.3
finland,,08,48.85,-93.916667
finlay,,02,55.983333,-123.833333
finlay forks,,02,55.983333,-123.833333
finlay junction,,02,55.983333,-123.833333
finmoore,,02,53.983333,-123.6
finnegan,,01,51.133333,-112.083333
fire river,,08,48.766667,-83.6
firvale,,02,52.433333,-126.233333
fishels,,05,48.316667,-58.683333
fisher,,10,48.483333,-77.8
fishermans cove,,02,49.35,-123.283333
fishing ship harbour,,05,52.6,-55.766667
fishing station,,12,65.916667,-139.616667
fiske,,11,51.483333,-108.4
fitgerald,,01,59.866667,-111.6
fitzgerald,,01,59.866667,-111.6
five islands,,07,45.416667,-64.033333
flagstone,,02,49.066667,-115.183333
flanders,,08,48.733333,-92.083333
flat bay,,05,48.383333,-58.583333
flatbush,,01,54.683333,-114.15
flat island,,05,47.266667,-54.916667
flat islands,,05,53.266667,-55.733333
flat lake,,01,54.130278,-111.151667
flat river,,09,46.016667,-62.883333
flat rock,,05,47.716667,-52.716667
flat valley,,11,54.296944,-109.227222
flaxcombe,,11,51.466667,-109.6
fleet,,01,52.15,-111.733333
fleming,,11,50.066667,-101.516667
flesherton,,08,44.25,-80.55
fleur de lis harbour,,05,50.133333,-56.1
fleur de lys,,05,50.133333,-56.1
fleur-de lys harbour,,05,50.133333,-56.1
flin flon,6002,03,54.766667,-101.883333
flintoft,,11,49.466667,-106.35
floradale,,08,43.616667,-80.583333
flower cove,,05,51.283333,-56.733333
flowers cove,,05,51.283333,-56.733333
foam lake,1138,11,51.65,-103.533333
foch,,02,50.116667,-124.516667
fogo,,05,49.7,-54.283333
foleyet,,08,48.25,-82.433333
folly lake,,07,45.55,-63.55
fond-du-lac,,11,59.316667,-107.183333
fontas,,02,58.283333,-121.716667
fontenelle,,10,48.883333,-64.55
fonthill,,08,43.033333,-79.283333
foothills,,01,53.066667,-116.783333
foremost,,01,49.483333,-111.433333
forestburg,,01,52.583333,-112.066667
forestdale,,02,54.416667,-126.2
forest,3018,08,43.1,-82
forest hill,,08,43.7,-79.416667
forest lawn,,01,51.033333,-113.966667
forestville,3570,10,48.733333,-69.066667
fork lake,,01,54.468889,-111.617778
fork lake,,13,60.883333,-111.083333
forks,,04,46.05,-65.55
forrest station,,03,49.966667,-99.95
forrestville,,10,48.733333,-69.066667
fort albany,,08,52.25,-81.616667
fort assiniboine,,01,54.333333,-114.766667
fort babine,,02,55.316667,-126.616667
fort-chambly,,10,45.45,-73.266667
fort-chimo,,10,58.1,-68.4
fort chipewyan,,01,58.716667,-111.15
fort collinson,,13,71.616667,-117.95
fort conger,,14,81.716667,-64.716667
fort connelly,,02,56.2,-126.85
fort coulonge,,10,45.85,-76.75
fort du brochet,,03,57.883333,-101.666667
forteau bay,,05,51.45,-56.95
fort enterprise,,13,64.483333,-113.166667
fort erie,15953,08,42.9,-78.933333
fort fitzgerald,,01,59.866667,-111.6
fort frances,7931,08,48.616667,-93.416667
fort franklin,,13,65.183333,-123.416667
fort fraser,,02,54.05,-124.533333
fort-george,,10,53.833333,-79.016667
fort good hope,,13,66.266667,-128.633333
fort grahame,,02,56.6,-124.633333
fort graham,,02,56.6,-124.633333
fort halkett,,02,59.55,-126.483333
fort hall,,03,59.383333,-101.333333
fort hope,,08,51.55,-87.983333
fort hope,,14,66.533333,-86.716667
fortierville,,10,46.483333,-72.033333
fort james,,02,54.433333,-124.25
fort kent,,01,54.313056,-110.603889
fort liard,,13,60.233333,-123.483333
fort mackay,,01,57.183333,-111.616667
fort-mackenzie,,10,56.883333,-68.983333
fort macleod,,01,49.733333,-113.4
fort mckenzie,,10,56.883333,-68.983333
fort mcleod,,02,55,-123.033333
fort mcmurray,,01,56.733333,-111.383333
fort mcpherson,,13,67.433333,-134.866667
fort nelson,4207,02,58.816667,-122.533333
fort norman,,13,64.9,-125.583333
fort providence,,13,61.366667,-117.65
fort qu'appelle,,11,50.766667,-103.783333
fort radium,,13,66.05,-117.883333
fort rae,,13,62.833333,-116.05
fort reliance,,13,62.7,-109.133333
fort resolution,,13,61.166667,-113.683333
fort ross,,14,72.016667,-94.25
fort-rupert,,10,51.483333,-78.766667
fort saint james,2392,02,54.433333,-124.25
fort saint john,16656,02,56.25,-120.833333
fort saskatchewan,,01,53.716667,-113.2
fort selkirk,,12,62.766667,-137.383333
fort severn,,08,55.983333,-87.65
fort simpson,,13,61.85,-121.333333
fort smith,,13,60,-111.883333
fort steele,,02,49.616667,-115.633333
fort thomson,,14,68.783333,-114.783333
fortune,,05,47.066667,-55.866667
fortune harbor,,05,49.5,-55.25
fortune harbour,,05,49.5,-55.25
fort vermilion chutes,,01,58.366667,-114.85
fort vermilion,,01,58.4,-116
fort vermillion,,01,58.4,-116
fort ware,,02,57.416667,-125.616667
fort william,,08,48.4,-89.233333
fort wrigley,,13,63.266667,-123.6
forty mile,,12,64.45,-140.55
forward,,11,49.633333,-104.466667
fossmill,,08,46.066667,-79.116667
fosston,,11,52.2,-103.8
fourchu,,07,45.716667,-60.25
four corners,,11,54.180278,-108.628056
fowler,,02,56.833333,-131.766667
fox bay,,10,49.266667,-61.85
foxford,,11,53.466667,-105.116667
fox harbour,,05,47.316667,-53.916667
fox island harbour,,05,47.583333,-57.266667
fox river,,10,48.983333,-64.383333
foxtrap,,05,47.516667,-52.966667
fox valley,,11,50.466667,-109.483333
foymount,,08,45.45,-77.316667
frains,,01,54.754444,-112.601944
frances lake,,12,61.266667,-129.283333
franchere,,01,54.269444,-111.029167
francis,,11,50.1,-103.866667
francis harbour,,05,52.55,-55.733333
francis lake,,12,61.266667,-129.283333
francois,,05,47.566667,-56.75
frankford,,08,44.2,-77.6
frankville,,07,45.65,-61.516667
franz,,08,48.466667,-84.416667
fraserdale,,08,49.85,-81.616667
fraser,,02,59.716667,-135.05
fraser lake,,02,54.05,-124.783333
frater,,08,47.333333,-84.55
fredericksburg,,08,44.216667,-76.866667
frederickton,,05,49.416667,-54.366667
fredericton,52337,04,45.95,-66.633333
fredericton junction,,04,45.666667,-66.616667
freedom,,01,54.15,-114.233333
freeport,,07,44.266667,-66.316667
frenchman butte,,11,53.583333,-109.616667
frenchman cove,,05,49.05,-58.183333
french village,,07,44.7,-63.883333
freshwater,,05,47.75,-53.2
fresnoy,,01,54.240556,-110.804167
frobisher bay,,14,63.733333,-68.5
frobisher,,11,49.2,-102.416667
frobisher,,14,63.733333,-68.5
front of escott,,08,44.433333,-75.95
fruitvale,3790,02,49.116667,-117.55
fryatt,,08,49.616667,-83.333333
fulford,,02,48.783333,-123.483333
fulford harbour,,02,48.783333,-123.483333
fulton river,,02,54.816667,-126.133333
furness,,11,53.116667,-109.966667
fusilier,,11,51.85,-109.766667
gabarouse barachois,,07,45.833333,-60.133333
gabarus barachois,,07,45.833333,-60.133333
gabarus,,07,45.833333,-60.133333
gabriola,,02,49.183333,-123.85
gadds harbour,,05,49.5,-57.883333
gadsby,,01,52.3,-112.35
gage,,01,56.133333,-118.5
gagetown,,04,45.766667,-66.15
gagnon,,10,51.8,-68.166667
gainsborough,,11,49.166667,-101.45
galahad,,01,52.516667,-111.916667
galbraith,,02,59.533333,-132.083333
galena,,02,50.9,-116.366667
galiote,,10,49.266667,-63.216667
gallows,,05,47.383333,-54.783333
galt,,08,43.35,-80.3
gambo,1614,05,48.783333,-54.216667
gananoque,5458,08,44.333333,-76.166667
gander bay,,05,49.266667,-54.5
gander,8772,05,48.95,-54.55
ganges,,02,48.85,-123.516667
gang ranch,,02,51.55,-122.316667
garden river,,08,46.55,-84.15
gardenton,,03,49.083333,-96.7
gardiner,,08,49.316667,-81.033333
garibaldi,,02,49.966667,-123.15
garnish,,05,47.233333,-55.366667
garrick,,11,53.483333,-104.333333
garson,,08,46.566667,-80.866667
garson mine,,08,46.566667,-80.866667
garthby,,10,45.833333,-71.383333
garthby station,,10,45.833333,-71.383333
garth,,01,54.533333,-110.983333
gascoigne,,05,46.866667,-53.616667
gascolgne,,05,46.866667,-53.616667
gascons,,10,48.2,-64.866667
gaskiers,,05,46.866667,-53.616667
gaspe,3331,10,48.833333,-64.483333
gatineau,,10,45.483333,-75.65
gatineau point,,10,45.466667,-75.7
gaultois,,05,47.6,-55.916667
geikie,,01,52.866667,-118.266667
gem,,01,50.95,-112.183333
george river,,10,58.533333,-65.883333
georges brook,,05,48.233333,-53.966667
georges cove,,05,52.683333,-55.866667
georges river,,10,58.533333,-65.883333
georgetown,32372,08,43.65,-79.933333
georgetown,,09,46.183333,-62.533333
geraldton,2349,08,49.716667,-86.966667
germansen landing,,02,55.783333,-124.7
gerrard,,02,50.516667,-117.283333
gethsemani,,10,50.216667,-60.716667
ghost river,,08,50.166667,-91.45
gibsons,6821,02,49.4,-123.5
gibson's landing,,02,49.4,-123.5
giffard,,10,46.85,-71.2
gilbert plains,,03,51.133333,-100.483333
gillam,,03,56.35,-94.7
gillies limit,,08,47.283333,-79.716667
gilmour,,08,44.816667,-77.616667
gimli,2009,03,50.633333,-97
girardville centre,,10,49,-72.55
girouxville,,01,55.75,-117.333333
girvin,,11,51.166667,-105.933333
gitwinksihlkw,,02,55.2,-129.216667
gjoa haven,,14,68.633333,-95.916667
glace bay,21504,07,46.2,-59.966667
glacier creek,,12,64.016667,-140.833333
glacier,,02,51.266667,-117.516667
gladmar,,11,49.083333,-104.466667
gladstone,,03,50.233333,-98.95
glaslyn,,11,53.35,-108.35
glasnevin,,11,49.55,-105.05
glassville,,04,46.483333,-67.416667
gleichen,,01,50.866667,-113.05
glenannan,,08,43.933333,-81.25
glenboro,,03,49.55,-99.283333
glen buell,,08,44.633333,-75.85
glenburnie,,05,49.45,-57.9
glenbush,,11,53.25,-108
glencoe,2273,08,42.75,-81.7
glendale cove,,02,50.683333,-125.7
glendon,,01,54.251111,-111.151389
glenelg,,07,45.266667,-62.066667
glen kerr,,11,50.6,-107.016667
glenora,,02,57.833333,-131.4
glen robertson,,08,45.35,-74.5
glentworth,,11,49.416667,-106.683333
glenwood,,01,49.366667,-113.516667
glenwood,,05,49,-54.883333
glenwoodville,,01,49.366667,-113.516667
glidden,,11,51.233333,-109.166667
gloucester,,08,45.4166667,-75.6
glovertown,,05,48.666667,-54.05
goat,,01,49.933333,-111.7
goat river,,02,53.533333,-120.583333
godbout,,10,49.316667,-67.6
goderich,8032,08,43.733333,-81.7
gods lake,,03,54.666667,-94.133333
gogama,,08,47.666667,-81.716667
gold bar,,02,56.083333,-122.75
goldboro,,07,45.183333,-61.65
gold bridge,,02,50.85,-122.85
golden,4038,02,51.3,-116.966667
golden lake,,08,45.583333,-77.25
golden prairie,,11,50.216667,-109.616667
golden ridge,,11,54.326389,-109.100278
goldenville,,07,45.116667,-62.016667
goldfields,,11,59.45,-108.483333
goldpines,,08,50.633333,-93.166667
goldstream,,02,48.45,-123.533333
goldstream station,,02,48.45,-123.533333
gooderham,,08,44.9,-78.383333
goodfish lake,,01,54.296944,-111.803889
good hope,,13,66.266667,-128.633333
goodlands,,03,49.1,-100.6
goodridge,,01,54.385556,-111.352222
goodsoil,,11,54.399722,-109.226111
goodwater,,11,49.4,-103.7
goose bay,,05,53.333333,-60.416667
goose cove,,05,51.3,-55.616667
goose,,05,53.333333,-60.416667
gordon landing,,12,63.633333,-135.45
gore bay,,08,45.916667,-82.466667
gorlitz,,11,51.45,-102.433333
goshen,,07,45.383333,-61.983333
goudreau,,08,48.25,-84.533333
gough lake,,01,52.05,-112.466667
govan,,11,51.316667,-105
govenlock,,11,49.216667,-109.8
gowganda,,08,47.65,-80.783333
gracefield,,10,46.083333,-76.05
graham,,08,49.25,-90.566667
grainger,,01,51.5,-113.333333
grainland,,11,50.983333,-106.55
granby,53979,10,45.383333,-72.733333
grand-baie,,10,48.3,-70.85
grand bank,4623,05,47.1,-55.783333
grand bay,,04,45.3,-66.2
grand beach,,03,50.55,-96.633333
grand beach,,05,47.133333,-55.533333
grand bend,2059,08,43.316667,-81.75
grand bruit,,05,47.666667,-58.233333
grand centre,12386,01,54.416667,-110.215278
grand coulee,,11,50.433333,-104.816667
grande anse,,04,47.816667,-65.183333
grande-entree,,10,47.55,-61.566667
grande etang,,07,46.55,-61.033333
grande-ligne,,10,45.216667,-73.3
grande prairie,41463,01,55.166667,-118.8
grande-riviere,1508,10,48.383333,-64.5
grandes-bergeronnes,,10,48.25,-69.55
grandes-piles,,10,46.683333,-72.716667
grand-etang,,07,46.55,-61.033333
grand etang,,10,49.133333,-64.75
grande-vallee,,10,49.216667,-65.133333
grand falls,5675,04,47.05,-67.733333
grand falls,,05,48.933333,-55.65
grand forks,4208,02,49.05,-118.466667
grand'mere,,10,46.633333,-72.683333
grand narrows,,07,45.95,-60.783333
grandora,,11,52.1,-107
grand rapids,,03,53.166667,-99.283333
grand river,,07,45.633333,-60.666667
grand-sault,,04,47.05,-67.733333
grand valley,1856,08,43.9,-80.316667
grand view,,03,51.166667,-100.7
granite bay,,02,50.233333,-125.283333
granthams landing,,02,49.416667,-123.5
granville ferry,,07,44.75,-65.516667
granville,,07,45.65,-61.233333
granville,,12,63.666667,-138.616667
grassland,,01,54.820556,-112.685833
grassy lake,,01,49.833333,-111.7
grassy plains,,02,53.95,-125.883333
grates cove,,05,48.166667,-52.933333
gravelbourg,1109,11,49.883333,-106.55
gravenhurst,5839,08,44.916667,-79.366667
gray creek,,02,49.616667,-116.8
great barasway,,05,47.133333,-54.066667
great brehat bay,,05,51.433333,-55.516667
great brehat,,05,51.433333,-55.516667
great brule,,05,47.65,-54.15
great central,,02,49.316667,-124.983333
great falls,,03,50.45,-96.016667
great shemogue,,04,46.15,-64.183333
great village,,07,45.416667,-63.6
great whale river,,10,55.266667,-77.783333
green court,,01,54.016667,-115.233333
green cove,,07,43.966667,-66.133333
greenfield park,,10,45.5,-73.483333
green lake,,11,54.266667,-107.783333
green point,,04,47.85,-65.766667
greens harbour,,05,47.633333,-53.5
greenslide,,02,50.883333,-118.1
greenspond,,05,49.05,-53.583333
greenway,,03,49.366667,-99.116667
greenwood,,02,49.133333,-118.683333
greenwood,,07,44.983333,-64.9
grenfell,997,11,50.416667,-102.916667
grenville,,10,45.633333,-74.6
gretna,,03,49,-97.55
grey islands harbour,,05,50.716667,-55.6
griffin cove,,10,48.933333,-64.3
griffin,,10,48.933333,-64.3
griffin,,11,49.666667,-103.433333
griffins,,10,48.933333,-64.3
griffon,,10,48.933333,-64.3
grifon,,10,48.933333,-64.3
griguet,,05,51.516667,-55.483333
grimsby,,08,43.2,-79.55
grimshaw,2560,01,56.183333,-117.6
grindrod,,02,50.633333,-119.116667
grindstone island,,10,47.383333,-61.866667
grise fiord,,14,76.416667,-82.95
griswold,,03,49.766667,-100.466667
gronlid,,11,53.083333,-104.466667
gros-morne,,10,49.25,-65.566667
grosse isle,,03,50.066667,-97.45
grosses-roches,,10,48.933333,-67.166667
groundbirch,,02,55.783333,-120.916667
groundhog river,,08,48.133333,-82.266667
guelph,115763,08,43.55,-80.25
guigues,,10,47.45,-79.433333
gull lake,949,11,50.1,-108.483333
gunworth,,11,51.333333,-108.15
gurneyville,,01,54.141111,-110.754167
guynemer,,03,51.366667,-99.116667
guysboro,,07,45.4,-61.5
guysborough,,07,45.4,-61.5
gypsumville,,03,51.766667,-98.616667
hackett,,01,52.216667,-112.416667
hafford,,11,52.716667,-107.35
hagensborg,,02,52.383333,-126.566667
hagersville,2624,08,42.95,-80.05
hague,,11,52.5,-106.416667
haida,,02,53.333333,-131.95
haileybury,10991,08,47.433333,-79.633333
haines junction,1148,12,60.75,-137.5
halcyon,,02,50.516667,-117.9
halcyon hot springs,,02,50.516667,-117.9
hale,,02,59.6,-134.3
haley,,08,45.566667,-76.766667
haleys,,08,45.566667,-76.766667
haley station,,08,45.566667,-76.766667
halfmoon bay,,02,49.516667,-123.916667
haliburton,,08,45.033333,-78.516667
halifax,266012,07,44.65,-63.6
halkirk,,01,52.283333,-112.15
hall beach,,14,68.766667,-81.2
hallboro,,03,50.15,-99.45
hall bridge,,08,44.55,-78.333333
hallebourg,,08,49.666667,-83.516667
halleybury,,08,47.433333,-79.633333
hall harbour,,07,45.2,-64.616667
hallowell,,08,44,-77.233333
hall's bridge,,08,44.55,-78.333333
halls harbour,,07,45.2,-64.616667
halvorgate,,11,50.616667,-106.7
ham,,10,45.833333,-71.666667
hamilton,653637,08,43.25,-79.833333
hamiota,,03,50.183333,-100.6
hamlin,,11,52.866667,-108.3
ham nord,,10,45.9,-71.65
hampden,,05,49.533333,-56.866667
hampton,2637,04,45.533333,-65.833333
hampton,,09,46.216667,-63.466667
hamstead,,04,45.616667,-66.083333
hanceville,,02,51.916667,-123.033333
handel,,11,52.066667,-108.7
handsworth,,11,49.85,-102.95
hanley,,11,51.616667,-106.433333
hanna,3140,01,51.633333,-111.916667
hanover,7255,08,44.15,-81.033333
hants harbour,,05,48.016667,-53.266667
hantsport,1253,07,45.066667,-64.183333
happy hollow,,01,54.501111,-110.558333
happy valley,,05,53.3,-60.3
harbor grace,,05,47.683333,-53.25
harbour breton,1898,05,47.483333,-55.833333
harbour buffet,,05,47.533333,-54.1
harbour buffett,,05,47.533333,-54.1
harbour deep,,05,50.366667,-56.533333
harbour grace,,05,47.683333,-53.25
harbour main,,05,47.433333,-53.166667
harcourt,,04,46.466667,-65.25
harcus,,03,50.7,-98.866667
harding,,03,49.983333,-100.533333
hardisty,,01,52.683333,-111.3
hare bay,968,05,48.85,-54.016667
hare harbour,,05,53.733333,-56.8
hare island,,05,53.733333,-56.8
hargrave,,03,49.916667,-101.083333
harmac,,02,49.133333,-123.85
harmon valley,,01,56.1,-116.833333
harmony,,09,46.533333,-64.05
harmony junction,,09,46.416667,-62.266667
harptree,,11,49.3,-105.416667
harricanaw ouest,,10,48.466667,-78.133333
harrington harbour,,10,50.516667,-59.483333
harriston,2148,08,43.916667,-80.883333
harrowby,,03,50.75,-101.433333
harrow,3100,08,42.033333,-82.916667
harrys brook,,05,48.65,-58.25
hartell,,01,50.716667,-113.966667
hart,,11,49.183333,-105.6
hartland,,04,46.3,-67.516667
hartley bay,,02,53.433333,-129.266667
hartney,,03,49.483333,-100.516667
harty,,08,49.466667,-82.683333
harty station,,08,49.466667,-82.683333
harvey,,04,45.716667,-67
harvey station,,04,45.716667,-67
harwood,,08,44.133333,-78.183333
hastings,1276,08,44.3,-77.95
hatfield,,11,51.416667,-105.016667
hatton,,11,50.033333,-109.833333
hauterive,12816,10,49.183333,-68.266667
hauy township,,10,49.7,-74.583333
havelock,,04,46,-65.316667
havelock,1403,08,44.433333,-77.883333
havelock,,10,45.683333,-76.616667
havre-aubert,,10,47.233333,-61.85
havre bouche,,07,45.65,-61.516667
havre boucher,,07,45.65,-61.516667
havre-saint-pierre,2966,10,50.25,-63.583333
hawarden,,11,51.416667,-106.6
hawke harbour,,05,53.016667,-55.833333
hawkesbury,12283,08,45.616667,-74.6
hawkestone,,08,44.5,-79.466667
hawkeye,,11,53.3,-106.966667
hawk junction,,08,48.083333,-84.55
hawk lake,,08,49.8,-93.983333
hay lake,,01,58.816667,-118.75
hay lakes,,01,53.2,-113.05
hay river,3030,13,60.85,-115.7
haysport,,02,54.183333,-130.016667
hayter,,01,52.35,-110.116667
hazeldean,,08,45.3,-75.883333
hazelton,,02,55.25,-127.666667
head lake,,08,44.716667,-78.933333
headquarters,,02,49.766667,-125.1
hearst,4746,08,49.7,-83.666667
heart's content,,05,47.866667,-53.366667
hearts delight,,05,47.783333,-53.483333
heart's desire,,05,47.816667,-53.45
heaslip,,08,47.8,-79.816667
hebertville,1691,10,48.4,-71.683333
hebron,,05,58.2,-62.633333
hebron,,07,43.883333,-66.083333
hecate,,02,49.85,-126.75
hectanooga,,07,44.083333,-66.033333
hedley,,02,49.35,-120.083333
heinsburg,,01,53.766667,-110.516667
heisler,,01,52.666667,-112.2
helina,,01,54.487222,-111.491667
helston,,03,50.133333,-99.1
hemaruka,,01,51.783333,-111.083333
hemmingford,,10,45.05,-73.6
hendon,,11,52.083333,-103.833333
henley harbour,,05,52.016667,-55.833333
henribourg,,11,53.4,-105.616667
hensall,1261,08,43.433333,-81.5
herbert,,11,50.433333,-107.216667
herb lake,,03,54.783333,-99.783333
hercules,,01,53.433333,-113.333333
hermitage,,05,47.55,-55.933333
heron bay,,08,48.65,-86.283333
herring neck,,05,49.616667,-54.583333
herschel,,11,51.633333,-108.35
herschel,,12,69.566667,-138.9
herschel island,,12,69.566667,-138.9
hervey,,10,46.85,-72.45
hervey junction,,10,46.85,-72.45
hesketh,,01,51.466667,-112.966667
hespeler,,08,43.433333,-80.316667
hickmans harbour,,05,48.1,-53.75
highgate,,11,52.866667,-108.45
highland grove,,08,45.066667,-78.083333
highland park,,01,56.116667,-118.85
high level,3621,01,58.516667,-117.133333
high prairie,2878,01,55.433333,-116.483333
highridge,,01,54.033333,-114.133333
high river,9826,01,50.583333,-113.866667
highrock,,03,55.816667,-100.383333
hilda,,01,50.483333,-110.016667
hillier,,02,49.3,-124.483333
hilliers,,02,49.3,-124.483333
hillmond,,11,53.433333,-109.7
hillsborough,,04,45.916667,-64.65
hilton beach,,08,46.25,-83.883333
hinchliffe,,11,52.066667,-102.65
hindon hill,,08,45.05,-78.8
hindon,,08,45.066667,-78.9
hines creek,,01,56.233333,-118.6
hinton,9889,01,53.4,-117.583333
hixon,,02,53.4,-122.566667
hoadley,,01,52.85,-114.366667
hobbema,,01,52.833333,-113.45
hodgeville,,11,50.116667,-106.983333
hodgson,,03,51.2,-97.566667
hoey,,11,52.866667,-105.783333
holberg,,02,50.65,-128.016667
holden,,01,53.233333,-112.233333
holland,,08,48.866667,-80.85
hollow lake,,01,54.238611,-112.776667
hollyburn,,02,49.333333,-123.166667
holman,,13,70.733333,-117.75
holman island,,13,70.733333,-117.75
holmfield,,03,49.133333,-99.466667
holton harbour,,05,54.566667,-57.266667
holyoke,,01,54.124722,-110.591389
holyrood,,05,47.383333,-53.133333
homeville,,07,46.083333,-59.933333
hondo,,01,55.066667,-114.033333
honfleur,,10,48.733333,-71.85
hooping harbour,,05,50.6,-56.2
hoosier,,11,51.616667,-109.733333
hootalingua,,12,61.583333,-134.916667
hootalinqua,,12,61.583333,-134.916667
hopedale,,05,55.45,-60.216667
hope,4598,02,49.383333,-121.433333
hopewell,,07,45.466667,-62.7
hopkins landing,,02,49.433333,-123.483333
horburg,,01,52.416667,-115.283333
hornepayne,1386,08,49.216667,-84.783333
horsefly,,02,52.333333,-121.416667
horse islands,,05,50.2,-55.733333
horse shoe,,02,48.916667,-123.7
horsham,,11,50.416667,-109.883333
hoselaw,,01,54.182222,-110.903056
hosmer,,02,49.583333,-114.966667
hotchkiss,,01,57.066667,-117.55
houston,2884,02,54.4,-126.65
howick,,10,45.183333,-73.85
howley,,05,49.166667,-57.116667
howser,,02,50.316667,-116.95
hubbards cove,,07,44.633333,-64.05
hubbards,,07,44.633333,-64.05
hudson bay,1661,11,52.85,-102.383333
hudson bay junction,,11,52.85,-102.383333
hudson heights,,10,45.45,-74.166667
hudson hope,,02,56.033333,-121.916667
hudson,,08,50.083333,-92.166667
hudson,,10,45.45,-74.15
hull,,10,45.433333,-75.733333
humbermouth,,05,48.966667,-57.916667
humboldt,4822,11,52.2,-105.116667
hunter river,,09,46.35,-63.35
huntingdon,2865,10,45.083333,-74.183333
hunts inlet,,02,54.066667,-130.45
huntsville,7972,08,45.333333,-79.216667
hurkett,,08,48.85,-88.483333
huronian,,08,48.716667,-90.733333
husavick,,03,50.566667,-97
hussar,,01,51.033333,-112.683333
hutshi,,12,61.15,-136.533333
hutton,,02,53.983333,-121.616667
hydraulic,,02,52.616667,-121.7
hydro glen,,08,44.85,-79.5
hyland post,,02,57.65,-128.2
hylands post,,02,57.65,-128.2
hylo,,01,54.679167,-112.215278
hythe,,01,55.316667,-119.566667
iberville,,10,45.316667,-73.233333
iddesleigh,,01,50.733333,-111.3
igloolik,,14,69.4,-81.8
igluligaarjuk,,14,63.333333,-90.7
iglunga,,14,66.266667,-67.15
iglungayut,,14,66.266667,-67.15
ignace,,08,49.416667,-91.666667
ikaluktutiak,,14,69.116667,-105.033333
ile-a-la-crosse,,11,55.433333,-107.9
ile-aux-noix,,10,45.133333,-73.283333
ile-perrot,,10,45.4,-73.933333
ile verte,,10,48.016667,-69.333333
ilford,,03,56.066667,-95.633333
imperial mills,,01,54.995,-111.735833
independent harbour,,05,53.866667,-56.9
indian bay,,05,49.033333,-53.866667
indian brook,,07,46.366667,-60.516667
indian harbour,,05,47.483333,-54.2
indian head,1642,11,50.533333,-103.666667
indian pond,,05,47.466667,-53.083333
inganish,,07,46.683333,-60.366667
ingersoll,11874,08,43.033333,-80.883333
ingleside,,08,45,-75
inglewood,,08,43.783333,-79.933333
inglewood junction,,08,43.783333,-79.933333
inglis,,03,50.95,-101.233333
ingolf,,08,49.8,-95.116667
ingonish,,07,46.683333,-60.366667
ingramport,,07,44.666667,-63.95
inkerman,,04,47.666667,-64.833333
inklin,,02,58.9,-133.133333
innisfail,,01,52.033333,-113.95
inoucdjouac,,10,58.45,-78.15
inuvik,3022,13,68.35,-133.7
invermere,2871,02,50.5,-116.033333
inverness,1639,07,46.233333,-61.283333
inverness,,10,46.25,-71.516667
inwood,,03,50.5,-97.5
ioco,,02,49.3,-122.866667
iona,,07,45.966667,-60.816667
ipiarjuk,,14,73.033333,-85.166667
iqaluit,6124,14,63.733333,-68.5
irma,,01,52.916667,-111.233333
iron river,,01,54.443611,-110.911944
iroquois falls,4232,08,48.766667,-80.666667
iroquois,1297,08,44.85,-75.316667
irricana,1091,01,51.316667,-113.616667
irvine,,01,49.95,-110.266667
irvines landing,,02,49.616667,-124.033333
isaacs harbour,,07,45.183333,-61.666667
isachsen,,14,78.783333,-103.533333
island falls,,08,49.566667,-81.366667
island falls,,11,55.533333,-102.333333
island falls junction,,08,49.55,-81.35
island falls station,,08,49.55,-81.35
island harbour,,05,49.6,-54.3
island lake,,03,53.966667,-94.766667
isle aux morts,,05,47.6,-59.016667
isle-maligne,,10,48.566667,-71.633333
isle maligny,,10,48.566667,-71.633333
isle-morte,,05,47.6,-59.016667
isle-perrot,,10,45.4,-73.933333
isle pierre,,02,53.95,-123.266667
isle-verte,,10,48.016667,-69.333333
isnardy,,02,52.05,-122.266667
issoudun,,10,46.583333,-71.616667
italy cross,,07,44.25,-64.55
ituna,,11,51.166667,-103.5
ivanhoe,,05,48.183333,-53.533333
ivugivik,,10,62.416667,-77.9
jackfish,,08,48.8,-86.966667
jackson arm,,05,49.866667,-56.816667
jackson bay,,02,50.516667,-125.75
jackson manion,,08,51.1,-92.75
jacksons landing,,02,57.616667,-131.683333
jacques-cartier,,10,45.533333,-73.483333
jacquet river,,04,47.916667,-66
jamestown,,05,48.433333,-53.8
janeville,,04,47.683333,-65.433333
jans bay,,11,55.148611,-108.126944
jansen,,11,51.783333,-104.716667
jap inlet,,02,54.066667,-130.45
jarvie,,01,54.45,-113.983333
jasper,3907,01,52.883333,-118.083333
jean marie river,,13,61.516667,-120.633333
jedway,,02,52.3,-131.216667
jellicoe,,08,49.683333,-87.516667
jenner,,01,50.75,-111.183333
jersey harbour,,05,47.5,-55.783333
jeune landing,,02,50.433333,-127.483333
joe batt's arm,,05,49.733333,-54.166667
joffre,,01,52.333333,-113.533333
joggin mines,,07,45.7,-64.433333
joggins,,07,45.7,-64.433333
johnsons crossing,,12,60.483333,-133.283333
joliette,34772,10,46.033333,-73.433333
jonquiere,,10,48.416667,-71.25
jordan river,,11,53.15,-103.466667
josephburg,,01,53.716667,-113.083333
joussard,,01,55.366667,-115.933333
judah,,01,56.133333,-117.316667
judique,,07,45.883333,-61.5
jumping pound,,01,51.066667,-114.55
junction derby,,04,46.95,-65.6
juniper station,,04,46.533333,-67.166667
junor,,11,53.55,-107.866667
kabaigon,,08,48.666667,-90.25
kagawong,,08,45.9,-82.25
kahwin,,01,54.006944,-112.332778
kaipokok,,05,55.066667,-59.6
kaipotok,,05,55.066667,-59.6
kakabeka falls,,08,48.416667,-89.616667
kakawis,,02,49.183333,-125.916667
kakisa,,13,60.933333,-117.416667
kaladar,,08,44.65,-77.116667
kaladar station,,08,44.65,-77.116667
kaministikwia,,08,48.533333,-89.583333
kamloops,68715,02,50.666667,-120.333333
kamsack,1877,11,51.566667,-101.9
kanaaupscow,,10,54.016667,-76.533333
kanata,93541,08,45.333333,-75.9
kangerjuaq,,14,64.316667,-96.016667
kangerthialuksoak,,10,58.533333,-65.883333
kangiqtiniq,,14,62.816667,-92.083333
kanimistiquia,,08,48.533333,-89.583333
kapiscau,,08,52.75,-82
kapiskau,,08,52.75,-82
kapuskasing,9240,08,49.416667,-82.433333
kashabowie,,08,48.65,-90.433333
kaslo,,12,49.916667,-116.916667
kathleen,,01,55.616667,-116.833333
kavanagh,,01,53.183333,-113.516667
kawene,,08,48.75,-91.2
kaydee,,01,53.083333,-117.45
keatley,,11,52.8,-107.466667
kedgwick,1146,04,47.633333,-67.333333
keeler,,11,50.683333,-105.883333
keels,,05,48.6,-53.4
keene,,08,44.25,-78.166667
keewatin,,08,49.766667,-94.55
kegashka,,10,50.183333,-61.283333
kegaska,,10,50.183333,-61.283333
keg river,,01,57.8,-117.866667
keithley creek,,02,52.75,-121.416667
kekertukdjuak,,14,67.533333,-63.75
kekertuk,,14,67.533333,-63.75
kelfield,,11,51.95,-108.616667
kelligrews,,05,47.5,-53.016667
kelliher,,11,51.266667,-103.733333
kelly lake,,02,51.016667,-121.783333
kelowna,125110,02,49.9,-119.483333
kelsey bay,,02,50.4,-125.966667
kelso,,08,48.683333,-80.733333
kelso station,,11,49.966667,-101.966667
kelvington,941,11,52.166667,-103.516667
kemnay,,03,49.833333,-100.133333
kemptville,4229,08,45.016667,-75.633333
kenabeek,,08,47.633333,-80
kenaston,,11,51.5,-106.283333
kennedy,,11,50.016667,-102.35
kennetcook,,07,45.183333,-63.716667
kenney,,08,46.816667,-79.583333
kenny,,08,46.816667,-79.583333
kenogami,,10,48.433333,-71.25
keno hill,,12,63.9,-135.3
keno,,12,63.9,-135.3
kenora,13075,08,49.766667,-94.466667
kenosee park,,11,49.833333,-102.283333
kensington,1424,09,46.433333,-63.65
kent junction,,04,46.583333,-65.333333
kentville,12636,07,45.066667,-64.5
keoma,,01,51.216667,-113.65
keppel,,11,52.016667,-107.7
keremeos,,02,49.2,-119.816667
kerley harbour,,05,48.283333,-53.466667
kerleys harbour,,05,48.283333,-53.466667
kerrobert,1038,11,51.916667,-109.133333
kessock,,11,51.216667,-102
keswick,,04,46.016667,-66.833333
keswick,,08,44.25,-79.466667
keswick station,,04,46.016667,-66.833333
key harbour,,08,45.883333,-80.733333
key junction,,08,45.983333,-80.716667
khartum,,08,45.25,-77.116667
kiamika,,10,46.416667,-75.366667
kikino,,01,54.445278,-112.098056
kildonan,,02,49.016667,-125
kildonan,,03,49.916667,-97.083333
killaloe station,,08,45.55,-77.416667
killam,1056,01,52.783333,-111.85
killarney,2362,03,49.183333,-99.666667
killdeer,,11,49.1,-106.366667
kilwinning,,11,53.083333,-106.066667
kimberley,6513,02,49.683333,-115.983333
kimberly,,02,49.683333,-115.983333
kimmirut,,14,62.85,-69.883333
kincaid,,11,49.666667,-107
kincardine,6771,08,44.166667,-81.633333
kincolith,,02,55,-129.95
kindersley,4249,11,51.466667,-109.133333
kingait,,14,64.233333,-76.55
king city,,08,43.933333,-79.533333
kingcome inlet,,02,50.95,-126.2
king kirkland,,08,48.15,-79.95
kingman,,01,53.216667,-112.566667
kingsclear,,04,45.883333,-66.9
kings cove,,05,48.55,-53.333333
kings point,,05,49.583333,-56.183333
kingsport,,07,45.166667,-64.366667
kingston,,04,46.633333,-64.866667
kingston,114243,08,44.233333,-76.483333
kingsville,,08,42.033333,-82.75
kinistino,,11,52.95,-105.033333
kinley,,11,52.066667,-107.433333
kinmount,,08,44.783333,-78.65
kinnaird,,02,49.283333,-117.65
kinnears mills,,10,46.216667,-71.383333
kinuso,,01,55.333333,-115.416667
kiokh,,02,50.683333,-125.7
kiosk,,08,46.083333,-78.883333
kipawa,,10,46.766667,-78.983333
kipling station,,11,50.1,-102.633333
kirkella,,03,50.016667,-101.366667
kirkland lake,7776,08,48.15,-80.033333
kirriemuir,,01,51.916667,-110.3
kisbey,,11,49.633333,-102.666667
kisgegas,,02,55.7,-127.566667
kispiox,,02,55.35,-127.683333
kitamaat,,02,54,-128.7
kitchener,,02,49.15,-116.333333
kitchener,409111,08,43.45,-80.5
kitchener mcconnel,,02,49.15,-116.333333
kitimat,10278,02,54,-128.7
kitimat mission,,02,53.966667,-128.65
kitscoty,,01,53.333333,-110.333333
kittigagzyt,,13,69.35,-133.716667
kittigaruit,,13,69.35,-133.716667
kittigaryuit,,13,69.35,-133.716667
kittigazuit,,13,69.35,-133.716667
kitwanga,,02,55.1,-128.066667
kivitoo,,14,67.95,-64.916667
kleena kleene,,02,51.966667,-124.983333
klemtoo,,02,52.583333,-128.533333
klemtu,,02,52.583333,-128.533333
klondike,,12,64.033333,-139.433333
klondyke,,12,64.033333,-139.433333
kluahne,,12,61.033333,-138.383333
kluane junction,,12,61.033333,-138.383333
kluane,,12,61.033333,-138.383333
klukshu,,12,60.3,-137
knight inlet,,02,50.683333,-125.7
knob lake,,10,54.8,-66.816667
knowlton,,10,45.216667,-72.516667
koartac,,10,61.033333,-69.616667
kogluktok,,14,67.833333,-115.083333
komoux,,02,49.683333,-124.933333
kootenay junction,,02,49.25,-116.683333
kootenay landing,,02,49.25,-116.683333
kowkash,,08,50.25,-87.216667
krakow,,01,53.75,-112.433333
krydor,,11,52.783333,-107.066667
kugaaruk,,14,68.533333,-89.816667
kugluktuk,,14,67.833333,-115.083333
kuldo,,02,55.933333,-127.883333
kuujjuaq,,10,58.1,-68.4
kynocks,,12,61.25,-135.983333
la baie,,10,48.333333,-70.866667
labelle,1239,10,46.283333,-74.733333
labrieville,,10,49.3,-69.583333
lac-au-saumon,1198,10,48.416667,-67.333333
lac-aux-sables,,10,46.866667,-72.383333
lac baker,,04,47.333333,-68.666667
lac-bouchette,,10,48.266667,-72.166667
lac cardinal,,01,56.266667,-117.816667
lac-castagnier,,10,48.7,-77.733333
lac-castor,,10,46.366667,-74.883333
lac-chat,,10,47.166667,-72.633333
lac del'est,,10,47.333333,-69.683333
lac des commissaires,,10,48.15,-72.216667
lac-des-commissaires station,,10,48.15,-72.216667
lac du bonnet,1134,03,50.266667,-96.05
lac edouard,,10,47.666667,-72.266667
lac etchemin,,10,46.4,-70.5
lac frontiere,,10,46.683333,-70.016667
lachford,,08,47.333333,-79.8
lachine,,10,45.416667,-73.666667
lac humqui,,10,48.3,-67.583333
lachute,9562,10,45.65,-74.333333
lac la biche,,01,54.771944,-111.964722
lac la martre,,13,63.133333,-117.266667
lac-la-plonge,,11,55.15,-107.616667
lac la ronge,,11,55.1,-105.3
lac-lois,,10,48.566667,-78.833333
lac-meach,,10,45.516667,-75.866667
lac-megantic,4658,10,45.583333,-70.883333
lac mercier,,10,46.2,-74.633333
lac-mondor,,10,46.616667,-72.766667
lacolle,1528,10,45.083333,-73.366667
lacombe,10059,01,52.466667,-113.733333
la corey,,01,54.443889,-110.761667
lacorne,,10,48.35,-77.983333
lac sainte-marie,,10,45.95,-75.95
lac-sainte-therese,,08,49.783333,-83.65
lac-saint-jean sainte-monique,,10,48.733333,-71.85
lac-saint-paul,,10,46.733333,-75.3
lac seul,,08,50.316667,-92.283333
lac seul post,,08,50.316667,-92.283333
ladle cove,,05,49.45,-54.05
ladner,,02,49.083333,-123.083333
la durantaye,,10,46.833333,-70.85
ladysmith,8740,02,48.983333,-123.816667
lafleche,,10,45.5,-73.483333
lafleche,,11,49.7,-106.566667
lafontaine,,10,45.8,-74.016667
la guadeloupe,,10,45.966667,-70.95
la have,,07,44.283333,-64.366667
la hune,,05,47.55,-56.883333
laird,,11,52.716667,-106.583333
lake alma,,11,49.133333,-104.183333
lakeburn,,04,46.1,-64.666667
lake cowichan,2870,02,48.816667,-124.033333
lakefield,2888,08,44.433333,-78.266667
lake frontier,,10,46.683333,-70.016667
lake harbor,,14,62.85,-69.883333
lake harbour,,14,62.85,-69.883333
lake lenore,,11,52.4,-104.983333
lake louise,,01,51.433333,-116.183333
lakelse,,02,54.366667,-128.55
lake river,,08,54.366667,-82.533333
lake saint peter,,08,45.3,-78.033333
laketon,,02,58.7,-130.1
lake valley,,11,50.633333,-106.033333
lake windermere,,02,50.466667,-115.966667
la loche,,11,56.483333,-109.433333
la loche west,,11,56.483333,-109.633333
la macaza,,10,46.366667,-74.766667
la malbaie,4447,10,47.65,-70.166667
lamaline,,05,46.866667,-55.816667
lameque,,02,47.783333,-64.633333
lamont,1779,01,53.75,-112.783333
lamorandiere,,10,48.616667,-77.633333
la motte,,10,48.333333,-78.116667
lampman,,11,49.383333,-102.75
lancaster,,04,45.25,-66.1
lancaster,,08,45.133333,-74.5
lancaster park,,01,53.666667,-113.483333
l'ancienne lorette,,10,46.783333,-71.383333
landis,,11,52.2,-108.45
landrienne,,10,48.55,-77.95
langbank,,11,50.05,-102.283333
langenburg,1034,11,50.833333,-101.7
langford station,,02,48.45,-123.5
langham,1070,11,52.366667,-106.966667
langlais,,10,48.683333,-71.666667
lang,,11,49.916667,-104.366667
langley,,02,49.1,-122.65
langruth,,03,50.383333,-98.666667
laniel,,10,47.033333,-79.266667
lanigan,1204,11,51.85,-105.033333
l'annonciation,,10,46.4,-74.866667
lanoraie,,10,45.966667,-73.216667
lansdowne house,,08,52.216667,-87.883333
lansdowne,,12,60.266667,-134.283333
l'anse au loup,,05,51.516667,-56.833333
l'anse au meadow,,05,51.6,-55.533333
l'anse-saint-jean,,10,48.233333,-70.183333
lansing,,12,63.733333,-133.65
la perade,,10,46.583333,-72.183333
la petite-riviere,,10,46.8,-71.316667
la petite-riviere-saint-francois,,10,47.316667,-70.566667
la plonge,,11,55.15,-107.616667
laporte,,11,51.216667,-109.5
laprairie,,10,45.416667,-73.5
la providence,,10,45.616667,-72.95
lardeau,,02,50.15,-116.983333
larder lake,,08,48.1,-79.716667
lardo,,02,50.15,-116.983333
la reine,,10,48.866667,-79.5
lark harbour,,05,49.1,-58.366667
la ronge,3071,11,55.1,-105.3
larry river,,07,45.216667,-61.366667
larrys river,,07,45.216667,-61.366667
larson,,08,49.083333,-90.283333
la salle,,03,49.683333,-97.266667
la salle,,10,45.416667,-73.65
la sarre,7206,10,48.8,-79.2
l'ascension,,10,48.683333,-71.666667
la scie,,05,49.966667,-55.583333
lashburn,,11,53.116667,-109.616667
lasqueti,,02,49.483333,-124.35
l'assomption,,10,45.816667,-73.433333
la station-du-coteau,,10,45.283333,-74.233333
last chance,,12,64.016667,-139.1
last lake,,01,56.233333,-117.966667
la tabatiere,,10,50.833333,-58.95
latchford,,08,47.333333,-79.8
latimer,,08,44.366667,-76.516667
la trappe,,10,45.5,-74.033333
la tuque,9503,10,47.45,-72.783333
lauder,,03,49.383333,-100.666667
laurentides,4922,10,45.85,-73.766667
lauzon,,10,46.833333,-71.166667
laval-des-rapides,,10,45.55,-73.7
laval,,10,45.6,-73.733333
laval-ouest,,10,45.55,-73.866667
lavaltrie,8762,10,45.883333,-73.283333
lavant station,,08,45.033333,-76.7
laverlochere,,10,47.416667,-79.283333
lavoy,,01,53.466667,-111.866667
lawnhill,,02,53.4,-131.916667
lawn hill post office,,02,53.4,-131.916667
lawn,,05,46.933333,-55.55
lawrence station,,04,45.416667,-67.183333
lawrencetown,,07,44.633333,-63.35
lazare,,03,50.45,-101.3
leader,,11,50.883333,-109.55
leading tickles,,05,49.5,-55.4
leaf river,,10,58.766667,-69.116667
leamington,30428,08,42.05,-82.583333
leanchoil,,02,51.216667,-116.616667
leaside,,08,43.7,-79.366667
l'echourie,,10,49.05,-64.483333
leclercville,,10,46.566667,-72
leduc,15562,01,53.266667,-113.533333
leeville,,08,47.65,-80.166667
lefroy,,08,44.266667,-79.55
legal,,01,53.95,-113.633333
le goff,,01,54.37,-110.270833
le havre,,07,44.283333,-64.366667
leinan,,11,50.5,-107.766667
leismer,,01,55.755833,-111.041389
leitrim,,08,45.333333,-75.6
lemberg,,11,50.733333,-103.2
lemieux,,02,59.916667,-133.116667
le moyne,,10,45.5,-73.5
lempriere,,02,52.45,-119.133333
lemsford,,11,50.85,-109.116667
leney,,11,52.033333,-107.55
lennoxville,,10,45.366667,-71.866667
lenore,,03,49.95,-100.75
leo,,01,52.05,-112.35
leon,,02,50.433333,-117.9
leoville,,11,53.633333,-107.55
le pas,,03,53.816667,-101.233333
l'epiphanie,,10,45.85,-73.483333
lery,,10,45.333333,-73.816667
les ecureuils,,10,46.683333,-71.716667
les escoumains,,10,48.35,-69.416667
les escoumins,2042,10,48.35,-69.416667
les etroits,,10,47.383333,-68.9
leslieville,,01,52.383333,-114.6
les mechins,,10,48.983333,-66.983333
lessard,,01,54.428889,-110.635278
les saules,,10,46.8,-71.316667
lesueur,,10,49.5,-76.083333
l'etete,,04,45.05,-66.9
lethbridge,70619,01,49.7,-112.833333
lethbridge,,05,48.366667,-53.866667
letite,,04,45.05,-66.9
lettonia,,03,50.35,-95.966667
letty harbour,,13,69.85,-124.433333
levack,,08,46.633333,-81.383333
levis,,10,46.8,-71.166667
levy,,10,49.833333,-74.833333
lewis,,03,49.883333,-96.066667
lewisporte,2935,05,49.233333,-55.066667
leyland,,01,53.033333,-117.316667
liard,,13,60.233333,-123.483333
lillestrom,,11,50.266667,-105.883333
lillooet,2585,02,50.683333,-121.933333
lily lake,,02,53.883333,-124.566667
limerick,,11,49.65,-106.266667
lime ridge,,10,45.616667,-71.616667
limoges,,08,45.333333,-75.25
lindbergh,,01,53.883333,-110.666667
lindsay,,04,46.25,-67.683333
lindsay,17987,08,44.35,-78.733333
liniere,2167,10,46.05,-70.516667
lintlaw,,11,52.066667,-103.25
linton junction,,10,47.25,-72.25
linton,,10,47.25,-72.25
lionhead,,08,44.983333,-81.25
lions head,,08,44.983333,-81.25
lipton,,11,50.9,-103.85
liscombe,,07,45.033333,-62
liscomb,,07,45.033333,-62
l'isletville,,10,47.116667,-70.333333
l'isle-verte,,10,48.016667,-69.333333
lismore,,07,45.7,-62.266667
listowel,6237,08,43.733333,-80.966667
little barasway,,05,47.183333,-54.05
little bay island,,05,49.633333,-55.8
little bay,,05,47.15,-55.133333
little bras d'or,,07,46.233333,-60.283333
little bullhead,,03,51.666667,-96.833333
little burnt bay,,05,49.333333,-55.083333
little current,1652,08,45.966667,-81.933333
little fort,,02,51.433333,-120.2
little grand rapids,,03,52.05,-95.483333
little harbour deep,,05,50.25,-56.5
little harbour,,05,47.65,-53.966667
little longlac,,08,49.7,-86.95
little narrows,,07,45.983333,-60.983333
little prairie,,02,55.7,-121.616667
little red river,,01,58.4,-114.75
little river,,12,61.016667,-135.783333
little salmon,,12,62.05,-135.683333
little seldom,,05,49.566667,-54.25
livelong,,11,53.45,-108.7
lively,7081,08,46.433333,-81.15
liverpool,2781,07,44.033333,-64.716667
livingstone cove,,07,45.866667,-61.966667
livingstone creek,,12,61.333333,-134.35
lizotte,,10,48.1,-72.183333
lloydminster,22677,11,53.283333,-110
lobo township,,08,43.033333,-81.466667
lobster cove,,05,49.616667,-57.95
lochalsh,,08,48.35,-84.266667
lockepor,,07,43.7,-65.116667
lockeport,,02,52.716667,-131.833333
lockeport,,07,43.7,-65.116667
lockwood,,11,51.633333,-105.016667
lodge,,05,52.233333,-55.833333
logan,,08,43.516667,-81.166667
log cabin,,02,59.85,-134.983333
loggieville,,04,47.066667,-65.383333
logy bay,,05,47.633333,-52.683333
lomond,,01,50.35,-112.633333
lomond,,05,49.45,-57.766667
londonderry,,07,45.466667,-63.6
london,346774,08,42.983333,-81.25
lone star,,01,56.7,-117.65
longbank,,11,50.05,-102.283333
long branch,,08,43.583333,-79.533333
long harbour,,05,47.433333,-53.8
longlac,1846,08,49.783333,-86.55
long point,,07,45.8,-61.483333
long point,,10,45.583333,-73.516667
long sault,,08,45.033333,-74.9
longue-pointe-de-mingan,,10,50.266667,-64.15
longue-pointe,,10,45.583333,-73.516667
longueuil annexe,,10,45.533333,-73.483333
longueuil annex,,10,45.533333,-73.483333
longueuil,,10,45.533333,-73.516667
longworth,,02,53.933333,-121.466667
looma,,01,53.35,-113.25
loomis,,11,49.2,-108.733333
loon bay,,05,49.266667,-54.833333
loon lake,,11,54.025278,-109.160556
loon,,08,48.633333,-88.766667
loon river,,11,54.122222,-109.026389
loos,,02,53.6,-120.716667
loretteville,,10,46.85,-71.366667
l'original,,08,45.616667,-74.683333
l'orignal,,08,45.616667,-74.683333
lorneville,,08,44.416667,-79
lotbiniere,,10,46.616667,-71.933333
lougheed,,01,52.733333,-111.55
louisbourg,1031,07,45.916667,-59.983333
louisbourg road,,07,45.933333,-60
louisburg,,07,45.916667,-59.983333
louisburg road,,07,45.933333,-60
louiseville,5819,10,46.25,-72.933333
lourdes-des-blanc-sablon,,10,51.416667,-57.2
lourdes,,05,48.65,-58.983333
lousana,,01,52.116667,-113.2
loverna,,11,51.666667,-109.983333
lovett,,01,53.033333,-116.683333
lovettville,,01,53.033333,-116.683333
low bush,,08,48.916667,-80.133333
lower island cove,,05,48,-53
lower la barge,,12,61.4,-135.216667
lower laberge,,12,61.4,-135.216667
lower nicola,,02,50.15,-120.883333
lower post,,02,59.916667,-128.5
lower southampton,,04,45.966667,-67.233333
lower wood harbour,,07,43.516667,-65.733333
lower woods harbour,,07,43.516667,-65.733333
low,,10,45.8,-75.95
lowther,,08,49.55,-83.016667
lucan,2123,08,43.183333,-81.4
lucerne,,02,52.866667,-118.55
luceville,1373,10,48.516667,-68.333333
lucknow,1275,08,43.95,-81.516667
lucky lake,,11,50.983333,-107.133333
ludgate,,08,45.883333,-80.533333
lumby,1625,02,50.25,-118.966667
lumsden,,05,49.283333,-53.616667
lumsden,1477,11,50.65,-104.866667
lund,,02,49.983333,-124.766667
lunenburg,2473,07,44.366667,-64.316667
luscar,,01,53.066667,-117.4
luseland,,11,52.083333,-109.433333
luskville,,10,45.516667,-76
lutselk'e,,13,62.4,-110.733333
lyleton,,03,49.05,-101.166667
lymburn,,01,55.35,-119.783333
lynn creek,,02,49.35,-123.033333
lynn lake,,03,56.85,-101.05
lyster,,10,46.366667,-71.616667
lyster station,,10,46.366667,-71.616667
lytton,,02,50.233333,-121.566667
mabel lake,,02,50.383333,-118.783333
mabella,,08,48.6,-89.983333
mabou harbour,,07,46.083333,-61.416667
mabou,,07,46.066667,-61.366667
macadam,,04,45.583333,-67.333333
macalister,,02,52.45,-122.416667
macamic,1559,10,48.766667,-79
macamic-nord,,10,48.833333,-78.866667
macamik,,10,48.766667,-79
maccan,,07,45.716667,-64.25
macdiarmid,,08,49.433333,-88.116667
macdonald,,03,50.066667,-98.45
macdowall,,11,53.016667,-106
macgregor,,03,49.966667,-98.766667
mackay,,01,53.65,-115.583333
mackenzie,,08,48.55,-88.966667
macklin,1257,11,52.333333,-109.95
maclennan township,,08,46.666667,-80.75
macleod,,01,49.733333,-113.4
macoun,,11,49.316667,-103.25
macrae,,12,60.633333,-134.983333
mactier,,08,45.133333,-79.766667
madawaska,,08,45.5,-78
madison,,11,51.216667,-109.016667
madoc,1827,08,44.516667,-77.483333
madsen,,08,50.966667,-93.916667
mafeking,,03,52.683333,-101.1
magaguadavic,,04,45.683333,-67.183333
magnetawan,,08,45.666667,-79.633333
magnet,,03,51.316667,-99.5
magog,15550,10,45.266667,-72.15
magpie,,10,50.316667,-64.5
magrath,2095,01,49.416667,-112.883333
mahone bay,,07,44.433333,-64.366667
maidstone,,11,53.083333,-109.3
main-a-dieu,,07,46,-59.85
main centre,,11,50.583333,-107.35
mair,,11,49.733333,-101.783333
maitland,,07,43.966667,-66.133333
majorville,,01,50.633333,-112.7
makamik,,10,48.766667,-79
makkovik,,05,55.083333,-59.183333
makwa,,11,54.006389,-108.906667
malachi,,08,49.933333,-94.983333
malahat,,02,48.533333,-123.55
malakwa,,02,50.933333,-118.783333
malartic,3710,10,48.133333,-78.116667
mallaig,,01,54.211944,-111.366111
malonton,,03,50.566667,-97.216667
malton,,08,43.7,-79.633333
mamette lake,,02,50.416667,-120.816667
mammamattawa,,08,50.416667,-84.366667
mammawemattawa,,08,50.416667,-84.366667
manigotagan,,03,51.1,-96.3
manitouaning,,08,45.733333,-81.8
manitou,,03,49.233333,-98.533333
manitouwadge,3115,08,49.133333,-85.8
manitowaning,,08,45.733333,-81.8
maniwac,,10,46.366667,-75.966667
maniwaki,4236,10,46.366667,-75.966667
mankota,,11,49.416667,-107.066667
mannville,,01,53.333333,-111.166667
manola,,01,54.083333,-114.233333
manor,,11,49.6,-102.083333
manouane,,10,47.216667,-74.366667
manowan,,10,47.216667,-74.366667
manseau,,10,46.366667,-72.016667
manson creek,,02,55.666667,-124.5
mansons landing,,02,50.066667,-124.983333
manton alta,,01,50.35,-113.766667
manuan,,10,47.216667,-74.366667
manvers,,08,44.133333,-78.666667
manyberries,,01,49.4,-110.7
mapes,,02,53.866667,-123.9
maple creek,2121,11,49.916667,-109.466667
maple grove,,10,45.316667,-73.85
maple,,08,43.8666667,-79.5
maple ridge,,02,49.25,-122.5
marathon,4627,08,48.75,-86.366667
marcelin,,11,52.933333,-106.783333
marchand,,03,49.433333,-96.383333
marches point,,05,48.5,-59.116667
march point,,05,48.5,-59.116667
margaree harbour,,07,46.433333,-61.1
margaree,,07,46.383333,-61.066667
margaret bay,,02,51.316667,-127.5
margaretsville,,07,45.033333,-65.066667
maricourt,,10,61.6,-71.95
marieville,5600,10,45.433333,-73.166667
marilla,,02,53.683333,-125.833333
marina,,01,56.5,-119.2
markdale,1514,08,44.316667,-80.65
markham,,08,43.866667,-79.266667
markstay,,08,46.483333,-80.533333
marlboro,,01,53.55,-116.766667
marmora,1678,08,44.483333,-77.683333
marshall cove,,07,44.95,-65.266667
marshallville,,05,49.333333,-55.083333
marshy hope,,07,45.583333,-62.183333
martel,,10,48.533333,-71.083333
marten house,,13,66.5,-133.066667
martin house,,13,66.5,-133.066667
martin river,,10,49.2,-66.166667
marwayne,,01,53.516667,-110.333333
maryfield,,11,49.833333,-101.533333
mary's harbour,,05,52.3,-55.833333
marystown,4558,05,47.166667,-55.166667
marysville,,02,49.633333,-115.95
marysville,,04,45.966667,-66.583333
masefield,,11,49.15,-107.8
maskinonge,1105,10,46.216667,-73.016667
