names,population,state_code,lat,lon
"25 de junho ""a""",,04,-25.9002778,32.5555556
"25 de junho ""b""",,04,-25.9011111,32.5775
3 de fevereiro,,04,-25.8897222,32.6222222
7 de abril,,06,-15.1438889,39.7052778
abacar,,09,-17.1780556,37.8333333
aba cuturia,,09,-16.2688889,37.1961111
abasulo,,07,-12.1875,34.7075
abdala,,01,-11.4266667,39.7177778
abdala,,06,-14.2877778,40.4852778
abdata,,01,-11.4266667,39.7177778
abdul,,02,-24.4688889,33.1519444
abdulaimo,,01,-13.605,39.1636111
abedula,,03,-24.2630556,35.0675
abel,,02,-22.5219444,32.6255556
abel,,03,-24.6288889,34.7791667
abel,,06,-16.5869444,39.5313889
abeliua,,09,-17.1080556,38.0247222
abel maueua,,03,-24.3675,34.7788889
abianai,,01,-11.9230556,39.5125
abibo,,01,-12.4555556,39.8969444
abibo,,09,-16.8669444,38.4402778
abilio,,02,-24.4702778,33.3461111
abilo,,07,-12.3863889,34.9641667
abima,,07,-13.7786111,37.3341667
abimo,,07,-13.7786111,37.3341667
abinda,,06,-14.1769444,40.425
abissa,,01,-13.0186111,38.6963889
abobelane,,03,-22.4883333,35.1808333
aboobacar,,09,-17.3616667,35.4858333
abreu,,06,-15.5302778,40.3802778
abreu,,09,-16.8077778,38.8580556
abudala,,01,-12.3072222,40.1202778
abudala,,06,-14.6147222,40.6786111
abudala,,09,-17.0672222,38.1377778
abude,,06,-14.0288889,40.6058333
abudo,,01,-11.745,39.4905556
abudo,,06,-14.4602778,40.6447222
abudo,,07,-14.3658333,35.6622222
abudo,,09,-16.8147222,38.9613889
aburene,,09,-16.9522222,38.0994444
abutda,,01,-13.0663889,38.4336111
abuti,,06,-15.85,39.75
acache,,01,-12.8730556,40.4672222
acalama,,01,-11.4186111,39.4091667
acalavana,,06,-14.6541667,39.615
acampamento,,06,-14.9416667,40.3052778
acampamento,,10,-20.3997222,33.23
acampamento cha mocambique,,09,-16.1966667,37.3425
acampamento sena sugar,,09,-16.4261111,37.5383333
acamp montegiro,,09,-16.1386111,38.3861111
acana,,04,-24.8191667,32.4680556
acate,,02,-24.7869444,33.4744444
achane,,06,-14.8563889,40.2422222
achuche,,01,-11.7591667,39.7941667
achuchinhanzi,,08,-14.8383333,34.2019444
achuia,,01,-11.9366667,40.1994444
aciate,,09,-17.7991667,36.4927778
acombangue,,01,-11.3338889,39.8452778
acombanque,,01,-11.3338889,39.8452778
acomutero,,08,-15.2655556,33.8408333
a.c. tsocane,,02,-24.0805556,32.6605556
acua,,06,-14.1355556,40.0947222
acualahata,,01,-11.4752778,39.67
acuata,,06,-15.4244444,39.5508333
acuchinhanzi,,08,-14.8383333,34.2019444
acudanguela,,01,-11.285,39.9938889
acudanquela,,01,-11.285,39.9938889
acuirindi,,07,-12.9608333,34.8138889
acujo,,07,-13.2041667,37.51
aculahata,,01,-11.4966667,39.7244444
acumulanga,,08,-14.65,34.1563889
acupo,,06,-13.7875,40.3630556
acurra,,06,-15.1638889,39.0069444
acutipuane,,01,-12.0780556,39.7727778
adacuana,,09,-17.5808333,36.9216667
adala,,01,-10.8658333,40.2388889
adamegi,,06,-14.5011111,40.6969444
adamo,,01,-11.4763889,39.3455556
adamo,,09,-17.3961111,37.1191667
adeia,,07,-12.1105556,34.8044444
adelina,,06,-14.8741667,37.3647222
adia,,06,-14.4013889,40.3080556
adiba,,09,-17.1041667,37.5816667
adibo,,06,-16.4297222,39.5625
adibo,,09,-16.8869444,38.7008333
adira,,09,-17.4880556,37.3941667
adiuia,,06,-16.4108333,39.5955556
adolfo,,09,-15.4269444,37.6683333
adremane,,01,-11.1047222,39.4625
adriano,,06,-15.1561111,39.0963889
adriano,,09,-17.5680556,35.8094444
adulumbuique,,01,-11.5927778,39.6377778
"aeroporto ""a""",,04,-25.9380556,32.5711111
"aeroporto ""b""",,04,-25.9327778,32.5619444
afaina,,07,-13.0711111,36.4805556
afo,,03,-21.6213889,34.5463889
afonso,,03,-21.3338889,34.8508333
afonso,,05,-18.2152778,35.8647222
afonso,,06,-15.9666667,39.5166667
afonso,,08,-16.05,33.3
afonso,,09,-16.5022222,38.9458333
afonso guihole,,03,-24.5736111,34.2491667
afonso matsinhe,,02,-24.7155556,34.0922222
afonso maunge,,02,-24.6936111,34.0436111
afreda,,09,-16.6658333,37.1091667
agadibo,,09,-17.3416667,37.2261111
agamira,,07,-12.4547222,34.9863889
agemeda,,03,-21.4869444,35.0361111
agi,,06,-14.6333333,40.75
agostinho,,03,-21.9347222,34.7413889
agostinho,,04,-25.7188889,32.6352778
agostinho,,06,-15.3527778,39.5575
aguacheiro,,09,-17.5302778,36.0611111
agualva,,09,-18.4,36.0666667
agua quente,,09,-16.8072222,38.3888889
aguas quentes,,08,-17.4166667,35.35
ahema,,01,-11.3588889,39.8547222
aiai,,04,-26.2333333,32.8833333
aide,,07,-12.0483333,34.9791667
aideja,,05,-20.1797222,34.1805556
aienda,,01,-10.8797222,40.2922222
aimo,,01,-13.4508333,38.6658333
ainhecio,,09,-16.1344444,38.1408333
aiorrucula,,01,-14.0261111,39.1188889
airo,,01,-12.6897222,40.2044444
aissa,,07,-12.5141667,35.1891667
aitare,,01,-12.4966667,40.3505556
aite,,07,-14.5491667,36.9758333
aiuba,,01,-11.2791667,40.2516667
aiuda,,07,-13.3227778,35.5694444
aiupa,,01,-13.395,39.4608333
aiupa,,06,-14.2694444,39.2775
aiupa,,09,-17.0119444,38.9033333
ajabo,,07,-13.3466667,35.8952778
ajera,,01,-13.33,40.3405556
ajona,,08,-14.8833333,30.7666667
ajuda,,07,-12.6116667,34.8780556
alaina,,01,-12.4647222,40.1636111
alama,,06,-15.6827778,39.0097222
alamane,,04,-25.4419444,32.9683333
alamba,,09,-17.3511111,37.0633333
alamua,,01,-14.1786111,39.0591667
alaneque,,06,-14.8658333,38.9969444
alavalieque,,06,-14.4569444,39.4361111
alave,,06,-15.6444444,40.1622222
albano,,03,-21.4958333,35.1786111
albasini,,04,-25.8455556,32.6338889
albazin,,04,-25.8411111,32.6436111
albazine,,04,-25.8455556,32.6338889
alberto,,02,-23.7622222,33.2338889
alberto,,03,-22.0811111,35.2483333
alberto,,05,-21.0577778,34.7933333
alberto,,06,-14.0069444,40.2922222
alberto,,09,-15.1291667,37.0966667
alberto,,10,-20.7208333,33.2213889
albine,,04,-26.1666667,32.5833333
albinho,,06,-16.0225,39.3811111
albino,,02,-23.3375,33.7961111
albino manhique,,02,-24.5975,34.0327778
alcino macie,,03,-24.3230556,34.0208333
alcolete,,09,-18.1166667,36.75
alcolete,,10,-16.8138889,34.5558333
aldeia acupita,,08,-14.8661111,34.2691667
aldeia afuaca,,08,-15.4,31.5213889
aldeia,,07,-12.1105556,34.8044444
aldeia ancimba,,08,-15.5152778,32.0791667
aldeia ancuaze,,08,-16.7825,34.5611111
aldeia a. viana,,04,-26.0163889,32.1338889
aldeia bacicolo,,08,-14.5136111,33.7133333
aldeia bagarila,,07,-13.0977778,35.2236111
aldeia baia,,07,-13.1133333,35.1952778
aldeia bandar,,08,-16.6369444,34.1463889
aldeia bango,,08,-14.9013889,34.4530556
aldeia bawe,,08,-15.1969444,33.6427778
aldeia bbwedzi,,08,-15.1863889,32.1080556
aldeia bene,,08,-14.8769444,34.3508333
aldeia bingo,,02,-23.6361111,31.9297222
aldeia biri-biri,,08,-14.7538889,34.5466667
aldeia birira,,08,-16.4436111,33.1830556
aldeia bolande,,03,-23.8225,35.2763889
aldeia bonga,,08,-14.6102778,34.5416667
aldeia braganco,,08,-14.4008333,34.3433333
aldeia bucha,,08,-15.6294444,32.9122222
aldeia bulao,,03,-23.1466667,35.4913889
aldeia bume,,08,-14.5961111,34.0888889
aldeia cabambe,,08,-14.6213889,34.1925
aldeia cachenge,,08,-16.3458333,33.3375
aldeia cachere,,08,-14.8341667,33.6052778
aldeia caconde,,08,-16.1772222,33.2552778
aldeia cafulisa,,08,-16.4008333,32.9116667
aldeia caho,,08,-15.7266667,32.8094444
aldeia cajamba,,07,-13.0072222,35.1791667
aldeia calala,,08,-14.6827778,33.0022222
aldeia calembe,,07,-12.27,36.5586111
aldeia calumue de baixa,,08,-14.4016667,34.3255556
aldeia calussaca,,08,-14.9152778,32.0166667
aldeia cambarira,,05,-18.6469444,33.9377778
aldeia camela,,03,-23.5752778,35.3194444
aldeia campala,,08,-14.7197222,34.5088889
aldeia campine,,08,-15.3316667,32.6544444
aldeia camulaumba,,08,-16.9455556,33.2130556
aldeia canangue,,08,-15.6030556,31.1797222
aldeia canda,,05,-18.4855556,33.9808333
aldeia candodo,,08,-15.7827778,32.7788889
aldeia candogal,,08,-15.7236111,32.7436111
aldeia cangudze,,08,-16.4552778,33.0891667
aldeia canhandula,,08,-16.5766667,33.1852778
aldeia canhunque,,08,-15.4336111,31.9705556
aldeia capimbe,,08,-16.5980556,33.2030556
aldeia capinizi,,08,-14.5919444,32.75
aldeia capiri,,08,-14.8244444,32.8361111
aldeia capiringombe,,08,-14.8527778,34.0119444
aldeia cassero,,07,-13.1380556,36.5602778
aldeia cassua,,08,-15.7275,32.8494444
aldeia cassumar,,07,-13.2447222,35.3747222
aldeia cassunsa,,08,-15.285,33.4894444
aldeia catambe,,08,-15.9911111,32.2075
aldeia cataxa,,08,-15.9386111,33.0977778
aldeia cateme,,08,-16.0691667,33.9797222
aldeia catumba,,08,-16.9991667,33.1838889
aldeia caume,,08,-15.1975,32.1191667
aldeia cauzi,,08,-15.0363889,33.6702778
aldeia chacale,,08,-15.4086111,31.8238889
aldeia chamacasso,,08,-15.3713889,32.5263889
aldeia chamande,,07,-13.8688889,35.4708333
aldeia chambambe,,08,-15.4216667,33.1477778
aldeia chamulaza,,08,-15.4544444,32.0644444
aldeia changudue,,08,-16.2286111,33.4783333
aldeia chaomba,,08,-14.0675,33.2797222
aldeia chapaluca,,08,-15.5155556,33.6575
aldeia chapatira,,08,-15.5733333,31.6297222
aldeia chayane,,08,-15.3641667,33.4736111
aldeia chia,,07,-12.5072222,34.7119444
aldeia chibovo,,08,-15.3608333,32.2197222
aldeia chicoco,,08,-15.5422222,33.1883333
aldeia chidzidzi,,08,-15.4311111,33.1972222
aldeia chifumbe,,08,-14.8711111,34.0583333
aldeia chigoma,,07,-12.0797222,34.8538889
aldeia chiguaja,,07,-13.7597222,35.3147222
aldeia chilapitangongo,,07,-13.0794444,35.1661111
aldeia chileca,,07,-12.4197222,35.1227778
aldeia chimadzi,,08,-15.5302778,33.0944444
aldeia chimangue,,02,-23.4441667,31.7783333
aldeia chingola,,08,-14.4875,34.0458333
aldeia chinhanda-velha,,08,-15.8433333,32.4088889
aldeia chinhande,,08,-16.5472222,33.3788889
aldeia chinjati,,07,-12.1819444,34.7141667
aldeia chioco,,08,-16.4166667,32.8247222
aldeia chionde,,08,-14.9375,34.4569444
aldeia chiotumbo,,08,-16.645,33.1447222
aldeia chipacasse,,08,-15.1294444,33.7330556
aldeia chipala,,08,-14.7638889,34.1302778
aldeia chipala-pala,,08,-15.6802778,32.3977778
aldeia chipanga,,07,-13.5708333,35.0625
aldeia chipone,,03,-24.3386111,34.7772222
aldeia chipungo,,08,-15.1227778,32.2163889
aldeia chiputa,,07,-13.2422222,36.5144444
aldeia chiputu,,08,-15.4361111,32.6472222
aldeia chiradze,,08,-15.7605556,33.1111111
aldeia chirowa,,08,-15.0627778,33.3216667
aldeia chissanga,,07,-12.4477778,34.7041667
aldeia chissete,,08,-15.4869444,32.3577778
aldeia chitanda,,07,-13.8397222,35.5063889
aldeia chitesse,,08,-15.3222222,32.5627778
aldeia chitolo,,07,-12.5752778,36.4597222
aldeia chitondo,,08,-16.5225,33.0783333
aldeia chitula,,07,-12.9647222,35.1016667
aldeia chiuanjota,,07,-12.9611111,35.7408333
aldeia chiuindi,,07,-11.5788889,34.9716667
aldeia chiuta,,08,-15.5622222,33.2897222
aldeia chiutumbo,,08,-15.4227778,31.8913889
aldeia chivigo,,07,-13.2533333,35.0941667
aldeia chivungo,,08,-15.2861111,32.4580556
aldeia chiwai,,08,-16.6355556,33.0811111
aldeia chuala,,10,-18.4044444,33.2372222
aldeia chuchamano,,08,-16.9594444,32.8677778
aldeia chyia,,08,-14.7927778,34.1702778
aldeia coamba,,08,-16.6291667,33.1525
aldeia coloca,,07,-13.9322222,35.3111111
aldeia colongo,,07,-13.3547222,35.32
aldeia colope,,07,-13.8872222,37.3605556
aldeia comunais 25 de setembro,,02,-24.3119444,32.7777778
aldeia comunais benzane,,04,-24.7663889,32.8325
aldeia comunais chacana,,04,-24.8369444,32.1883333
aldeia comunais chicuembo,,04,-24.8683333,32.3061111
aldeia comunais chicutso,,04,-24.5708333,32.6647222
aldeia comunais cuambate,,04,-24.4461111,32.0938889
aldeia comunais fucue,,02,-24.1375,32.7241667
aldeia comunais iii congresso,,02,-24.1641667,32.5063889
aldeia comunais kaptine,,04,-24.7830556,32.1105556
aldeia comunais macarringue,,02,-24.1244444,32.6019444
aldeia comunais machel,,02,-24.5036111,32.9533333
aldeia comunais maconquele,,02,-24.1041667,32.5233333
aldeia comunais malonguene,,04,-24.3911111,32.1227778
aldeia comunais manhica,,02,-24.0513889,32.4672222
aldeia comunais manjangue,,02,-24.435,32.8475
aldeia comunais massebocane,,04,-24.8811111,32.5513889
aldeia comunais matuba,,02,-24.4947222,32.9088889
aldeia comunais mechangana,,04,-24.8202778,32.2633333
aldeia comunais mingonzo,,04,-24.2369444,32.2013889
aldeia comunais mubanguer,,02,-24.4052778,32.9336111
aldeia comunais munhamane,,02,-24.0213889,32.4422222
aldeia comunais nhivane,,04,-24.8913889,32.3205556
aldeia comunais obrigado tanzania,,02,-24.1652778,32.5758333
aldeia comunais ringane,,02,-24.2158333,32.2772222
aldeia comunais uafecula,,04,-24.9561111,32.5680556
aldeia comunais uambjana,,02,-24.8152778,32.8913889
aldeia comunais unguca,,04,-24.8305556,32.8555556
aldeia comunais zulu,,02,-24.0066667,32.4594444
aldeia conceicao,,04,-26.1761111,32.3358333
aldeia creva,,08,-14.5613889,34.1175
aldeia cuambe,,03,-24.1880556,34.7872222
aldeia cuanzeu,,08,-15.8669444,32.1447222
aldeia cumbe,,08,-14.6222222,34.0777778
aldeia cussarara,,08,-14.0102778,33.2233333
aldeia da graca,,02,-24.6836111,33.1736111
aldeia dala,,08,-14.5036111,34.0475
aldeia da madragoa,,02,-24.6888889,33.2597222
aldeia das laranjeras,,02,-24.5733333,33.9180556
aldeia daudo,,03,-24.4763889,34.3030556
aldeia de folgares,,02,-24.6675,33.0977778
aldeia de freixiel,,02,-24.6213889,33.1138889
aldeia de lionde,,02,-24.5830556,33.0611111
aldeia demera,,08,-16.3925,33.3152778
aldeia de ourique,,02,-24.7377778,33.1255556
aldeia de pegoes,,02,-24.7083333,33.37
aldeia de sagres,,02,-24.6808333,33.0202778
aldeia de santa comba,,02,-24.7397222,33.2958333
aldeia de santana,,02,-24.6755556,33.3241667
aldeia devo,,08,-16.9986111,33.8105556
aldeia doespirito santo,,04,-25.9027778,32.6572222
aldeia dos pescadores,,04,-25.9011111,32.66
aldeia dos sao guerra,,03,-23.4119444,35.3572222
aldeia drunga,,08,-16.9430556,32.8966667
aldeia duanga,,08,-14.4008333,32.1405556
aldeia dzenda,,08,-15.4808333,32.1875
aldeia ferreira,,06,-14.9838889,39.7375
aldeia flandue,,08,-16.7844444,34.7666667
aldeia fombe,,05,-18.6622222,33.6430556
aldeia forte malanguene,,08,-14.6833333,34.5233333
aldeia gimica,,08,-15.5205556,33.1602778
aldeia goba,,08,-16.3908333,33.2869444
aldeia goche,,08,-15.5519444,31.7775
aldeia gomacheza,,08,-15.4611111,33.7722222
aldeia goncalo,,08,-16.8261111,34.785
aldeia graca,,04,-25.9430556,32.0430556
aldeia honde,,10,-18.3202778,33.2091667
aldeia jairosse,,08,-14.6091667,34.1388889
aldeia jole,,08,-14.6872222,34.2111111
aldeia julius nyerere,,10,-18.0722222,33.2794444
aldeia kapiriuta,,08,-14.4769444,33.9386111
aldeia katondo,,08,-14.7955556,33.9780556
aldeia kavago,,07,-13.0175,35.4363889
aldeia l. borges,,04,-26.6575,32.1583333
aldeia licamba,,07,-12.3836111,34.92
aldeia lifunda,,08,-16.9686111,33.0594444
aldeia ligogolo,,07,-12.9394444,35.7355556
aldeia lihuchi,,07,-11.7497222,34.9613889
aldeia limbe,,07,-12.2416667,34.8483333
aldeia limbue,,07,-12.3772222,34.71
aldeia lindimula,,08,-14.6361111,34.5233333
aldeia lingombe,,08,-15.1919444,31.5047222
aldeia lipaque,,08,-15.4538889,33.2588889
aldeia lipirize,,03,-24.1466667,34.4969444
aldeia lipombue,,07,-13.0672222,35.1863889
aldeia lissenguece,,07,-12.3294444,34.7686111
aldeia litete,,07,-13.9605556,35.4344444
aldeia litombochi,,07,-11.6413889,35.2894444
aldeia longa,,07,-11.7280556,34.9625
aldeia luambala,,07,-13.5983333,35.5175
aldeia luatize,,07,-12.6580556,36.1622222
aldeia lucessi,,07,-12.9011111,34.7722222
aldeia lucucho,,07,-13.7388889,35.5427778
aldeia lucumue,,07,-13.3330556,35.2986111
aldeia luiga,,07,-12.4591667,34.9769444
aldeia lulimire,,07,-13.34,35.2486111
aldeia lumbaulo,,07,-11.8352778,34.9675
aldeia lumbe,,07,-13.4205556,35.2594444
aldeia luombuo,,08,-16.6619444,34.2658333
aldeia lusefa,,07,-12.8841667,34.7747222
aldeia lussanga,,07,-13.79,35.3558333
aldeia lussingene,,07,-12.9766667,35.5063889
aldeia lutenguene,,07,-11.6619444,35.1144444
aldeia luzina,,08,-15.3183333,31.7141667
aldeia mabauane,,02,-25.0383333,33.3747222
aldeia mabinda,,02,-24.4986111,34.1008333
aldeia mabwedzi,,08,-15.8094444,33.4730556
aldeia macasse,,03,-24.4727778,34.615
aldeia machava,,03,-24.2016667,34.6622222
aldeia macondece,,07,-12.2030556,34.8627778
aldeia magaco,,08,-16.9202778,33.0463889
aldeia majongota,,03,-24.4516667,34.6027778
aldeia majune,,07,-13.435,36.1752778
aldeia mala,,07,-12.1938889,34.6994444
aldeia malambue,,08,-15.2261111,31.5233333
aldeia malica,,07,-13.1794444,35.1863889
aldeia mamirrupa,,07,-13.7341667,37.26
aldeia mango,,08,-14.7911111,32.4563889
aldeia mapango,,08,-14.9655556,32.2425
aldeia mapupulo,,01,-13.2213889,38.8761111
aldeia marara,,08,-16.0055556,33.2286111
aldeia maroeira,,08,-15.6438889,32.8177778
aldeia martins santareno,,07,-14.3772222,35.89
aldeia massamba,,08,-15.6441667,33.6872222
aldeia massangere,,07,-13.2622222,35.22
aldeia massano,,02,-24.9841667,34.0313889
aldeia massatwe,,08,-15.4866667,33.1275
aldeia massecha,,08,-15.7127778,32.7036111
aldeia massingir velho,,02,-23.8338889,31.9008333
aldeia mataca,,07,-12.0830556,34.8144444
aldeia matambo,,08,-16.255,33.4427778
aldeia matemango,,07,-13.1355556,35.2802778
aldeia matumbue,,07,-13.115,35.1711111
aldeia maulemaule,,08,-16.8708333,33.0047222
aldeia mazamba,,08,-15.1491667,31.0972222
aldeia mazogo,,07,-12.9386111,35.0194444
aldeia mazoi,,08,-16.6472222,33.0988889
aldeia m'bemba,,07,-13.0766667,35.2069444
aldeia mbueca,,07,-12.3044444,34.7144444
aldeia mbulise,,07,-12.5227778,35.4461111
aldeia mbuna,,07,-12.2627778,34.72
aldeia mecalanila,,07,-12.0188889,34.8969444
aldeia mecava,,07,-13.89,35.6725
aldeia mecual,,07,-13.3672222,36.0511111
aldeia melo egidio,,07,-14.3177778,35.8547222
aldeia mepapaia,,08,-15.6019444,31.1538889
aldeia mepenha,,08,-14.5902778,34.4330556
aldeia messu,,08,-15.4761111,33.3583333
aldeia metonia,,07,-13.4905556,35.3072222
aldeia metora,,08,-14.5013889,34.0777778
aldeia metumbe,,07,-11.9411111,34.9075
aldeia micuinha,,07,-13.0641667,36.2047222
aldeia mifumbe,,08,-15.6263889,33.2441667
aldeia milanda,,08,-15.0563889,33.4288889
aldeia milepa,,07,-11.7338889,36.2922222
aldeia mirinde,,08,-15.9916667,33.4355556
aldeia missanja,,08,-14.4830556,34.1569444
aldeia missaua,,08,-16.31,33.4227778
aldeia mitamba,,07,-13.8883333,35.4183333
aldeia mithethe,,08,-16.6936111,33.3311111
aldeia moronde,,10,-18.5313889,33.0408333
aldeia mpeia,,07,-11.6941667,35.1711111
aldeia mphemba,,08,-15.485,31.6794444
aldeia m'pomba,,08,-15.5683333,33.4466667
aldeia mpuephue,,08,-15.365,31.4933333
aldeia msemene,,08,-15.4375,33.4936111
aldeia mtovo,,08,-15.6463889,33.2419444
aldeia muabvi,,08,-15.2061111,33.0466667
aldeia muapula,,07,-13.7697222,36.8944444
aldeia mucanda,,08,-14.0925,33.0919444
aldeia mucanga,,08,-15.1186111,31.8555556
aldeia muchamba,,08,-16.0830556,33.2158333
aldeia muchena,,08,-15.6822222,33.8055556
aldeia muchenga,,07,-12.5225,34.7294444
aldeia mucheni,,08,-15.3516667,31.5441667
aldeia mudzimbe,,08,-15.3425,33.0711111
aldeia muenheher,,07,-13.8269444,36.1141667
aldeia mugoma,,07,-13.7769444,37.305
aldeia mulinji,,08,-16.0111111,32.27
aldeia mulumbue,,08,-15.5563889,32.6972222
aldeia muongota,,07,-13.2880556,35.0697222
aldeia mussa,,07,-13.2891667,35.4752778
aldeia mussengere,,10,-18.4441667,33.5380556
aldeia mvzi,,08,-16.5041667,33.4066667
aldeia nacapa,,07,-13.4283333,37.3866667
aldeia nachinanga,,08,-16.7019444,33.0627778
aldeia naedane,,03,-24.0136111,35.2852778
aldeia naliuila,,07,-13.2372222,35.2122222
aldeia namacungua,,07,-12.4122222,34.7105556
aldeia nambe,,08,-15.3813889,31.7786111
aldeia namisse,,07,-12.1644444,34.7361111
aldeia namuela,,07,-13.3675,37.3980556
aldeia nanzenhenje,,07,-13.0016667,35.3183333
aldeia nauca,,07,-13.2211111,35.2113889
aldeia ncalangoma,,07,-13.4041667,35.3211111
aldeia nchatwe,,08,-14.5508333,33.86
aldeia nchinji,,07,-12.5405556,34.7441667
aldeia ndalala,,07,-12.2747222,34.8202778
aldeia nduica,,07,-13.0694444,35.2588889
aldeia necungas,,08,-16.1769444,34.2747222
aldeia nganfua,,07,-12.1291667,34.7761111
aldeia ngavo,,07,-13.0644444,35.4402778
aldeia ngofi,,07,-11.9244444,34.9147222
aldeia ngombe,,07,-11.6863889,34.9722222
aldeia ngongote,,07,-13.0419444,35.2777778
aldeia ngonha,,07,-11.7072222,34.9680556
aldeia ngoo,,07,-12.4344444,34.7047222
aldeia ngulo,,08,-15.4647222,32.2769444
aldeia nhacawanda,,10,-16.4769444,33.4686111
aldeia nhagondoa,,08,-16.4175,33.5416667
aldeia nhagondua,,08,-16.2311111,33.2638889
aldeia nhalupanda,,08,-16.2277778,33.6761111
aldeia nhamadzonso,,08,-16.4680556,33.0041667
aldeia nhamatema,,10,-18.4869444,33.2866667
aldeia nhancadenga,,08,-16.3663889,33.2269444
aldeia nhanchinde,,08,-15.0877778,33.4491667
aldeia nhancono,,08,-15.3241667,31.6177778
aldeia nhankwalakwald,,08,-16.3513889,33.2652778
aldeia nhantaro,,08,-15.3572222,31.8636111
aldeia nhathebo,,08,-16.8369444,33.1769444
aldeia nhocassaro,,10,-18.3444444,33.6705556
aldeia nkolongue,,07,-12.1358333,34.7736111
aldeia nomba,,07,-13.3455556,35.2677778
aldeia nova,,02,-23.5713889,32.8933333
aldeia nova viseu,,07,-13.0361111,36.1344444
aldeia novele,,03,-24.0602778,34.6541667
aldeia ntawa,,08,-15.3547222,32.6108333
aldeia ntayansupa,,08,-15.2283333,32.2136111
aldeia ntiuili,,07,-13.1644444,35.3619444
aldeia pacassa,,08,-16.3705556,33.4197222
aldeia panaema,,07,-13.3783333,37.4944444
aldeia panze,,10,-18.3247222,33.1427778
aldeia pereira,,02,-24.4747222,33.3211111
aldeia piaoro,,08,-16.4480556,32.7713889
aldeia piedade,,06,-15.2011111,39.3841667
aldeia poca,,04,-25.8438889,32.4397222
aldeia revue,,10,-18.9675,33.0280556
aldeia rodriques,,03,-23.1730556,35.3975
aldeia sachi,,07,-12.1019444,34.8127778
aldeia sao jose de ribamar,,02,-24.6361111,33.1766667
aldeia sasserimbe,,08,-16.8766667,34.7527778
aldeia satemua,,08,-14.8136111,34.4469444
aldeia saymica,,08,-15.4213889,33.4488889
aldeia silva,,03,-23.5713889,35.3580556
aldeia silva,,04,-26.33,32.4941667
aldeia silva,,06,-15.0930556,39.3302778
aldeia socossera,,07,-13.7616667,37.2747222
aldeia s. tiago,,02,-24.7044444,33.0919444
aldeia sunge,,08,-16.5422222,33.9461111
aldeia teixeira,,03,-24.0427778,35.3058333
aldeia tempue,,07,-13.2538889,37.4344444
aldeia thaca,,08,-15.6547222,32.6727778
aldeia tombo,,08,-16.0319444,33.9216667
aldeia tubi,,07,-12.3483333,34.7119444
aldeia uchesse,,07,-12.0469444,34.8841667
aldeia udala,,07,-13.8866667,35.3758333
aldeia uladza,,08,-15.2338889,32.06
aldeia ulongue,,08,-14.7675,34.3844444
aldeia unga,,07,-11.7755556,34.9627778
aldeia ute,,07,-13.4361111,35.3938889
aldeia utumuile,,07,-13.2702778,35.1652778
aldeia verde,,04,-25.7130556,32.6936111
aldeia videira,,02,-24.7841667,34.0827778
aldeia vila formosa,,08,-16.0697222,33.8541667
aldeia v. lenine,,02,-25.0419444,33.4847222
aldeia voz da da frelimo,,02,-25.0938889,33.4538889
aldeia vumbene,,02,-25.0708333,33.0952778
aldeia wanga,,07,-12.6763889,36.4277778
aldeia wikihi,,07,-11.6108333,34.9636111
aldeia wiriamo,,08,-16.3030556,33.6469444
aldeia zimete,,08,-15.3138889,33.8158333
aldeia zobue,,08,-14.6925,33.7061111
alecutuile,,07,-11.7441667,38.3897222
aleixo,,09,-17.4683333,37.2491667
alenane,,01,-13.4116667,39.7580556
alexandre,,02,-24.8066667,33.2058333
alexandre,,03,-21.3572222,34.8030556
alexandre,,06,-16.1416667,39.2336111
alexandre,,09,-17.1916667,37.9133333
alexandre uamunguene,,04,-25.7991667,32.5369444
alexandria,,09,-15.4669444,37.3955556
alface,,05,-17.6783333,35.0422222
alface,,08,-15.25,30.4
alface,,10,-19.6166667,33.4
alfaiate,,05,-18.2833333,35.9166667
alfaiate,,09,-17.0719444,36.2027778
alfaiate,,10,-16.6222222,34.0861111
alfandega,,01,-10.5841667,40.5188889
alfandega,,05,-19.0258333,34.2930556
alfandega,,08,-16.9194444,34.8263889
alfandega,,10,-17.145,34.1841667
alfanete,,03,-23.2858333,35.035
alfaxemo,,08,-15.3833333,31.4833333
alfazemo,,08,-15.3833333,31.4833333
alfazer,,09,-18.1,36.55
alfere,,08,-16.3388889,33.1083333
alfeu,,03,-23.0311111,35.3877778
alfeu manhique,,02,-24.5222222,34.285
alfiado,,03,-22.6097222,35.1783333
alfinar,,05,-18.95,35.5166667
alfinete,,03,-21.5238889,34.8327778
alfinete,,05,-18.6052778,34.3677778
alfinete,,10,-19.7022222,33.385
alfonso,,09,-17.9066667,35.8327778
alfredo,,02,-24.5241667,33.1819444
alfredo,,03,-21.9697222,34.3288889
alfredo,,04,-25.1833333,32.5666667
alfredo,,05,-21.0616667,34.7758333
alfredo,,06,-14.8933333,37.0030556
alfredo,,09,-17.1286111,37.3097222
alfredo uassunhane,,04,-25.7980556,32.5186111
algiado,,03,-21.4347222,34.5827778
algueirao,,10,-20.6922222,32.7936111
algumdia,,08,-15.9669444,33.3044444
alia,,06,-14.7744444,37.4675
aliado,,03,-21.9408333,34.76
ali,,01,-10.7536111,40.3822222
ali,,02,-25.1,33.4833333
ali,,06,-13.8586111,40.3369444
ali,,07,-13.0511111,35.1922222
ali,,08,-14.4169444,34.2952778
ali,,09,-17.0825,38.1538889
alianquile,,01,-11.3530556,39.7383333
aliasse,,01,-12.565,40.2716667
alicaca,,07,-15.4508333,36.0080556
alicene,,09,-16.9636111,36.6308333
alide,,01,-13.4391667,38.2919444
alifa,,01,-12.455,39.9019444
alifane,,06,-15.0447222,40.5769444
alifane,,09,-18.3833333,36.5833333
alifanete,,03,-21.4913889,34.7302778
alifeu,,03,-22.3727778,35.0769444
alifo,,01,-11.9272222,40.0080556
alifo,,06,-13.8569444,40.2969444
aligema,,06,-16.1211111,39.4016667
alimepingo,,01,-10.9869444,40.1227778
alimo,,01,-12.9547222,39.8075
alimperia,,06,-14.7669444,40.8227778
aliparrimo,,06,-15.9075,39.0436111
alipe,,06,-15.0333333,38.25
alipo,,06,-15.8002778,39.5691667
alipolima,,09,-17.3388889,37.8441667
alique,,07,-13.1877778,35.2161111
aliquie,,07,-13.1877778,35.2161111
aliquisanda,,07,-12.0805556,34.9813889
aliquisanga,,07,-12.0805556,34.9813889
alita,,01,-11.2458333,38.885
alite,,01,-11.2458333,38.885
aliti,,01,-13.1833333,40.0833333
aliua,,09,-16.9611111,37.7080556
alivangue,,01,-11.5613889,39.1905556
alivemuene,,01,-11.7463889,40.2447222
alize,,10,-16.5533333,33.9019444
almando,,05,-19.7411111,34.8494444
almeida,,01,-11.5513889,39.4775
almeida,,03,-21.4516667,34.875
almeida,,08,-16.7911111,34.5708333
alo,,01,-13.3666667,40.2
alojo,,05,-20.8597222,34.0775
alotancomba,,01,-11.7866667,39.6872222
alotocuanha,,01,-11.93,40.1602778
altinho,,07,-14.405,37.0319444
alto benfica,,09,-16.6444444,36.32
alto changane,,02,-24.3080556,33.63
alto do mutabide,,09,-17.1022222,37.9766667
alto lighona,,09,-15.5116667,38.2591667
alto ligonha,,09,-15.5116667,38.2591667
alto limpopo,,02,-22.4530556,31.3327778
"alto mae ""a""",,04,-25.9558333,32.5708333
"alto mae ""b""",,04,-25.9625,32.5630556
alto molocue,,09,-15.6355556,37.6883333
alto molokwe,,09,-15.6355556,37.6883333
alto mutabide,,09,-17.1022222,37.9766667
alua,,06,-13.9180556,39.9138889
alumane,,01,-13.0666667,39.0666667
alumar,,01,-12.9230556,39.7541667
alumeta,,06,-16.1338889,39.1402778
alupa,,06,-14.2694444,39.2775
alupache,,01,-11.9233333,39.5194444
alupo,,06,-14.8105556,40.6041667
aluto,,09,-17.0702778,35.7919444
aluzana,,04,-25.2333333,32.2
alvaro galiza matos,,03,-24.2452778,34.8625
alvaro pene,,03,-24.0025,35.2130556
alverca,,09,-15.4388889,36.89
alves,,09,-17.3136111,35.3472222
alvor,,04,-25.4136111,32.7511111
amacagi,,01,-12.7,40.3166667
amade,,01,-11.0877778,40.1136111
amade,,06,-14.2769444,40.5991667
amade,,07,-13.7575,35.5830556
amade,,09,-16.8352778,39.0427778
amade bai,,02,-24.6902778,34.0897222
amadeu,,05,-21.1594444,34.4694444
amado,,07,-13.2666667,35.2347222
amado,,09,-18.7244444,36.3188889
amadora,,04,-25.8672222,32.5663889
amalia,,07,-14.4472222,36.7755556
amamba,,05,-20.0383333,33.9586111
amane,,09,-17.1961111,37.9044444
a. manjala,,03,-21.6241667,35.2619444
amanuense,,03,-21.3016667,34.7905556
a. marmeleiro,,02,-24.4672222,33.2386111
amaro,,06,-15.4716667,39.9825
amatongas,,10,-19.1686111,33.7602778
ambaca,,01,-12.2447222,40.3405556
ambane,,03,-21.8,34.3
ambanha,,05,-20.3616667,34.6330556
ambanhe,,03,-21.35,34.6333333
ambanhe,,05,-20.3616667,34.6330556
ambassa,,10,-21.1669444,33.8388889
ambire,,09,-16.2430556,35.6466667
ambissane,,03,-21.9333333,34.3833333
ambuca,,03,-24.0533333,34.8255556
ambusi,,07,-12.3177778,34.7686111
amea,,01,-11.4666667,39.9269444
amede,,01,-10.8194444,40.1277778
amedi,,01,-12.3844444,40.1847222
amela,,03,-21.6861111,34.9808333
amela,,06,-14.0702778,40.2511111
amela,,07,-14.0863889,37.3119444
amela,,09,-16.19,38.8877778
america,,07,-13.2180556,36.6605556
amessala,,04,-25.2,32.2333333
ametina,,01,-13.2727778,39.8163889
ameto,,06,-14.4005556,40.5266667
amice,,01,-12.4441667,40.3669444
amice,,06,-14.4658333,40.7016667
amice,,07,-12.5022222,35.1927778
amice,,09,-16.2347222,38.0997222
amide cane,,03,-24.4730556,34.0944444
amime,,01,-12.4522222,39.91
amimo,,07,-13.8177778,35.4036111
amire,,06,-14.2544444,40.6538889
amisse,,01,-10.6447222,40.285
amisse,,06,-15.0519444,40.3875
amisse,,09,-16.9838889,38.0780556
amissi,,06,-14.6397222,37.4558333
amissi,,09,-16.8391667,38.9016667
amita,,07,-13.7847222,37.3188889
amito,,01,-13.3980556,38.5233333
a. moaianine,,02,-25.0341667,33.2147222
amoco,,03,-21.3419444,34.8527778
amoda,,05,-18.1361111,35.7530556
amoda uncuzana,,05,-18.15,35.8
amona,,01,-12.9722222,38.4566667
amone bie,,03,-24.4319444,34.9661111
amosse,,02,-24.2541667,33.1988889
amosse,,03,-22.485,35.0925
amosse,,04,-25.2666667,32.1666667
amosse,,09,-16.6883333,35.5652778
ampaca,,07,-13.2055556,35.8447222
ampara,,05,-20.2663889,34.6561111
amparira,,10,-19.6,33.5833333
amparo,,05,-20.2663889,34.6561111
ampivine,,06,-14.9188889,40.3883333
ampoense,,06,-14.9477778,40.6447222
ampohe,,06,-14.4688889,39.7591667
ampuaia,,06,-14.6686111,39.6777778
ampuato,,06,-15.0991667,40.11
amuda,,06,-16.7936111,39.2038889
amudo,,06,-15.6308333,40.4052778
amuri,,07,-13.9344444,35.3122222
amurri,,07,-14.3375,37.44
amussa,,09,-18.3833333,36.5666667
amusse,,05,-20.4088889,33.6952778
amusse muiota,,03,-24.3430556,34.0652778
anacari,,06,-16.6388889,38.9966667
anacleto,,08,-15.65,30.8333333
anama,,01,-11.5852778,39.6144444
anamaca,,06,-15.9683333,39.37
anantapa,,06,-15.0680556,37.7194444
anapacala,,01,-11.6963889,39.3547222
anapuca,,01,-11.6194444,39.9686111
anapulu,,01,-13.1672222,40.5552778
anatule,,06,-15.1708333,38.2572222
anchil,,06,-15.0961111,39.4208333
anchilo,,06,-15.0961111,39.4208333
anconhane,,02,-22.1758333,32.3769444
ancoque,,03,-24.4777778,34.6388889
ancorora,,06,-14.1122222,39.4327778
ancuabe,,01,-12.9766667,39.855
ancuaze,,08,-16.7825,34.5611111
ancubaira,,07,-12.405,34.7105556
ancueza,,10,-16.9841667,34.7816667
ancuha,,01,-13.0555556,38.9061111
ancuirre,,07,-13.4311111,37.8025
ancuninga,,07,-13.4633333,36.6816667
ancuringo,,07,-13.4633333,36.6816667
andalara,,07,-12.3605556,35.0097222
andare,,09,-17.7577778,36.5452778
andati,,04,-26.3705556,32.3805556
andazuce,,09,-17.6405556,36.8061111
andela,,03,-21.5016667,34.4047222
andelene,,04,-24.8772222,32.6213889
anderemane,,01,-12.0208333,39.3738889
andissene,,10,-16.7186111,33.34
ando,,01,-12.8883333,40.4472222
andoba,,01,-11.34,39.4391667
andoleio,,07,-12.3605556,35.0097222
andrada,,10,-18.8977778,32.8580556
andrea,,02,-23.8652778,32.9972222
andrea,,08,-16.875,34.7366667
andre,,03,-21.3438889,34.9630556
andre,,04,-24.4886111,32.2472222
andre,,06,-14.1638889,38.4325
andre,,09,-16.8019444,38.6313889
andrec,,10,-19.0530556,33.1155556
andremane,,01,-11.0858333,39.8097222
andre quia,,03,-24.5983333,34.4188889
andre samo,,03,-21.4738889,35.1422222
andrico,,09,-17.3683333,37.1675
anduluce,,09,-17.6405556,36.8061111
aneco,,06,-15.6894444,39.03
anecone,,09,-16.2622222,37.9680556
anela,,06,-14.7097222,40.3386111
aneli,,01,-13.0263889,39.5105556
anemelaua,,06,-15.2638889,38.3233333
anena,,01,-14.0669444,38.8441667
anga,,01,-11.3905556,40.3822222
angalacane,,02,-22.4691667,31.5261111
angelo paulino,,02,-24.5586111,34.1083333
anginha,,01,-11.3266667,39.0241667
angoche,74624,06,-16.2325,39.9086111
angondo,,07,-12.8861111,34.7619444
angorele,,08,-17.2833333,35.2666667
anguane,,04,-25.8,32.5833333
anguati,,07,-12.9308333,35.2291667
anguinamoinha,,01,-12.8563889,38.3441667
angule,,03,-22.0627778,33.5672222
anhane,,03,-22.2611111,33.4711111
anhapa,,06,-14.0036111,40.1375
anibal,,09,-17.3366667,35.3455556
anigo,,06,-15.9772222,39.485
aniuaia,,01,-13.9322222,39.1555556
anizai,,05,-19.3325,34.4530556
anjeje,,05,-17.125,34.8561111
anjinho,,06,-16.3291667,39.0686111
anjugane,,10,-19.6372222,33.7480556
anli,,01,-12.3644444,40.2997222
anlinha,,09,-15.3205556,37.2833333
anocochiva,,01,-11.8411111,40.0852778
anoija,,01,-12.2602778,40.0047222
anonia,,06,-14.9769444,37.7808333
anoque,,04,-24.9577778,32.1747222
anquati,,07,-12.9308333,35.2291667
anquimeria,,01,-12.8666667,38.35
anquinamainha,,01,-12.8563889,38.3441667
anquinamoinha,,01,-12.8563889,38.3441667
anquita,,01,-12.3608333,40.3069444
antabo,,06,-13.9522222,40.5325
anti,,01,-12.3644444,40.2997222
anti,,02,-23.6044444,32.9680556
antifica,,07,-13.3708333,36.4819444
antiga serracao zamite,,03,-24.3408333,34.5802778
antigo buzi,,05,-17.1313889,34.8613889
antigo pasto,,03,-23.8519444,34.3561111
antigo posto de mandimba,,07,-14.3666667,35.65
antigo posto maziua,,07,-11.6833333,36.74
antipirra,,06,-15.2247222,39.5077778
antique,,01,-13.2408333,38.9944444
antitica,,07,-13.3708333,36.4819444
antoa,,06,-14.485,39.7836111
antonio,,01,-12.9122222,40.2208333
antonio,,02,-24.1794444,33.1816667
antonio,,03,-22.2047222,33.9269444
antonio,,04,-24.8483333,32.5772222
antonio,,05,-18.1111111,34.9883333
antonio,,06,-14.1302778,40.0572222
antonio,,07,-14.4397222,36.6294444
antonio,,08,-15.5744444,32.3236111
antonio,,09,-15.2933333,37.4186111
antonio,,10,-18.475,33.5469444
antonio enes,,06,-16.2325,39.9086111
antonio engs,,06,-16.2325,39.9086111
antonio ennes,,06,-16.2325,39.9086111
antonio gamba,,05,-19.8,34.9166667
antonio marques,,06,-13.7575,39.6330556
antonio monjane,,02,-24.5827778,34.1658333
antonio nouele,,02,-24.5561111,34.1438889
antonio silva,,03,-24.3097222,34.9405556
antumane,,01,-12.4236111,40.3377778
antumano,,01,-12.4083333,40.2316667
antunes,,05,-19.7175,34.7452778
antupa,,01,-13.3888889,38.7275
anturabi,,01,-12.3425,40.3266667
antuura,,07,-13.2202778,37.5466667
anupulo,,01,-13.1672222,40.5552778
apacari,,06,-15.8291667,40.1088889
apaga fogo,,06,-14.9805556,40.6452778
apalia,,01,-13.345,38.8638889
aparra,,09,-15.7422222,38.0508333
apato,,06,-15.2438889,40.4488889
apeca,,06,-15.0788889,40.3563889
apeliua,,09,-17.1080556,38.0247222
apitaina,,01,-11.7405556,40.2622222
aprine,,06,-14.1683333,38.5447222
apua,,09,-15.7422222,38.0508333
apura,,01,-13.0286111,39.5205556
apura,,07,-13.2725,37.6919444
apurruro,,06,-14.7844444,39.9686111
aputala,,06,-14.3,39.0061111
aquia,,06,-13.8833333,40.4705556
aquida,,07,-13.1430556,36.6358333
aquiliua,,06,-14.9488889,37.1413889
aquimo,,07,-13.6952778,36.1797222
aquino,,06,-14.1222222,40.4555556
arabe,,01,-12.3419444,40.1336111
araela,,09,-16.0925,38.8938889
aramba,,01,-11.16,39.705
aramea,,09,-17.1680556,37.1325
arame,,06,-16.4191667,39.4430556
arame,,08,-15.7919444,34.2402778
arangua,,05,-19.0672222,34.4113889
arapela,,06,-14.5869444,37.2636111
araujo,,06,-15.2330556,38.2338889
araujo,,07,-13.2041667,37.51
arcoro,,09,-18.1947222,35.9816667
areeinar,,10,-17.95,34.2305556
arefai,,09,-16.95,35.3
ariceti,,05,-17.3666667,34.5013889
arijama,,09,-16.4616667,36.8083333
arijamo,,09,-16.4616667,36.8083333
arijuane,,09,-17.2891667,37.3091667
arimba,,01,-12.6436111,40.535
arire,,06,-13.8161111,40.5822222
aristides,,06,-14.7175,39.5922222
armando,,02,-23.6561111,32.8030556
armando,,03,-23.0055556,34.8280556
armando,,04,-24.3091667,32.4630556
armando,,09,-17.1088889,38.1336111
armazem,,02,-24.0175,33.3075
armazem,,05,-21.0488889,34.8061111
armazem,,06,-13.7030556,40.5405556
armazem i.a.m.,,02,-24.6716667,33.4419444
armazen,,02,-24.4069444,33.2919444
armazens,,02,-24.3619444,33.6466667
armeida,,09,-17.2147222,35.4608333
arnaldo,,03,-23.0486111,34.8069444
arone,,03,-22.8983333,35.0408333
arrapa,,06,-15.115,37.9272222
arria,,09,-16.4233333,37.7352778
arrie,,06,-15.1241667,40.1647222
arrimue,,06,-15.1811111,39.7627778
arroni,,04,-24.2544444,32.3138889
arruma,,02,-24.9752778,33.4538889
arruna,,01,-13.6047222,39.1997222
arrune,,06,-14.7363889,40.0611111
arrupa,,06,-14.2644444,40.1025
artur,,06,-14.3447222,38.2911111
artur,,07,-12.16,34.7313889
artur,,09,-18.0094444,35.6625
arucato,,10,-20.6625,33.5397222
arufo,,01,-13.1311111,39.9175
arujuane,,09,-18.1,35.9166667
arume,,10,-21.2408333,32.7916667
arveira,,09,-18.3447222,36.6380556
ascarimo,,01,-13.0747222,40.4819444
aside,,09,-17.5955556,37.1905556
asneira,,03,-21.6961111,35.4569444
aspense,,10,-19.6991667,33.7969444
assam,,02,-23.1033333,32.215
assame,,01,-10.655,40.3569444
assamo,,01,-12.3919444,40.1013889
assamo,,06,-13.8625,39.5616667
assane,,01,-10.5505556,40.3875
assane,,02,-22.3022222,31.4744444
assane,,06,-13.905,40.2663889
assane,,09,-17.2986111,37.3569444
assane,,10,-21.0813889,33.0322222
assane caputa,,01,-11.1225,39.7872222
assane e lima,,06,-15.2855556,40.6566667
assane maponda,,01,-11.1647222,39.655
assaringue,,01,-12.1261111,39.7413889
assarra,,06,-14.8775,37.0205556
asse,,01,-14.0163889,38.8772222
assica,,07,-12.1291667,34.7711111
assicante,,10,-19.7830556,33.3377778
assiengana,,10,-19.8486111,33.3091667
assima,,01,-12.0794444,39.7458333
assimo,,01,-12.0794444,39.7458333
assini,,01,-12.4305556,39.9513889
assomane,,06,-14.5794444,37.9866667
assuala,,07,-13.3488889,37.5122222
assualo,,07,-13.3488889,37.5122222
assuate,,06,-14.8036111,39.9619444
assuati,,06,-15.5333333,40.445
assucare,,09,-17.465,37.4927778
assulia,,06,-14.3455556,40.7063889
assumane,,01,-11.0886111,40.3186111
assumane,,06,-15.2097222,40.5352778
assumane,,09,-17.0422222,38.0066667
assune,,04,-25.2166667,32.3166667
ataice,,06,-14.4536111,37.8816667
atalambue,,01,-11.3813889,39.6263889
atecume,,06,-16.4880556,39.0652778
atexane,,02,-22.3547222,33.0763889
atibo,,01,-10.7172222,40.1952778
atibo,,06,-15.5955556,40.2075
atidie,,01,-11.2719444,39.4233333
a. titoche,,02,-24.4444444,33.1202778
ativa,,01,-13.2333333,38.6666667
atolo,,01,-13.0961111,40.5302778
atoto,,01,-12.8844444,39.8677778
atunane,,06,-15.1002778,40.3725
atupa,,06,-14.9130556,38.5894444
auade,,01,-10.7422222,40.1780556
auali,,01,-12.5533333,40.2038889
auase,,01,-13.4383333,38.1669444
auazi,,01,-12.5738889,40.2258333
aube,,06,-16.3655556,39.7533333
aublela,,01,-11.1563889,39.4086111
auchidle,,08,-14.5291667,34.4316667
auela,,07,-13.1344444,36.5802778
auela,,09,-16.9375,37.8505556
augosto,,06,-15.9080556,39.0613889
augusta,,06,-15.1305556,39.1786111
augusto,,03,-21.4591667,34.9888889
augusto,,04,-24.4886111,32.7158333
augusto,,05,-18.6666667,34.0794444
augusto,,06,-16.4802778,39.1827778
augusto,,09,-15.4355556,37.3938889
augusto,,10,-20.9433333,33.3516667
augusto cardoso,,07,-12.695,34.8158333
augusto mota,,04,-25.5891667,32.7905556
augusto sa,,04,-25.7305556,32.69
auite,,06,-15.0588889,40.3344444
aumba,,01,-13.1166667,38.8
auolela,,01,-11.1563889,39.4086111
autumane,,01,-12.4236111,40.3377778
auzera,,09,-17.5216667,36.9688889
auzo,,03,-22.5797222,34.9361111
avaiaca,,01,-12.9588889,38.8841667
avala,,07,-13.3375,35.2702778
avalinho,,09,-17.3925,36.1380556
avara,,06,-14.7677778,39.0563889
avarra,,01,-12.1663889,40.1955556
avarra,,06,-14.9658333,37.3647222
avarra,,09,-16.7666667,37.6666667
avelino,,06,-15.0288889,37.9516667
avida,,03,-21.2147222,34.7716667
avorreia,,09,-16.7555556,37.7536111
a. wong,,03,-21.5230556,35.1944444
azaquela,,06,-15.3605556,39.4402778
azaria,,02,-24.7941667,33.7586111
azevedo,,05,-18.3680556,34.0013889
azevedo,,10,-18.8372222,33.2966667
azido,,07,-12.6505556,34.7980556
babala,,04,-25.45,32.5666667
babalala,,04,-24.9322222,32.5527778
babanhane,,03,-22.4786111,33.4286111
babe,,10,-18.8802778,33.2547222
babelene,,02,-23.2994444,32.2963889
bacalhau,,03,-21.8625,33.9772222
bacalhau,,06,-14.5144444,38.3547222
bacane,,02,-23.4016667,33.095
bacanhamanja,,02,-22.4544444,31.5808333
bacar antigo,,01,-12.8180556,39.8725
bacar,,01,-10.8716667,40.1169444
bacar,,08,-17.4666667,35.3102778
bacela,,03,-21.8852778,35.0566667
bacela,,06,-14.1394444,40.2925
bacequete,,03,-21.1552778,34.715
bacequete,,10,-20.2983333,33.0183333
bacequote,,10,-21.2758333,33.2416667
bachavana,,05,-20.2516667,34.2172222
bachite,,04,-25.5969444,32.6116667
bacia,,06,-15.2313889,39.0719444
baciano,,06,-14.8025,38.6338889
badia,,04,-24.4544444,32.425
baea,,06,-16.3333333,39.9166667
baeta,,05,-20.25,33.8833333
bagage,,05,-19.9655556,34.1902778
bagalira,,07,-13.0977778,35.2236111
bagamoyo,,04,-25.8911111,32.5608333
bagar,,01,-12.5469444,40.0936111
bagia,,02,-23.8516667,33.4947222
bahane,,02,-24.9480556,33.995
baia,,07,-12.9802778,35.3858333
baiane,,03,-23.9030556,34.9997222
baiao,,05,-19.6958333,34.1413889
baicane,,02,-24.7,33.7980556
baie,,02,-23.8516667,33.4947222
baiecane,,02,-24.5163889,33.6475
baimbai,,03,-24.3113889,34.7458333
baira,,05,-18.6116667,34.9044444
bairrada,,03,-23.2944444,35.1344444
bairro de laulane,,04,-25.8958333,32.6125
bairro ferroviaro,,04,-25.9147222,32.6130556
bairro george dimitrov,,04,-25.8841667,32.5738889
bairro indigena,,04,-25.94,32.5683333
bairro j. demitrov,,04,-25.8841667,32.5738889
bairro patricio lumumba,,04,-25.8947222,32.5158333
"bairro vinte e cinco de junho ""a""",,04,-25.9002778,32.5555556
"bairro vinte e cinco de junho ""b""",,04,-25.9011111,32.5775
baixo licungo,,09,-17.4366667,37.2861111
bajone,,09,-17.2052778,38.0658333
bala,,07,-13.2886111,35.4802778
bala,,09,-17.2127778,37.2863889
bala bala,,02,-24.2775,33.0988889
balahimo,,01,-11.4141667,40.2277778
balale,,01,-11.2744444,39.4263889
balama,,01,-13.2666667,38.6
balanca,,06,-14.8133333,40.1922222
balane,,03,-22.3955556,33.8777778
balane,,04,-25.8166667,32.1166667
balane,,05,-20.0866667,33.7997222
balangue,,07,-13.4475,34.9216667
balape,,01,-10.8469444,40.1108333
balapi,,07,-12.7766667,35.7966667
balata,,03,-22.5811111,34.7036111
balate,,03,-22.6483333,34.3730556
balavo,,08,-14.8833333,31.1
baliro,,08,-16.9366667,34.8411111
baluco,,01,-11.4005556,40.0994444
balula,,02,-24.1030556,32.65
balul,,02,-24.1030556,32.65
balule,,02,-24.1030556,32.65
balume,,07,-14.9666667,36.0
bambala,,05,-18.4333333,35.45
bambalane,,02,-24.6941667,33.8575
bambara,,05,-20.4291667,34.6119444
bambate,,04,-25.65,32.65
bambatela,,03,-23.1825,35.1558333
bambe,,03,-22.6477778,35.4586111
bambila,,01,-11.0302778,39.5583333
bambo,,02,-24.2108333,33.4155556
bambo,,04,-26.2105556,32.585
bamela,,02,-23.4022222,32.3605556
bampuenha,,09,-17.1813889,37.2830556
banaaque,,01,-12.5302778,39.9633333
banaaque,,07,-14.4019444,37.4555556
bana,,04,-25.7833333,32.6
banana,,05,-20.7986111,34.2988889
bananhane,,02,-23.2744444,33.7402778
bancu,,01,-12.385,39.12
bandacamua,,10,-19.1833333,33.1333333
bandar,,01,-12.9411111,40.4058333
bandar,,08,-16.6369444,34.1463889
bande,,02,-21.9877778,33.2352778
bande,,04,-25.4333333,32.7
bande,,05,-21.2666667,34.3833333
bande diane,,03,-24.4513889,34.8613889
bandeira,,01,-13.1063889,38.825
bandeira,,03,-24.1013889,35.1975
bandeira,,05,-18.6322222,33.9533333
bandeira,,06,-15.8777778,39.7508333
bandeira,,08,-15.9666667,31.0833333
bandeira,,10,-17.2355556,33.8458333
bandimba,,08,-16.2333333,31.8833333
bando taimo,,03,-24.2227778,35.3733333
bandua,,05,-19.9666667,34.4166667
banducamua,,10,-19.1833333,33.1333333
bandula,,10,-19.0116667,33.1433333
bandule,,10,-18.0,33.6166667
banga,,03,-23.8833333,35.45
banga,,07,-12.9255556,35.7002778
bangane,,02,-23.3772222,33.6638889
bangane,,03,-22.4666667,34.6202778
bangane,,04,-24.9725,32.6522222
bango,,01,-11.2505556,39.4619444
bango,,02,-24.8325,33.7536111
bango,,03,-22.3830556,34.9563889
bango,,04,-25.3166667,32.1166667
bango,,05,-20.525,34.5105556
bango,,07,-13.8436111,35.3922222
bango machava,,02,-24.5880556,34.1466667
banguene,,02,-24.2505556,32.7688889
banguene,,03,-23.0169444,34.3380556
banguira,,10,-19.5997222,33.1852778
banhane,,02,-23.2744444,33.7402778
banhane,,03,-23.7011111,35.0722222
banheca,,02,-23.7008333,33.7977778
banhela,,04,-25.1702778,32.6633333
banhel beato nuno,,04,-25.1702778,32.6633333
banhine,,02,-24.1719444,32.4969444
banhine,,04,-24.9797222,32.6588889
baniana,,03,-21.1513889,34.7963889
banja,,08,-15.3772222,33.8197222
banjira,,01,-12.9466667,39.8380556
banzane,,04,-25.35,32.6333333
banze,,05,-18.1063889,35.7416667
bapai,,05,-21.0794444,34.1461111
bara-aripari,,05,-19.7597222,33.9047222
bara,,06,-14.9369444,40.2038889
baracussecua,,10,-19.3338889,33.4952778
barada,,05,-20.0219444,34.7458333
barane,,03,-23.7938889,35.2958333
barao,,02,-23.9886111,32.6386111
barata,,06,-14.2463889,39.0
barco,,09,-18.3552778,36.6475
barira,,05,-20.4197222,33.7533333
barnete,,09,-15.7083333,35.9125
barra,,02,-25.1819444,33.5275
barra,,06,-15.2,40.5
barra,,09,-18.3,36.7333333
barradas,,02,-24.9794444,33.6552778
barra de limpopo,,02,-25.1819444,33.5275
barragem,,02,-24.4080556,32.8725
barragem,,10,-19.5283333,33.4497222
barrana,,03,-23.2866667,35.165
barreto,,06,-15.0272222,40.6344444
barrite,,06,-14.8736111,38.9483333
barroa,,06,-15.5166667,40.5166667
barroso,,09,-17.6688889,36.6886111
bartolomeu,,02,-24.7875,33.7208333
bartolomeu dias,,03,-21.1763889,35.1241667
baruco,,05,-18.7491667,34.7719444
base central,,01,-11.7302778,39.9
basilio seguro,,01,-13.6155556,38.82
basquete,,05,-20.2825,33.5266667
bassa,,07,-12.7791667,34.7988889
bassela,,03,-23.6211111,34.6297222
bassequete,,02,-24.0119444,32.0416667
bassiquete,,03,-24.1591667,35.3211111
bassopa,,03,-22.5502778,35.3897222
bassope,,04,-24.9966667,32.0997222
bassora,,01,-12.45,40.4833333
bastera,,10,-18.9272222,33.2119444
basuero,,08,-15.605,34.4377778
batani,,10,-20.4202778,32.9005556
batela,,09,-17.2983333,37.5713889
bateo,,05,-19.7838889,34.8886111
batia,,10,-20.8261111,33.2472222
batine,,10,-21.3525,33.6352778
batista,,09,-16.6152778,37.1427778
bauala,,01,-11.3863889,39.5044444
bauala,,09,-17.2627778,37.8952778
bauane,,02,-24.5561111,33.5397222
bauane,,03,-22.2711111,35.0638889
bauasse,,09,-17.4202778,37.2530556
bauaze,,05,-18.1063889,35.7416667
baue,,08,-17.4122222,35.1
bauhoffer,,03,-24.0625,35.2697222
baula,,03,-21.8319444,34.4952778
baulane,,03,-21.9702778,34.955
baulane,,10,-21.3430556,33.6522222
baule,,03,-22.215,34.9836111
baute,,04,-24.3313889,32.3516667
bava,,04,-26.3022222,32.1677778
bava,,09,-17.3805556,37.0336111
bavamana,,10,-20.1669444,33.1719444
bawala,,01,-10.9372222,40.4694444
baxavana,,03,-24.3652778,34.2211111
baxavane,,03,-24.3652778,34.2211111
bazar,,04,-26.5077778,32.6875
bazar,,05,-18.6541667,34.0952778
bazilio,,06,-14.1480556,40.4011111
bazua,,10,-17.2486111,34.1783333
b. barbosa,,03,-23.7194444,35.3111111
b. chaisse,,03,-24.1461111,34.4544444
b. cumbula,,04,-26.1305556,32.5344444
beanhi,,10,-19.1852778,33.0413889
beata mafalda,,02,-24.6611111,33.3583333
beato n. a. pereira,,03,-24.2733333,34.9586111
bebane matsinhe,,02,-24.6913889,34.2325
bebede,,01,-11.3930556,39.6619444
bebelhane,,04,-26.7811111,32.3552778
bebeluta,,04,-26.5166667,32.3
becua,,02,-24.4283333,32.7777778
bediua,,09,-15.795,36.0694444
bedua,,01,-13.3575,39.4733333
beira,530706,05,-19.8436111,34.8388889
beira,,10,-18.0666667,33.2166667
beira-rio,,07,-14.7844444,36.7027778
beje,,02,-23.5908333,33.6652778
bela,,07,-13.7922222,35.3522222
belane,,03,-22.5494444,35.3980556
belas,,10,-18.9483333,33.2213889
bela vista,,04,-26.3427778,32.6736111
bela vista,,06,-15.0252778,40.675
beleie,,07,-14.05,35.45
belem,,07,-14.1308333,35.9491667
belhenguete,,01,-12.1766667,40.1144444
belmonte,,01,-13.83,39.1280556
belmonte,,06,-14.8375,40.0975
belo,,08,-15.9752778,33.0641667
belo,,10,-16.6011111,33.9902778
belua,,09,-16.1880556,35.7983333
beluluane,,04,-25.9108333,32.4063889
bembai,,02,-21.5027778,33.2127778
bembane,,02,-23.9647222,32.3277778
bembere,,08,-15.0555556,30.9841667
bemboe,,08,-15.8666667,30.5666667
benard,,07,-11.7838889,34.9619444
bendela,,07,-15.4411111,35.9088889
bene,,03,-21.3741667,34.9816667
bene,,04,-26.55,32.6
bene,,05,-18.6163889,34.3230556
bene,,08,-15.0730556,32.9311111
benete,,05,-20.4727778,33.5991667
benfica,,04,-25.8952778,32.5652778
benga,,03,-22.0661111,34.0958333
benga,,08,-16.1813889,33.6277778
bengo-bengo,,02,-24.3361111,33.4486111
benguane,,03,-23.7480556,35.1208333
benguma,,09,-17.3063889,35.6588889
bengura,,10,-18.1338889,33.0669444
benhane,,02,-24.0930556,32.4763889
beni,,03,-23.8055556,34.0936111
benibueni,,02,-22.1722222,31.6105556
benjamim,,02,-22.9383333,32.0275
benjamim,,04,-26.8336111,32.6491667
benjamim,,05,-20.0183333,33.975
benjamin,,02,-22.9383333,32.0275
benjamin,,04,-26.8336111,32.6491667
benlane,,03,-21.9991667,34.1008333
benord,,07,-11.7838889,34.9619444
bento,,03,-22.7655556,35.4869444
bento,,09,-18.5155556,36.1491667
bento bruto,,03,-23.1119444,33.8075
benzane,,03,-22.6663889,33.6708333
bepete,,10,-19.965,33.2033333
beque,,10,-19.1,33.4166667
bereu,,09,-17.4525,37.5205556
bernardino,,03,-22.0558333,34.1316667
bernardino,,10,-18.7744444,33.3663889
bernardo,,03,-22.5777778,35.1766667
bernardo,,04,-24.3769444,32.3780556
bernardo,,06,-15.8425,39.5102778
bernardo,,07,-14.3711111,37.3713889
bernardo,,09,-18.15,36.7166667
bero,,08,-15.0833333,30.85
bero,,09,-17.6480556,36.5927778
berruma,,06,-15.0011111,37.355
berua,,09,-16.2963889,35.3038889
bese,,03,-22.2436111,35.2175
bessero,,10,-17.1075,33.6613889
besserro,,10,-17.1075,33.6613889
bessuca,,10,-20.8938889,33.5275
bete,,08,-15.8572222,33.2586111
beti,,04,-24.8338889,32.8555556
betolane,,03,-22.4483333,35.1888889
betula,,02,-24.7958333,34.1944444
beua,,08,-14.7833333,34.15
beula,,03,-23.7327778,35.3466667
beunga,,01,-11.4416667,39.6244444
beuti,,01,-11.2166667,39.45
bevula,,04,-24.3869444,32.0636111
biane,,02,-24.0383333,33.425
biaque,,01,-12.8627778,39.9488889
bichote,,05,-19.1666667,35.5333333
bicho tuai,,03,-21.6133333,35.2575
bida,,09,-17.2636111,37.19
bidarra,,09,-16.5711111,36.5411111
bidjolo,,01,-12.9536111,39.9969444
bigoane,,04,-25.4658333,32.2813889
biguane,,04,-25.4658333,32.2813889
bihene,,03,-24.5,34.5333333
bije,,04,-25.8672222,32.06
bilale,,01,-10.7922222,40.2522222
bilandega,,07,-11.7286111,36.6652778
bilandege,,07,-11.7286111,36.6652778
bilange,,07,-13.3983333,34.9286111
bilanhane,,03,-23.9347222,34.8727778
bilhete,,04,-25.5333333,32.4833333
bilibisa,,01,-13.4622222,40.5366667
bilibiza,,01,-12.57,40.2722222
biluane,,02,-24.5713889,33.0708333
bimba,,04,-25.5666667,32.0166667
bimba,,05,-20.3841667,33.5758333
bimbane,,02,-24.9202778,33.6002778
bimbene,,04,-25.5330556,32.5633333
bimbilene,,04,-26.7666667,32.8
bin-biri,,05,-19.5947222,34.1041667
binda,,05,-19.805,33.9463889
bine,,01,-11.3763889,39.1141667
binga,,02,-24.7458333,33.4522222
b. ingobane,,04,-26.7855556,32.8233333
bingo,,02,-23.4136111,31.8097222
binguanhana,,02,-24.6883333,34.2116667
bingue,,05,-19.3866667,35.3955556
binone,,08,-14.9294444,34.11
binze,,09,-18.0816667,35.9352778
binzo,,02,-24.1008333,33.0516667
bique,,02,-24.7169444,32.8675
bique,,06,-14.9722222,38.3858333
biquisa,,10,-20.2166667,33.0947222
biquiza,,03,-23.0905556,33.8686111
biquizane,,02,-23.2375,33.8183333
biquize,,03,-21.3122222,34.1122222
birana,,10,-21.0044444,33.5827778
bire,,01,-11.9691667,39.9308333
biribiri,,06,-13.9119444,40.2705556
biruire,,05,-17.6416667,34.7405556
bissane,,09,-17.74,36.9294444
bissee,,01,-12.5075,40.1988889
bitche,,04,-25.8019444,32.6141667
bitincoloma,,07,-12.9991667,35.5663889
bitine,,02,-23.92,33.3333333
biuamanja,,03,-21.6775,33.7141667
bivanguane,,04,-24.9230556,32.6619444
bivar,,09,-17.4113889,35.8152778
bize,,09,-16.1058333,35.7008333
bizene,,02,-24.2230556,33.6855556
blanguete,,08,-15.6666667,30.55
b. lhalhe,,04,-26.1675,32.4711111
b. manhique,,03,-24.215,34.5363889
b. marima,,03,-24.4447222,34.4583333
b. nuno,,02,-25.0386111,33.6986111
boa,,03,-24.1830556,35.3561111
boa guiliche,,03,-24.1830556,35.3561111
boala,,01,-10.8,40.5166667
boanahage,,01,-13.4113889,38.3644444
boane,,03,-23.415,35.2288889
boane,,04,-26.0416667,32.3252778
boanhine,,03,-21.7027778,34.0833333
boanine,,03,-21.6833333,34.0166667
boaze,,02,-24.0769444,32.4683333
boazi,,02,-24.0769444,32.4683333
bobacar,,03,-21.8383333,35.2902778
bobiane,,03,-23.0530556,35.0505556
boboane tovele,,03,-24.1022222,34.1058333
bobo,,02,-22.3594444,32.9605556
bobo,,03,-21.1363889,34.5816667
bobo,,09,-17.2463889,36.8436111
bobo,,10,-16.4752778,33.8494444
boca,,05,-19.9855556,34.115
bocada,,02,-23.3008333,32.5077778
bocoda,,02,-21.5688889,32.8958333
bocota,,03,-21.2022222,34.4622222
boda,,05,-18.9833333,35.5833333
boda,,10,-20.1577778,33.4363889
bode,,07,-12.7227778,34.9522222
bode,,10,-19.3263889,33.455
bodo,,10,-19.3127778,33.4352778
boela,,01,-12.0930556,40.2777778
boeroque,,05,-18.2666667,34.3816667
boeza,,05,-17.6588889,35.0283333
bofana,,05,-19.2969444,34.2280556
bofana,,08,-15.8911111,33.2216667
bogana,,09,-17.0736111,36.585
bogene,,05,-20.2677778,34.2138889
bogoda,,02,-23.3522222,32.3247222
bogotane,,03,-22.0,34.3833333
bogucha,,03,-24.0672222,35.1733333
bogude,,02,-23.8308333,32.2397222
boi,,01,-11.35,39.4833333
boi,,04,-24.9075,32.3011111
boila,,06,-16.1563889,39.8341667
bolacha,,06,-14.4866667,38.1358333
bolana,,04,-24.8130556,32.4644444
bolemedade,,03,-22.4180556,33.8194444
bolene,,02,-24.7341667,33.3719444
boloma,,10,-18.1166667,34.0
bolumetane,,03,-22.7777778,33.8258333
boma,,02,-24.6022222,32.835
boma,,04,-25.3666667,32.2
bomana,,04,-24.8591667,32.485
bomane,,07,-13.0580556,34.8619444
bomar,,07,-12.2088889,34.8730556
bomba,,05,-19.2,34.1166667
bomba,,08,-16.3016667,33.3044444
bombene,,04,-25.5333333,32.4333333
bombo,,04,-24.9125,32.5069444
bombofo,,02,-24.605,32.9102778
bomera,,01,-11.4916667,39.4522222
bomia,,01,-11.4113889,39.3466667
bomira,,01,-11.5030556,39.6741667
bomo,,10,-18.1486111,33.2066667
bompano,,05,-20.3011111,34.1794444
bompona,,08,-17.5627778,35.3283333
bomucuba,,04,-25.7694444,32.1552778
bonaaqui,,01,-12.2144444,39.3602778
bonaia,,07,-13.1663889,35.21
bonamar,,07,-12.2561111,35.1780556
bonda,,10,-19.0738889,33.3794444
bonde,,05,-18.7297222,34.3013889
bonde,,09,-17.3488889,37.4477778
bonde,,10,-19.6133333,33.6977778
bondia,,10,-21.1661111,33.8513889
bondoza,,03,-21.7088889,34.4791667
bondra,,10,-21.1661111,33.8513889
bone,,03,-23.1444444,34.4033333
bone,,04,-24.9705556,32.6569444
bonga,,06,-14.5747222,40.7777778
bonga,,07,-12.8066667,35.0291667
bonga,,08,-14.6102778,34.5416667
bonga,,10,-17.0336111,34.1358333
bongache,,03,-21.6008333,34.1186111
bongo,,03,-21.1302778,34.6011111
bongo,,05,-20.1338889,33.5991667
bongo,,08,-15.4941667,33.1055556
bongolo,,04,-24.5661111,32.2219444
bonguane,,03,-21.6166667,34.1833333
bongue,,09,-18.1666667,36.0
bonhane,,03,-22.03,34.4158333
boni,,07,-14.3972222,37.45
boni,,10,-20.0291667,33.3277778
bonja,,02,-24.4819444,33.0169444
bonomar,,07,-12.2561111,35.1780556
boquico,,03,-24.4575,34.7125
boquisso,,10,-19.4130556,33.4513889
boramo,,05,-17.8233333,34.3222222
bormuda,,09,-16.7530556,38.8794444
borolia,,01,-13.2952778,40.1297222
boroma,,08,-15.8077778,31.7461111
boroma,,09,-17.4452778,35.6597222
boromo,,02,-24.7566667,33.1972222
boronge,,09,-17.49,37.4752778
borra,,03,-21.9833333,34.2333333
borroane,,03,-21.4111111,34.8761111
bosco,,01,-13.3358333,40.1683333
bosene,,03,-24.1347222,34.9619444
bota,,03,-23.7786111,34.4061111
bota,,04,-25.4833333,32.5666667
bota,,07,-11.9855556,34.9033333
botane,,02,-21.6886111,33.1041667
botao,,05,-18.4569444,33.9388889
botao,,08,-15.1333333,31.4
botao,,09,-17.6147222,36.8058333
botera,,05,-20.1780556,34.3133333
botiro,,10,-20.7872222,33.5438889
botoro,,09,-15.7305556,36.32
botsuanine,,02,-24.9155556,33.7652778
bovana,,05,-20.0780556,34.1569444
bovane,,02,-24.1863889,32.7552778
boza,,02,-23.3497222,32.3163889
b. popular,,04,-25.9291667,32.4677778
braga,,09,-17.2705556,36.8397222
braimo,,01,-11.1511111,40.2241667
braimo,,06,-15.0163889,40.6219444
branco,,05,-18.45,35.4333333
branda,,06,-14.0038889,40.5513889
breza,,05,-19.2325,35.0680556
brigodo,,09,-17.6433333,37.2477778
brilo,,09,-15.8502778,36.4833333
brinca,,05,-18.0333333,35.4833333
brito,,09,-15.8502778,36.4833333
brocada,,02,-23.3008333,32.5077778
bruaio,,10,-19.0880556,33.5675
bruire,,05,-17.6416667,34.7405556
bruno,,06,-15.0813889,38.2669444
b santos,,09,-16.1713889,37.3505556
b. sebastiao,,03,-23.7086111,35.2886111
b. solomone,,03,-24.4297222,34.4508333
b. tomolane,,03,-24.7033333,34.5477778
b. triunfo,,04,-25.9244444,32.6344444
bua,,09,-16.8238889,37.7419444
buada,,09,-17.3111111,37.2427778
buana,,07,-12.9438889,35.5086111
buanado,,07,-12.6894444,35.8158333
buanamuchanga,,10,-20.2208333,33.2677778
buanar,,01,-11.275,39.2155556
buanato,,01,-13.1563889,38.9680556
buanaua,,09,-16.2783333,36.9511111
buane,,06,-14.1694444,38.8947222
buane,,07,-13.8094444,35.4269444
buanhe,,10,-19.2186111,33.0441667
buanuco,,01,-10.67,40.3994444
buba,,01,-11.4938889,39.6697222
bubuio,,02,-23.8625,33.3766667
bubuze,,05,-19.0405556,34.1130556
buca,,10,-21.4708333,33.1436111
bucha,,05,-17.5161111,34.6391667
bucha,,08,-15.6294444,32.9122222
buchane,,03,-21.6494444,34.8905556
buchua,,03,-24.4752778,34.7938889
bucire,,07,-12.7166667,37.9166667
buco,,04,-24.2941667,32.2547222
buco,,10,-20.3013889,32.9475
budamo,,01,-13.1886111,39.1566667
budula,,03,-21.3666667,33.95
bue,,05,-20.6375,34.9088889
buenausse,,07,-14.7105556,36.0247222
buena-uzi,,07,-14.8333333,35.9833333
buene,,03,-21.3602778,34.8997222
buesanho,,07,-12.7263889,34.8213889
bufana,,08,-16.3,31.8333333
bufana,,10,-19.0427778,33.7619444
bugaio,,05,-19.3666667,35.3833333
buiene,,04,-24.7308333,32.8386111
buissa,,10,-20.5877778,32.6336111
buissa-tudo,,02,-24.1008333,33.0516667
bulafo,,03,-22.3444444,35.0727778
bulande,,03,-21.4538889,34.9966667
bulane,,05,-20.0866667,33.7997222
bulau,,03,-22.7816667,35.0208333
bulau,,10,-16.8119444,33.3611111
bulaunde,,08,-16.2386111,33.1338889
buleia,,09,-15.7813889,36.1958333
bulela,,09,-16.1833333,37.7169444
bulemetane,,03,-21.5055556,34.8266667
bulimo,,08,-14.1366667,32.8763889
bulonhane,,03,-22.9327778,34.8275
bululeque,,04,-26.8166667,32.6
bulupo,,06,-14.7502778,40.6963889
bulussa,,01,-11.2613889,39.4522222
bundua,,10,-20.2188889,33.1
bundundo,,10,-19.2641667,33.0713889
bungane,,02,-24.8225,33.6991667
bungane,,03,-23.5594444,35.2136111
bunganhane,,02,-23.2147222,33.5041667
bungano,,05,-20.0119444,33.4861111
bunguane,,02,-24.8225,33.6991667
buquene,,02,-25.1469444,33.3372222
buquile,,04,-25.55,32.05
buramo,,10,-19.7252778,33.4522222
burice,,09,-17.4638889,37.1897222
burla,,06,-15.8777778,39.1152778
burramela,,09,-17.4608333,37.4541667
burrane,,03,-22.39,34.6044444
burreni,,02,-24.0997222,32.0305556
bussane,,02,-24.4052778,33.3691667
bussuanine,,04,-25.2755556,32.9875
bute,,05,-18.5166667,34.55
butiro,,08,-15.5011111,31.4263889
butiro,,10,-20.6730556,33.5344444
buto,,04,-25.2463889,32.2875
buto,,07,-14.6833333,35.9166667
buunhe,,05,-20.2688889,33.6833333
buva,,02,-24.8713889,32.9388889
buve,,04,-24.8702778,32.4852778
buzana,,10,-19.95,33.35
buzi,,05,-19.8813889,34.6008333
buzo,,04,-25.5641667,32.6283333
buzue,,05,-18.6438889,34.2116667
bzinsasso,,08,-16.1833333,33.1666667
cabaceira,,06,-14.9805556,40.7341667
cabaceira pequena,,06,-15.0011111,40.7661111
cabaia,,09,-17.6877778,37.2566667
cabaira,,08,-16.2,31.75
cabaisue,,08,-16.4,32.8666667
cabala,,03,-21.9919444,34.1680556
cabancunda,,08,-14.8241667,33.7502778
cabanga,,08,-14.4863889,33.9544444
cabango,,08,-14.5455556,34.2094444
cabe,,05,-21.2594444,34.2580556
cabeceira,,06,-14.575,40.655
cabeceiro,,06,-14.575,40.655
cabelane,,03,-21.6063889,34.6097222
cabeza,,04,-26.8175,32.4675
cabili,,07,-13.5411111,34.9380556
cabire,,01,-13.0861111,40.3411111
cabo alaue,,06,-13.7075,40.5477778
cabo aldeia maunza,,03,-23.975,35.4444444
cabo alia,,06,-13.5586111,40.5097222
cabo ali,,06,-13.6552778,39.9338889
cabo alicora,,06,-13.7797222,40.5719444
cabo ambuca,,03,-24.0816667,34.8325
cabo amisse,,06,-16.7538889,39.1397222
cabo amito,,01,-13.3894444,39.17
cabo anhane,,03,-23.2569444,35.3872222
cabo antonio,,01,-12.9122222,40.2208333
cabo antonio,,06,-13.5872222,40.0402778
cabo apacari,,06,-16.6044444,39.2447222
cabo apacarl,,06,-16.6858333,39.08
cabo assane,,06,-16.7783333,39.1391667
cabo atipo,,06,-16.5491667,39.3230556
cabo atussa,,01,-13.3352778,39.2672222
cabo bacar,,01,-13.475,39.1177778
cabo baiane,,03,-23.9052778,35.0027778
cabo bambo-cutchecua,,03,-23.1147222,35.1491667
cabo basso,,03,-23.3713889,35.4366667
cabo belane,,03,-22.6936111,35.2416667
cabo bembeluane,,03,-23.6119444,35.1930556
cabo benhane,,03,-23.6955556,35.0547222
cabo benzane,,03,-22.6155556,33.6375
cabo bilanhane,,03,-23.9347222,34.8727778
cabo boane,,03,-23.415,35.2288889
cabo bomba,,06,-14.8761111,39.0088889
cabo bongo,,03,-24.1116667,35.1955556
cabo boningo,,03,-23.5516667,35.1430556
cabo boquesuane,,03,-23.8,34.6772222
cabo boquisso,,03,-24.4575,34.7125
cabo bungane,,03,-23.5594444,35.2136111
cabo,,01,-12.9175,39.1838889
cabo,,03,-24.2294444,35.2261111
cabo cachane,,03,-22.1066667,35.3102778
cabo cairali,,06,-16.5961111,39.4
cabo caixote,,01,-13.5069444,39.2655556
cabo calangane,,03,-24.2755556,34.9508333
cabo camo camo,,03,-24.2363889,35.0711111
cabo carapo,,01,-13.4272222,39.2786111
cabo catahare,,06,-13.7963889,40.2191667
cabo catine,,02,-22.78,33.4158333
cabo catine,,03,-23.7419444,34.8838889
cabo cavala,,09,-16.1944444,38.3088889
cabo cavilo,,06,-16.6405556,39.2038889
cabo chacane,,03,-24.3083333,34.8963889
cabo chalauane,,03,-24.3763889,34.8136111
cabo chandane,,03,-23.6683333,35.3880556
cabo chembanda,,03,-21.7419444,34.3841667
cabo cheocule,,03,-23.7569444,35.1758333
cabo chereque,,06,-14.3561111,39.5325
cabo chiacho,,03,-23.6630556,35.1883333
cabo chiambo,,03,-24.1094444,35.0386111
cabo chibobochila,,03,-23.4952778,35.3419444
cabo chichavane,,03,-21.6030556,34.5452778
cabo chichocane,,03,-22.1836111,35.2788889
cabo chichole,,03,-23.5694444,35.1175
cabo chicote,,01,-13.5044444,39.7813889
cabo chicuarro,,03,-23.79,35.0741667
cabo chicungussa,,03,-23.5066667,35.2266667
cabo chifuio,,03,-23.0527778,35.3052778
cabo chiguelane,,03,-23.6516667,35.2647222
cabo chihuhuane,,03,-24.2097222,34.5644444
cabo chilacua,,03,-23.3591667,35.3941667
cabo chilamo,,01,-13.5966667,39.1405556
cabo chilomo,,03,-22.7911111,35.0447222
cabo chimangane,,03,-23.6516667,35.1038889
cabo chimobo,,01,-13.8488889,39.3580556
cabo chionzele,,03,-24.4222222,34.4397222
cabo chipongo,,03,-23.0680556,35.3986111
cabo chipumbo,,03,-22.9061111,35.0886111
cabo chiravala,,03,-22.0588889,35.2855556
cabo chirrenguete,,03,-23.8286111,35.0269444
cabo chirreu,,03,-24.3827778,34.8719444
cabo chissidane,,03,-23.4069444,35.3930556
cabo chitave,,03,-24.4602778,34.9230556
cabo chitsotso,,03,-23.9019444,34.9738889
cabo chivalo,,03,-24.2005556,34.5327778
cabo cobacabana,,03,-24.0702778,34.7163889
cabo cochanhane,,03,-23.5738889,34.9886111
cabo cocoene,,03,-23.5383333,35.2041667
cabo colete,,01,-13.55,39.2861111
cabo como,,03,-23.7375,34.9683333
cabo conguiane,,03,-23.8286111,35.5158333
cabo correia,,06,-14.6652778,39.1225
cabo covane,,03,-23.9480556,35.2091667
cabo cuaguana,,03,-24.3530556,35.2794444
cabo cucua,,03,-24.3833333,34.5780556
cabo culuavalala,,03,-23.1272222,34.6463889
cabo cunane,,03,-23.0013889,35.2691667
cabo cupo,,03,-23.5547222,34.1016667
cabo dalala,,03,-24.4027778,34.5211111
cabo daropa,,03,-24.445,35.1736111
cabo daulamaze,,03,-23.8311111,35.0636111
cabo dimande,,03,-23.6877778,35.1661111
cabo dimande iii,,03,-23.2977778,35.0269444
cabo dindane,,03,-23.7013889,35.2211111
cabo docolo,,03,-22.2033333,35.0013889
cabo dorete,,03,-23.7541667,35.0961111
cabo dzimane,,03,-23.8977778,34.9111111
cabo eduardo,,06,-13.8461111,39.52
cabo elapoioa,,01,-13.6538889,39.2152778
cabo elimue,,06,-13.9313889,39.7463889
cabo empope,,03,-24.1183333,34.7552778
cabo fequete,,03,-22.0275,35.2202778
cabo fernando,,01,-13.3697222,39.2086111
cabo f. nhanale,,03,-23.9969444,35.3813889
cabo funhalouro,,03,-23.1102778,34.3730556
cabo funzo,,03,-23.9505556,35.2375
cabo gadi,,03,-23.4161111,35.4233333
cabo gala,,03,-24.1708333,35.1772222
cabo gongane,,03,-23.2863889,35.3975
cabo guebele,,03,-23.0355556,35.115
cabo guiconela,,03,-24.1627778,35.3936111
cabo guicundo,,03,-24.1508333,35.2280556
cabo guilanque,,03,-23.6683333,35.3311111
cabo guimereco,,03,-24.0955556,35.2633333
cabo guinjata,,03,-24.0672222,35.4752778
cabo guizugo,,03,-23.3902778,35.3783333
cabo guja,,03,-23.7411111,35.3494444
cabo gulela,,03,-24.4847222,35.0555556
cabo gurguema,,03,-24.1847222,35.2447222
cabo gustavo,,06,-13.9358333,39.8838889
cabo guzuza,,03,-23.8280556,35.1058333
cabo haque,,03,-23.4308333,35.3861111
cabo hussene,,09,-16.8016667,38.5061111
cabo imbia,,03,-23.5355556,35.3772222
cabo indude,,03,-24.0661111,35.3244444
cabo ingele,,06,-13.9302778,39.8741667
cabo inhaloi,,03,-23.0952778,35.2641667
cabo inhapupo,,03,-23.9616667,35.0186111
cabo inhaulane,,03,-23.8336111,34.8941667
cabo inlato,,01,-13.5719444,39.1186111
cabo inticua,,06,-13.9936111,39.2461111
cabo jagaia,,01,-13.8080556,38.9802778
cabo jago,,03,-24.2236111,35.1663889
cabo jamali,,06,-13.955,40.3569444
cabo jane,,03,-24.1786111,35.1588889
cabo jange,,03,-22.9377778,35.3130556
cabo jasse,,03,-23.0275,34.8441667
cabo joao,,06,-13.5566667,40.3633333
cabo jofane,,03,-21.3088889,34.2752778
cabo jose,,06,-13.9822222,40.2022222
cabo juliao,,03,-23.1916667,34.9788889
cabo lacamuatio,,06,-16.4252778,39.3075
cabo lapoinziva,,01,-13.3791667,39.2872222
cabo lavane,,03,-22.3722222,35.1833333
cabo leonzuane,,03,-23.3866667,35.0991667
cabo l. gumula,,03,-23.9913889,35.4791667
cabo licaca,,03,-24.2258333,35.31
cabo lilua,,06,-13.9694444,39.9872222
cabo lindela,,03,-24.0891667,35.2688889
cabo lino,,03,-23.2488889,35.4447222
cabo lipeque,,01,-13.5283333,39.8211111
cabo mabaiane,,03,-23.5916667,34.8008333
cabo mabelane,,03,-24.1980556,35.2458333
cabo mabote,,03,-22.0480556,34.1311111
cabo mabumbuza,,03,-22.9394444,35.4119444
cabo mabunguane,,03,-22.9386111,35.1636111
cabo macama,,09,-16.2136111,38.3536111
cabo macaneta,,03,-23.8216667,34.9630556
cabo macarribe,,01,-13.8766667,39.1305556
cabo macarringa,,03,-23.0827778,35.2238889
cabo macauze,,03,-24.1291667,34.9452778
cabo machaca,,01,-13.805,39.2794444
cabo machambo,,03,-24.3272222,34.7680556
cabo machoco,,03,-22.3483333,35.0361111
cabo machuquele,,03,-22.3175,35.4169444
cabo macovane,,03,-23.23,35.0244444
cabo macuacua,,03,-23.9675,35.4758333
cabo macunguela,,03,-24.3241667,35.2072222
cabo macupulana,,03,-24.4091667,35.0236111
cabo madaia,,03,-23.3377778,35.0477778
cabo madangela,,03,-23.6075,35.3136111
cabo madonga,,03,-24.2108333,35.3019444
cabo maerrembane,,03,-23.8258333,35.1733333
cabo maganda,,03,-23.8913889,35.1266667
cabo magoetela,,03,-23.8002778,35.19
cabo magola,,03,-23.9791667,35.2869444
cabo magumbela,,03,-24.1286111,35.2452778
cabo mahache,,03,-23.8508333,35.0277778
cabo mahala,,03,-23.8194444,35.1338889
cabo mahalamba,,03,-24.4488889,34.8183333
cabo mahalene,,03,-24.5047222,34.7969444
cabo mahangage,,03,-23.9627778,35.2925
cabo mahate,,03,-23.1905556,35.0480556
cabo mahavisse,,03,-23.1363889,35.0241667
cabo maheleni,,03,-23.7194444,34.4658333
cabo mahena,,03,-24.3302778,35.0713889
cabo mahocha,,03,-23.4630556,35.3588889
cabo mahula,,06,-14.125,39.6444444
cabo maiaice,,03,-24.0627778,35.0988889
cabo maimela,,03,-23.6302778,35.2222222
cabo maioane,,03,-24.1283333,34.8166667
cabo majongota,,03,-24.4938889,34.6086111
cabo majouo,,03,-23.7558333,35.2166667
cabo majuta,,03,-23.9819444,34.7272222
cabo malaia,,03,-23.5466667,35.3744444
cabo malamba,,03,-22.8025,35.4838889
cabo malate,,03,-23.7494444,35.1788889
cabo malebuane,,03,-23.9347222,35.3958333
cabo malela,,06,-14.6669444,39.3861111
cabo malembane,,03,-23.285,35.3358333
cabo malungo,,03,-23.775,35.1005556
cabo manavene,,03,-23.8563889,35.0625
cabo mangarrele,,03,-22.3705556,35.2883333
cabo mangoro,,03,-23.3886111,34.8819444
cabo mangorro,,03,-24.4725,34.8905556
cabo manhaucela,,03,-23.3669444,35.0208333
cabo manlela,,01,-13.4180556,39.1233333
cabo manusse,,03,-21.8252778,35.0036111
cabo mapanguelane,,03,-23.9586111,34.8877778
cabo mapanzeni,,03,-23.3422222,34.4902778
cabo mapassela,,03,-24.0480556,34.7880556
cabo maquetela,,03,-23.8477778,35.3019444
cabo mariano,,01,-13.7033333,38.7233333
cabo marima,,03,-24.4469444,34.4522222
cabo mario,,09,-16.205,38.2563889
cabo marrange,,03,-24.0336111,35.0463889
cabo marrinhela,,03,-23.79,35.1013889
cabo marrinjo,,03,-23.8436111,35.3905556
cabo marrucua,,03,-23.2055556,35.1669444
cabo marrugue,,03,-23.5277778,35.3933333
cabo marrule,,03,-23.2075,35.1272222
cabo massalane,,03,-23.1422222,34.47
cabo massasse,,03,-23.6891667,35.0969444
cabo massavane,,03,-24.0402778,35.4805556
cabo massemane,,03,-24.0411111,34.6655556
cabo mata,,03,-23.5736111,35.4075
cabo matala,,03,-23.1663889,35.0086111
cabo matata,,01,-13.6452778,39.5816667
cabo matecheque,,03,-23.2072222,35.0227778
cabo matimpa,,06,-13.6411111,40.3263889
cabo matine,,03,-23.6702778,35.165
cabo matingane,,03,-23.3355556,35.3983333
cabo matlale,,03,-22.9591667,33.7202778
cabo mau,,03,-23.5780556,35.2905556
cabo maueua,,03,-23.7275,35.1480556
cabo maueve,,03,-23.9030556,35.2577778
cabo mavume,,03,-22.9711111,35.3108333
cabo mavunjane,,03,-24.3822222,34.9094444
cabo mazeuco,,03,-23.7783333,35.2202778
cabo mazonda,,03,-24.2841667,34.9730556
cabo mazucane,,03,-24.0961111,34.64
cabo mejuco,,06,-13.9480556,39.7208333
cabo menepa,,01,-13.8102778,39.4163889
cabo mepatia,,01,-13.5852778,39.9097222
cabo mepurra,,07,-14.4386111,36.9816667
cabo messine,,01,-13.6127778,39.8522222
cabo metucute,,06,-13.6733333,40.405
cabo meu,,03,-23.915,35.1202778
cabo micai,,06,-13.9580556,39.9341667
cabo mire,,01,-13.51,38.8122222
cabo m. murrongue,,03,-23.6244444,35.095
cabo modaucane,,03,-23.855,35.0683333
cabo mopia,,06,-13.8044444,40.4013889
cabo moria,,06,-13.9869444,40.4444444
cabo morrungulo,,03,-23.2211111,35.4622222
cabo mouzinho,,06,-13.8811111,39.5852778
cabo movamba,,03,-22.8602778,35.3163889
cabo muagui,,03,-23.4941667,35.3972222
cabo mualeia,,06,-13.8,39.6538889
cabo muanahumo,,06,-13.9780556,39.9483333
cabo muanona,,06,-13.9752778,39.8038889
cabo muanrojo,,01,-13.6783333,39.6738889
cabo muatelene,,06,-13.7988889,40.0902778
cabo muatimamba,,03,-24.0413889,34.7397222
cabo muave,,06,-16.4513889,39.1533333
cabo mubecua,,03,-24.0694444,35.0766667
cabo mucalaia,,06,-16.4741667,39.3561111
cabo mucalavana,,06,-16.5708333,39.3466667
cabo mucambe,,03,-23.3583333,35.185
cabo mucamisse,,06,-13.5230556,40.4808333
cabo muchache,,03,-23.2775,35.2472222
cabo muchipe,,03,-24.4777778,35.1397222
cabo muchirre,,03,-24.0205556,35.2827778
cabo muchungo,,03,-22.2563889,35.2808333
cabo mucocane,,03,-24.1397222,34.4980556
cabo mucumbane,,03,-22.7597222,35.2441667
cabo mudussua,,03,-23.2486111,35.3469444
cabo mugome,,03,-24.0566667,34.8525
cabo mugonze,,03,-21.9041667,35.1408333
cabo muia,,01,-13.3736111,39.4861111
cabo muipita,,06,-13.9816667,39.2388889
cabo mulaca,,06,-16.6616667,39.0447222
cabo mulogiua,,06,-16.4269444,39.1775
cabo munda,,01,-13.5633333,39.7030556
cabo mungongo,,03,-24.4197222,34.4761111
cabo munisai,,06,-13.7655556,40.2938889
cabo murenze,,03,-22.9772222,35.3886111
cabo murriane,,03,-22.2002778,35.2677778
cabo murri,,03,-22.9569444,35.4277778
cabo mussana,,03,-24.4080556,34.6788889
cabo mussinta,,06,-14.7688889,39.0677778
cabo muvique,,03,-23.9966667,34.9438889
cabo nacache,,06,-13.9852778,40.0783333
cabo nacoto,,06,-13.8780556,39.48
cabo naiene,,03,-23.5311111,34.8038889
cabo naila,,03,-24.48,34.5580556
cabo nairra,,06,-16.5352778,39.2094444
cabo nalava,,01,-13.4586111,39.3052778
cabo nametarramo,,06,-13.8041667,40.0608333
cabo namexequelia,,06,-13.6916667,39.9369444
cabo namicoi,,06,-13.8111111,39.8708333
cabo namirau,,06,-14.7027778,39.0294444
cabo namirrupa,,06,-14.5713889,39.4944444
cabo nancopue,,06,-13.9277778,40.0016667
cabo nauaxa,,06,-13.8777778,39.8944444
cabo nhabacal,,03,-23.2444444,35.4075
cabo nhabundo,,03,-23.7777778,35.2261111
cabo nhachocho,,03,-24.07,35.1277778
cabo nhachota,,03,-23.6202778,35.3727778
cabo nhacogo,,03,-23.6041667,35.33
cabo nhafunguane,,03,-24.0136111,34.9016667
cabo nhaguiua,,03,-23.8397222,35.5086111
cabo nhalevilo,,03,-24.4605556,34.7358333
cabo nhambiua,,03,-23.8097222,35.3347222
cabo nhamua,,03,-23.8136111,35.4986111
cabo nhamuessa,,03,-24.3863889,35.0619444
cabo nhancololo,,03,-24.4372222,35.0605556
cabo nhapadiane,,03,-24.4225,34.6363889
cabo nhatave,,03,-24.4,34.7680556
cabo nhatumbo,,03,-24.4338889,35.0213889
cabo nhavova,,03,-23.6277778,35.3291667
cabo nhengue,,03,-23.8161111,35.2041667
cabo nicapa,,06,-14.195,39.3502778
cabo nicua,,01,-13.5466667,38.7594444
cabo nicula,,01,-13.7211111,39.3611111
cabo niico,,06,-14.925,39.2330556
cabo nivira,,06,-13.8941667,39.6586111
cabo novela,,03,-23.1063889,35.0997222
cabo n' repo,,01,-13.5761111,38.8366667
cabo ongonhane,,03,-23.4905556,35.2788889
cabo pacala,,06,-13.9161111,39.7966667
cabo pacia,,01,-13.9683333,39.0086111
cabo paindana,,03,-24.0811111,35.4719444
cabo papatane,,03,-22.5047222,33.8647222
cabo paraca,,06,-16.5536111,39.4861111
cabo paraua,,01,-12.7869444,40.2025
cabo paula,,01,-13.3619444,39.3494444
cabo pindezula,,03,-24.0541667,34.9619444
cabo pop,,03,-24.0286111,34.69
cabo primeiro,,03,-23.5583333,35.3277778
cabo puana,,01,-13.6205556,39.2311111
cabo pululo,,03,-23.5561111,34.6466667
cabo queme,,03,-23.3830556,35.3280556
cabo racao,,01,-13.6205556,39.2394444
cabo raice,,06,-16.4327778,39.1552778
cabo ramassane,,01,-13.3844444,39.1397222
cabo ramos,,06,-13.9891667,39.3575
cabo rava,,03,-24.2586111,35.2588889
cabo reritiaca,,01,-13.4930556,39.0919444
cabo rila,,06,-14.4716667,39.9952778
cabo rocha,,06,-13.9405556,39.9302778
cabo rolane,,03,-21.5036111,34.4319444
cabo rovene,,03,-23.3883333,35.3958333
cabo ruania,,06,-14.2883333,39.5383333
cabo rucunua,,06,-16.7522222,39.1111111
cabo rumela,,06,-13.8141667,40.1227778
cabo russia,,01,-13.6088889,39.5080556
cabo ruvala,,03,-23.6972222,35.3636111
cabo saguate,,06,-13.8336111,39.7030556
cabo sefane,,03,-23.7397222,35.1144444
cabo sehane,,01,-13.3163889,39.4075
cabo selenca,,03,-23.0622222,35.2966667
cabo senduza,,03,-24.4311111,34.5788889
cabo seta,,06,-13.9725,39.7958333
cabo sitila,,03,-23.1563889,35.0530556
cabo subuana,,01,-13.4719444,39.0141667
cabo sura,,01,-13.4713889,39.3697222
cabo tambajane,,03,-23.4983333,35.1863889
cabo tambanjane,,03,-23.7175,34.7613889
cabo tapuata,,06,-13.9586111,39.3958333
cabo tevele,,03,-23.0866667,35.4402778
cabo tiquelia,,01,-13.6327778,39.1936111
cabo tomas,,09,-16.7955556,38.6380556
cabo tome,,03,-22.5386111,34.2438889
cabo trocue,,01,-13.5286111,39.9125
cabo tsemane,,03,-22.8144444,34.0238889
cabo tsinela,,03,-23.1319444,35.3927778
cabo uacate,,06,-13.9630556,39.8447222
cabo uaconha,,06,-14.6361111,39.0691667
cabo uarrapa,,01,-13.5025,39.2025
cabo uarruma,,01,-13.6172222,39.4869444
cabo uela,,01,-13.5541667,38.8555556
cabo uiane,,03,-22.9786111,35.0494444
cabo uputo,,03,-24.0227778,35.2327778
cabo ussene,,06,-13.9672222,40.1055556
cabo vahocha,,01,-13.5894444,39.8730556
cabo vailale,,06,-16.4319444,39.3480556
cabo vajulo,,06,-13.8061111,40.0111111
cabo varavate,,06,-13.9494444,39.8669444
cabo vavati,,03,-23.7713889,35.0405556
cabo vembane,,03,-23.7613889,35.1888889
cabo vicente,,06,-13.7855556,39.7316667
cabo xuxululo,,03,-24.2983333,35.3044444
cabo zilo,,03,-23.0583333,35.1394444
cabremunde,,10,-16.8466667,33.5319444
cabuameluzi,,08,-15.6666667,31.1666667
cabueza,,08,-14.7861111,34.4247222
cabuire,,09,-17.5819444,37.2769444
cabulire,,08,-16.2922222,33.6375
cabulo,,06,-15.3619444,38.7013889
cabuluzi,,08,-14.5402778,34.3286111
cabunxe,,08,-15.7958333,32.0569444
cabunze,,08,-15.7958333,32.0569444
caburo,,08,-15.5233333,30.9666667
cacador,,05,-18.2922222,35.9541667
cacaira,,09,-18.7,36.2333333
cacamira,,10,-19.0897222,33.3491667
cacate,,01,-11.3516667,39.5086111
cacepondo,,04,-25.35,32.2
cacetete,,08,-15.0833333,31.4666667
cachaca,,02,-23.9130556,33.0116667
cacha,,02,-22.3566667,33.3644444
cachali,,01,-12.9008333,38.5563889
cachana,,10,-19.1333333,33.65
cachane,,03,-21.5922222,35.0280556
cachau,,05,-17.7963889,34.355
cacheche,,08,-15.8333333,31.05
cachembe,,01,-11.1708333,39.8883333
cachene,,08,-14.5833333,34.4763889
cachengule,,01,-11.8658333,40.1227778
cachepa,,07,-12.0,36.1
cachera,,05,-17.3152778,34.6541667
cachere,,08,-14.8425,34.2880556
cacheu,,08,-14.9502778,30.8388889
cachia,,08,-16.0,31.0666667
cachiba,,08,-14.6913889,34.1369444
cachigunde,,08,-16.0,32.1333333
cachimo,,01,-12.2461111,40.1769444
cachio,,08,-16.0,31.0666667
cachite,,09,-18.1166667,36.75
cachiteque,,02,-23.3811111,32.3677778
cachiza,,08,-14.9591667,31.6841667
cacholo,,03,-22.5186111,34.5138889
cachomba,,08,-15.0566667,31.8205556
cachombe,,08,-14.3938889,32.1969444
cachombo,,08,-15.0566667,31.8205556
cachua,,01,-11.4,39.6666667
cachur,,07,-13.4913889,35.3730556
cacicanhe,,05,-19.4,35.0
cacimo,,06,-15.4377778,40.0033333
cacimo,,07,-11.7594444,35.2461111
cacova,,07,-14.4,35.9
cacuangi,,07,-13.5402778,35.7977778
cacumba,,08,-15.8369444,33.4341667
cacutagona,,08,-14.9666667,34.5333333
cacuvela,,06,-14.5455556,40.4147222
cadalonga,,10,-17.1636111,33.2063889
cadas,,10,-19.3591667,33.2219444
cadduca,,10,-19.1758333,33.9011111
cadeado,,05,-17.54,34.9538889
cadeado,,10,-16.9325,34.6275
cadeira,,06,-15.6508333,39.6608333
cademera,,08,-16.8369444,33.1769444
cadi,,01,-12.9013889,40.22
cadir,,09,-17.6722222,37.0491667
cadjele,,04,-25.6833333,32.6
cado,,05,-17.5841667,34.7897222
cadona,,10,-16.9816667,34.7838889
caduco,,08,-14.6127778,31.8786111
cadzombe,,08,-14.6166667,34.5166667
caeiro,,06,-14.9086111,40.3508333
caera,,08,-15.7,34.3833333
caetane,,03,-21.7969444,34.8316667
caetano,,03,-21.3,34.45
caetano,,06,-14.3547222,40.2641667
caetano,,08,-15.965,33.0980556
caetano,,10,-18.7325,33.7177778
cafine,,04,-25.0833333,32.9
cafua,,08,-15.0697222,33.49
cafulande,,05,-19.3833333,35.3833333
cafulixa,,08,-16.4008333,32.9116667
cafuliza,,08,-16.4008333,32.9116667
cafumbe,,05,-17.6427778,34.6636111
cafumpe,,05,-18.9166667,34.9
cafumpe,,10,-19.1013889,33.5702778
cafunganedo,,10,-18.4947222,33.0683333
cagema,,09,-16.0288889,38.1116667
cagemba,,01,-12.4147222,40.2872222
cagoma,,08,-14.5847222,34.3488889
cagona,,07,-15.0819444,36.2641667
cagona,,08,-14.8169444,34.3966667
caguala,,09,-16.5541667,35.5361111
cagulameno,,08,-16.4894444,33.0841667
cagururo,,08,-15.3769444,33.1013889
cahiala,,01,-11.4333333,39.1833333
cahoo,,08,-15.7266667,32.8094444
cahora bassa,,08,-15.5666667,32.8333333
cahungo,,01,-11.9408333,39.5886111
caia,,04,-25.3166667,32.9666667
caia,,05,-17.8202778,35.3441667
caiaia,,06,-14.9822222,38.3538889
caiaia,,07,-13.9875,37.0011111
caiandxa,,08,-14.9697222,31.7863889
caiandza,,08,-14.9697222,31.7863889
caiave,,09,-17.0252778,36.7461111
caicui,,02,-22.9666667,32.0833333
caie,,02,-25.2013889,33.2788889
cailane,,03,-22.6972222,33.6075
caile,,03,-22.3847222,33.8475
caipendo,,02,-21.5116667,33.2433333
caira,,06,-15.4202778,40.2686111
cais de minerios,,04,-25.9566667,32.5033333
caisse,,01,-10.9666667,39.6333333
caissiu,,10,-20.7833333,33.3788889
caitomeia,,02,-24.2597222,33.7394444
caiua,,08,-15.5725,33.4625
caiunga,,07,-13.55,34.9666667
caixote,,07,-13.2188889,37.5358333
caixote,,08,-15.6891667,33.7888889
caixote,,09,-17.5761111,35.4388889
cajama,,07,-15.4375,36.0377778
cajananhe,,05,-20.3772222,34.0422222
cajolola,,01,-13.0975,38.2263889
cajomomba,,07,-12.2894444,36.1063889
cajula,,08,-15.5833333,31.1666667
cajuro,,07,-14.3166667,35.8666667
calaba,,09,-16.7836111,36.5447222
calaboico,,04,-25.4916667,32.3730556
calabouco,,01,-11.5766667,39.6591667
cala,,02,-22.0658333,32.2538889
cala,,03,-24.5833333,35.0
calacha,,09,-15.3713889,36.5547222
calacota,,07,-13.1686111,35.3202778
calagongo,,01,-11.4036111,39.8116667
calajulo,,06,-15.1802778,40.5958333
calalane,,03,-23.205,34.7761111
calamba,,07,-12.1263889,34.7766667
calambira,,08,-15.3255556,32.7152778
calambo,,01,-11.9980556,39.8958333
calambo,,07,-13.4105556,36.1113889
calamo,,05,-17.2255556,34.8277778
calamo,,07,-12.9558333,37.7975
calana,,06,-13.6441667,40.3675
calane,,04,-26.2477778,32.6425
calangadimbudi,,01,-11.3855556,40.0944444
calange,,07,-13.0866667,35.3863889
calanhama,,09,-18.06,35.9308333
calani,,01,-13.0658333,40.4072222
calata,,08,-16.6969444,33.3194444
calaua,,09,-15.8722222,36.3047222
calauane,,06,-14.0105556,40.2802778
calavalava,,01,-11.3636111,39.5541667
calavete,,08,-15.6,31.3197222
calavina,,10,-16.9002778,34.6872222
calayeta,,06,-15.7575,40.1383333
calaza,,04,-25.0947222,32.4255556
calbe lazaro,,03,-24.3497222,34.8986111
c. albino,,02,-25.0425,33.2525
calcao,,08,-14.935,31.5533333
calcao,,10,-19.2736111,33.1769444
caldas xavier,,08,-15.9830556,34.1897222
cale,,02,-25.2516667,33.1955556
calendele,,09,-16.1186111,35.9716667
calengane,,03,-24.2755556,34.9508333
caleva,,06,-15.3386111,38.535
calezave,,03,-22.3761111,34.4952778
calezera,,05,-18.6386111,34.28
calia,,06,-14.0980556,40.1277778
cali,,07,-13.4369444,36.0444444
calicamoio,,07,-11.6336111,35.1041667
calima,,01,-12.6102778,40.0694444
calima,,06,-15.2436111,38.9836111
calipa,,01,-11.5427778,40.1991667
calipa,,08,-14.9422222,34.5708333
cali pali,,08,-14.8677778,34.5711111
calipo,,06,-15.63,39.1047222
calissongole,,08,-14.5605556,34.1313889
caliua,,09,-17.4991667,37.6247222
caliuete,,08,-15.3055556,32.7375
caliza,,10,-17.5505556,33.8058333
caloa,,08,-15.0658333,34.0691667
calobue,,08,-14.4241667,34.3455556
calolo,,08,-15.8322222,32.0097222
caloma,,07,-12.6872222,35.0544444
calomba,,01,-10.6911111,40.2986111
calombe-lombe,,10,-17.2344444,33.1108333
calombo,,08,-15.8311111,32.1461111
calopola,,08,-16.1666667,32.1833333
caluloma,,07,-12.2522222,35.1797222
caluma,,07,-13.6991667,35.8072222
calumbeta,,07,-12.7033333,35.0525
calunduma,,01,-11.65,39.9547222
caluva,,01,-13.2391667,38.7977778
camacho,,03,-22.0597222,35.2041667
camacho,,05,-18.1216667,35.4538889
camacho,,09,-16.5030556,35.3661111
camaculo,,02,-24.2077778,33.6394444
camaculo,,06,-14.8394444,40.7644444
camaeno,,06,-15.8097222,39.2586111
camaino,,07,-14.4047222,37.2469444
camala,,01,-13.2405556,38.6938889
camala,,07,-14.6072222,36.6119444
camale,,01,-13.9413889,39.1944444
camale,,06,-14.2833333,39.2591667
camango,,08,-15.4619444,33.9086111
camanulo,,08,-15.0302778,33.6611111
camara,,09,-16.315,36.4866667
camau,,08,-14.5833333,34.5333333
camazicunga,,08,-15.4333333,30.4
camba,,01,-12.5822222,39.9769444
camba,,05,-17.7361111,35.2638889
camba,,08,-17.1108333,34.9308333
cambadi,,08,-14.9688889,32.2811111
cambage,,07,-13.1427778,35.2075
cambala,,01,-13.2238889,38.6747222
cambalame,,08,-16.2994444,33.6297222
cambana,,10,-20.03,33.3586111
cambane,,02,-24.4941667,32.7341667
cambane,,03,-23.8988889,35.0766667
cambane,,04,-25.1,32.8833333
cambanhane,,02,-24.5272222,33.5408333
cambanhane macuacua,,03,-24.095,34.02
cambanje,,08,-14.4816667,34.105
cambarame,,08,-15.85,31.1166667
cambeca,,10,-19.2402778,33.8225
cambe,,03,-21.7477778,34.0275
cambemba,,08,-17.3980556,35.11
cambene,,10,-16.4388889,33.6294444
cambeu,,08,-15.0341667,33.4186111
cambine,,03,-23.6272222,35.2336111
cambir,,01,-13.2530556,38.9533333
cambirene,,08,-15.355,31.8297222
cambo,,02,-24.7041667,32.8505556
cambo,,03,-22.5241667,34.9336111
cambola,,08,-17.2833333,35.1666667
cambona,,07,-11.7344444,36.2483333
cambota,,08,-17.2833333,35.1666667
cambui,,08,-15.6575,33.7922222
cambulane,,03,-21.6022222,34.145
cambulatsitsi,,08,-15.9830556,34.1897222
came,,09,-16.6277778,38.7483333
camechunjo,,08,-14.4536111,31.9641667
cameio,,06,-15.3097222,39.6027778
camela,,03,-21.5863889,34.9680556
camela,,06,-15.78,39.5269444
camelando,,08,-14.8786111,31.5841667
camelau,,03,-23.235,34.99
camele,,03,-23.3275,35.3322222
camera,,08,-17.5472222,35.2972222
camezane,,04,-26.6197222,32.7422222
camezembene,,04,-25.4094444,32.1405556
camiau,,05,-21.1363889,34.5172222
camidjar,,10,-19.0761111,33.5380556
camiga,,10,-19.3391667,33.0319444
camilo,,06,-14.3833333,39.9833333
camingodo,,01,-11.815,39.9355556
camino,,06,-15.4947222,39.9155556
camino,,09,-15.4930556,37.6747222
camira,,01,-11.78,40.2441667
camirisia,,07,-13.7208333,35.2572222
camisa,,03,-23.9,35.4366667
camisola,,04,-25.4333333,32.8833333
camisola,,09,-17.2572222,36.9863889
camisola,,10,-19.15,33.05
camo,,03,-24.0308333,35.3961111
camo-camo,,03,-22.8263889,34.4638889
camocamo,,04,-24.4683333,32.4444444
camoco,,06,-14.8511111,39.0261111
camocolo,,02,-23.4458333,32.6066667
camonguira,,08,-16.5658333,34.4725
camope,,01,-12.7994444,39.4802778
camosso,,05,-17.4188889,34.7886111
campange,,10,-16.7333333,34.2
campanhenhe,,01,-13.4533333,39.9897222
campapa,,08,-14.9997222,32.0411111
campata,,09,-16.7672222,35.3927778
campe,,06,-14.3027778,40.1008333
camphirimirongo,,08,-15.1011111,33.1377778
campinas,,02,-24.1133333,33.4502778
campino,,10,-16.5316667,33.8072222
campira,,05,-17.3138889,34.7144444
campira,,08,-15.0333333,33.3833333
campira,,09,-16.9833333,35.3
campiria,,09,-15.9080556,37.6452778
campito,,06,-15.1697222,39.4563889
campo,,09,-17.7608333,36.3291667
campombo,,08,-14.795,31.5308333
camuali,,01,-11.315,39.7055556
camuana,,06,-15.0755556,39.5505556
camuana,,07,-13.9263889,35.3105556
camuana,,09,-16.8813889,38.3291667
camuane,,03,-21.1497222,34.5163889
camueto,,06,-15.035,40.0352778
camueto,,09,-16.1,38.7333333
camuguine,,04,-25.4277778,32.8997222
camuguio,,02,-23.3494444,32.3466667
camulio,,08,-16.6308333,33.0997222
camunga,,05,-17.4480556,35.035
camunguine,,04,-25.4277778,32.8997222
camunho,,08,-16.8825,34.7508333
canabirepano,,10,-16.7952778,33.75
cana-cana,,08,-15.8775,34.115
canaco,,10,-20.0886111,33.3194444
canada dry,,04,-25.9402778,31.9911111
canahana,,02,-24.1833333,32.4905556
canalola,,06,-15.0136111,40.3266667
canama,,08,-14.7227778,34.2675
canameja,,06,-15.1366667,39.0338889
canavete,,08,-16.9475,34.8611111
canbeze,,02,-24.7,33.3
canca,,04,-24.9,32.5166667
cancamulo,,08,-14.9933333,33.4972222
canceve,,08,-15.2694444,31.8233333
canchali,,01,-12.9008333,38.5563889
cancope,,08,-16.1919444,33.7227778
cancumula,,08,-14.9933333,33.4972222
cancuni,,10,-16.6061111,33.5036111
canda,,05,-18.4855556,33.9808333
candaia,,07,-11.6166667,37.0
candane,,10,-20.2352778,33.2172222
candeado,,10,-19.3,32.9833333
candedza,,08,-15.5283333,33.7944444
candeeiro,,05,-18.6783333,34.045
candeeiro,,10,-19.4130556,33.5080556
candeia,,05,-17.56,35.0016667
candela,,03,-21.6611111,34.5594444
candia,,08,-16.2833333,32.8833333
candiado,,10,-19.3033333,33.0208333
candie,,08,-15.4994444,34.3413889
candieiro,,05,-18.7172222,33.6991667
candieiro,,09,-17.1002778,36.1838889
candini,,10,-19.3166667,32.8666667
candjane,,02,-23.9294444,33.4038889
candoma,,08,-14.5397222,34.4316667
candori,,08,-15.1166667,30.3833333
candulo,,07,-12.4627778,35.4033333
canduro,,07,-12.8797222,35.3202778
caneca,,06,-14.8480556,39.4930556
caneta,,06,-16.0283333,39.2627778
canetane,,03,-24.6386111,34.6330556
canga,,09,-17.2666667,37.5944444
cangalace,,04,-24.6677778,32.4222222
canganetole,,05,-18.4866667,34.49
canganibeu,,05,-19.2,35.55
cangari,,08,-16.2105556,33.6491667
cangauche,,06,-13.6305556,40.1341667
cangome,,08,-15.0402778,33.2561111
cangoto,,10,-17.8927778,33.2136111
canguo,,09,-17.2666667,37.5944444
canguro,,08,-14.8144444,32.98
canhaia,,06,-16.1772222,38.9858333
canhama,,01,-12.0672222,39.775
canhama,,08,-15.5333333,30.75
canhamba,,04,-26.0263889,32.9525
canhambiro,,08,-15.6555556,32.1127778
canhane,,02,-23.8602778,32.1011111
canhane,,04,-25.4,32.05
canhange,,10,-16.8630556,33.6941667
canhanguene,,04,-26.1833333,32.45
canhaua,,06,-14.8738889,38.6688889
canhaufe,,10,-19.0572222,33.1952778
canhavana,,03,-24.1088889,35.0152778
canhavane,,02,-24.6188889,33.5694444
canhavane,,03,-24.1088889,35.0152778
canhavano,,03,-21.9863889,34.3716667
canhavena,,03,-24.1088889,35.0152778
canhe,,04,-26.4822222,32.7216667
canhembanhemba,,08,-15.7647222,31.6211111
canhenza,,10,-17.5636111,33.2086111
canhese,,05,-18.9666667,34.1708333
canhese,,10,-19.3016667,33.5372222
canheua,,04,-26.5833333,32.15
canheze,,02,-24.7,33.3
canhimbe,,05,-17.3361111,34.8508333
canhimo,,08,-17.3169444,35.2525
canhini,,04,-24.695,32.1286111
canho,,09,-17.8961111,35.8327778
canhungue,,08,-17.3969444,35.2061111
caniaculo,,10,-16.7677778,33.8013889
caniaja,,06,-15.2677778,39.0577778
canicado,,02,-24.4975,33.0133333
canimala,,06,-15.1963889,39.5369444
canive,,08,-16.2311111,33.2638889
canivete,,05,-18.2111111,34.655
canivete,,08,-15.6,31.3197222
canivete,,09,-17.3963889,35.6244444
canjelane,,04,-25.3772222,32.8222222
canjiva,,08,-14.8941667,31.1183333
canjuane,,02,-22.775,33.4386111
canjueira,,10,-18.3991667,33.5152778
canlaua,,06,-16.5833333,39.2666667
canlula,,06,-15.9594444,39.4191667
canoara,,09,-17.5533333,37.1977778
canoato,,07,-11.7616667,35.1663889
canoca,,04,-26.0277778,32.1391667
c. a. novela,,02,-25.2222222,33.4313889
can pfumo,,04,-25.9652778,32.5891667
canquino,,08,-15.7072222,31.6505556
canroea,,06,-15.1230556,39.9502778
cansa,,06,-14.4947222,40.3358333
cansapo,,08,-15.3055556,32.7375
cansau,,08,-15.8544444,33.5647222
cansuana,,08,-14.7041667,34.3605556
cantafo,,08,-14.9841667,31.5744444
cantalia,,01,-13.3258333,39.8066667
cantanda,,01,-11.2777778,38.8938889
cantando,,01,-11.2777778,38.8938889
cantante,,07,-13.8875,37.5213889
cantateia,,09,-16.9963889,37.6866667
cantaule,,01,-10.9897222,39.8675
cantchali,,01,-12.8911111,38.3866667
cantchitche,,08,-16.9083333,34.8838889
cantchubua,,08,-15.0852778,33.4163889
cantehali,,01,-12.8911111,38.3866667
cantengo,,08,-14.9241667,32.23
cantepo,,08,-14.95,31.3833333
canteua,,06,-15.62,38.5711111
cantia,,01,-13.3772222,39.8397222
cantibe,,08,-14.4619444,34.1158333
cantiga,,06,-15.3063889,39.8194444
cantina,,02,-21.3188889,32.4180556
cantina de centro agricolo orizidola,,05,-18.1658333,35.8352778
cantine,,03,-22.8411111,34.4516667
cantine,,10,-19.1594444,33.6566667
cantoneiro,,01,-12.8661111,38.9847222
cantoneiro,,06,-16.2166667,39.5666667
cantoneiro,,09,-16.0730556,38.3930556
cantota,,06,-14.1436111,38.795
cantua,,07,-13.3786111,36.69
cantunda,,08,-17.315,35.2752778
canturo,,09,-16.6216667,37.8466667
cantxuco,,07,-12.1936111,34.8636111
canuerde,,09,-18.3,36.6666667
canueto,,09,-16.1,38.7333333
canum,,02,-24.9452778,33.2733333
canxindo,,08,-15.0644444,31.61
canxixe,,05,-17.5786111,34.3130556
canzeana,,04,-24.7438889,32.4325
canze,,05,-17.6477778,34.3119444
canzemane,,04,-25.65,32.5833333
canzindo,,08,-15.0644444,31.61
caocha,,09,-18.0630556,36.8108333
caolane,,03,-21.8027778,34.3663889
caolela,,02,-24.6275,33.9291667
caonda,,07,-13.6263889,35.1213889
caondo,,07,-13.6263889,35.1213889
caoxe,,09,-18.3225,36.0588889
capaca,,06,-15.8697222,38.9777778
capaja,,09,-16.9561111,38.0486111
capalalisa,,08,-16.1333333,32.8333333
capali,,01,-11.2055556,40.2177778
capamba,,07,-13.4819444,34.9161111
capamba,,10,-16.7252778,34.2752778
capanda,,08,-14.9611111,31.6388889
capane gavemande,,03,-24.4508333,34.4783333
capanga,,05,-17.0502778,34.5675
capanga,,08,-14.9166667,31.5
capanga,,10,-18.0833333,32.9666667
capangala,,08,-14.9175,31.5211111
capapa,,08,-14.9997222,32.0411111
caparga,,08,-17.1483333,34.9547222
capassi,,03,-22.2416667,34.9397222
capataz,,02,-24.6263889,33.3583333
capataz,,03,-22.7666667,35.1580556
capataz,,06,-15.3077778,40.2791667
capataz devia,,06,-15.0025,37.7677778
capatcha,,09,-15.3472222,37.1238889
capela,,02,-24.6116667,33.4186111
capelane,,03,-22.4075,34.6133333
capelelene,,06,-14.2786111,40.6597222
capenda,,08,-15.3413889,33.8919444
capenga,,05,-18.3,35.6666667
capeni,,08,-15.1636111,34.1308333
caper,,06,-14.0516667,38.9577778
capesse,,08,-16.3911111,33.7613889
capetera,,10,-18.6791667,33.3469444
capetine,,03,-21.9858333,33.7566667
capetine,,04,-24.7544444,32.1686111
capia,,07,-13.8744444,35.3008333
capice,,10,-20.9647222,32.6436111
capili,,01,-12.9,39.0833333
capiline,,02,-23.5994444,32.8263889
capinde,,01,-11.5127778,39.1925
capinde,,08,-15.0627778,31.8602778
capindo,,09,-16.39,35.7358333
capine,,01,-11.4333333,39.9333333
capingame,,07,-13.7622222,35.315
capinza-colio,,08,-14.5280556,34.0847222
capissuane,,08,-15.8666667,30.5666667
capitaciria,,08,-14.4911111,33.9075
capitaes,,09,-18.3997222,36.1127778
capitao,,09,-17.2786111,37.9419444
capitao-mor,,06,-15.1841667,40.1966667
capitine,,04,-24.7830556,32.1105556
capitine,,10,-20.6363889,33.5611111
capitula,,06,-15.5841667,40.0108333
capoca,,01,-11.7683333,39.8019444
caponda,,07,-12.9580556,35.4597222
caponda,,08,-14.8958333,34.3591667
caponga,,07,-13.4819444,34.9161111
caponha,,05,-18.2455556,35.8636111
capote,,08,-15.9333333,31.0833333
capouca,,07,-13.9891667,37.8897222
capovo,,08,-14.5944444,31.615
captine,,02,-22.3988889,33.1713889
capucha,,08,-15.7166667,31.9283333
capuia,,08,-15.6325,33.4544444
capula,,06,-14.1833333,39.9
capulo,,06,-13.9922222,40.3641667
capunga,,07,-11.6066667,35.2666667
capungo,,07,-11.6066667,35.2666667
capungua,,07,-13.7055556,35.2608333
capunha,,05,-19.5205556,35.0169444
capunja,,01,-11.4019444,39.3080556
caputine,,02,-24.1830556,32.3283333
caputine,,04,-26.7025,32.3302778
caquelele,,07,-15.2244444,36.1144444
caqui,,05,-20.2972222,33.6944444
caqui,,06,-14.5108333,38.8313889
carabandua,,05,-19.2302778,34.3233333
carabanga,,01,-12.3955556,39.1833333
carabina,,05,-18.3727778,34.1686111
carabuca,,08,-14.6580556,32.1886111
cara,,10,-20.6605556,32.8663889
caraia,,01,-13.0877778,39.1294444
caramaca,,09,-16.95,39.1
carama,,06,-15.1572222,39.0197222
caramaja,,06,-15.1366667,39.0338889
carambo,,08,-16.2275,33.9036111
carangane,,02,-22.5544444,31.6269444
carapira,,06,-14.9175,40.2225
caravina,,10,-16.7469444,33.3422222
carazansua,,10,-18.7305556,33.2869444
cardoa,,09,-17.4872222,35.6727778
cardoso,,05,-18.1677778,35.5402778
cardoso,,06,-14.6141667,40.5283333
cardoso,,07,-14.3241667,35.6611111
cardoso,,09,-15.4527778,37.3722222
cardozo,,09,-18.0827778,35.9869444
carei,,06,-16.2877778,39.4327778
cariata,,06,-14.7188889,37.2230556
caricanhi,,10,-19.7066667,33.0291667
carico,,06,-14.8744444,38.5105556
carico,,09,-16.0608333,36.0769444
carieto,,06,-15.8516667,39.0883333
cariguimbe,,07,-13.8708333,35.4702778
carimbo,,06,-15.2891667,38.6038889
carimo,,06,-14.6511111,39.9511111
carimo,,07,-13.435,36.6641667
carinde,,08,-15.6666667,31.3166667
carioafa,,08,-15.0244444,34.1530556
cariramo,,08,-14.7952778,32.9386111
carissera,,10,-18.9894444,33.6594444
cariua,,09,-17.2416667,37.2025
carizo,,10,-18.8863889,33.2158333
carlos,,02,-23.7816667,33.3625
carlos,,03,-23.4344444,35.4222222
carlos,,04,-24.2963889,32.0225
carlos,,06,-15.6408333,39.3408333
carlos,,10,-16.9191667,34.7269444
carlos chitofo,,03,-24.5402778,34.5536111
carlos faela,,03,-24.6711111,34.4911111
carlos xicolove,,03,-24.1883333,34.6313889
carmona,,02,-24.1719444,33.6191667
carmoto,,07,-13.3419444,37.5172222
carneiro,,10,-19.7144444,33.2475
caroeira,,08,-16.2536111,33.5605556
caromano,,09,-15.2963889,37.3377778
caromia,,06,-15.0855556,38.6880556
caronga,,07,-14.9513889,36.1625
carota,,07,-13.3875,36.5213889
carpinteiro,,06,-16.3019444,39.065
carpinteiro,,09,-16.0558333,38.085
carramali,,09,-17.2733333,37.9669444
carramo,,01,-12.2861111,39.9772222
carramo,,06,-14.9672222,40.3225
carrarre,,04,-25.1919444,32.1761111
carrau,,07,-14.7283333,36.765
carreca,,01,-13.4038889,40.3197222
carre,,02,-24.8916667,33.6244444
carreira,,07,-14.7938889,35.9680556
carreira de tiro,,02,-24.4638889,33.0238889
carrequene,,07,-14.9225,35.9430556
carriana,,01,-12.4733333,40.3138889
carrica,,06,-14.5833333,38.2833333
carrico,,07,-14.9602778,36.7341667
carrico,,09,-15.4130556,36.9194444
carrimo,,01,-12.3891667,40.2638889
carrindela,,03,-23.8713889,34.6911111
carroa,,06,-13.995,39.9091667
carroga,,09,-17.3630556,37.5216667
carronga,,07,-14.9513889,36.1625
cartaxo,,02,-24.2911111,32.8830556
cartoneiro,,01,-12.9566667,38.9813889
carua,,08,-15.7308333,33.2872222
carumba,,08,-15.1252778,30.2638889
carungo,,09,-17.9569444,36.8175
carvalho,,03,-21.5372222,35.4738889
carvalho,,05,-18.1430556,35.4502778
casaco,,05,-18.7361111,34.3038889
casado,,10,-16.7858333,34.1897222
casa jagu,,06,-14.3405556,40.5180556
casamuia,,03,-21.6663889,34.4655556
casamuia,,05,-21.01,34.0825
casamuia,,10,-20.7833333,33.7708333
cascado,,09,-17.1702778,38.0180556
case,,04,-24.8763889,32.3086111
casembe,,07,-12.8994444,34.9861111
casembe,,08,-16.0,31.0833333
casimiro,,02,-23.9358333,32.5961111
casimiro,,06,-14.5380556,39.3838889
casingamuca,,08,-15.9333333,31.0833333
casita,,08,-14.4969444,33.9594444
casquinha,,05,-18.5677778,35.6591667
casquira,,08,-16.4533333,33.1766667
cassa,,08,-16.0666667,32.95
cassama,,06,-15.9688889,39.1080556
cassamba,,08,-15.1,30.6333333
cassambalanje,,08,-14.6238889,31.7255556
cassamo,,01,-12.2444444,39.9977778
cassamo,,03,-21.4208333,34.6166667
cassamo,,06,-13.7169444,39.6975
cassamo,,08,-17.5369444,35.1858333
cassana,,04,-25.9816667,32.5252778
cassane,,04,-26.5691667,32.4019444
cassane,,07,-13.1375,36.0058333
cassange,,07,-13.4388889,36.4755556
cassanha,,08,-16.3283333,33.7616667
cassanjika,,08,-15.5886111,33.2166667
cassapa,,08,-15.6333333,34.45
cassaramo,,09,-15.62,36.7322222
casseira,,05,-19.7,34.9166667
cassembe,,07,-13.4222222,36.1963889
cassenga,,01,-10.8638889,40.3213889
cassenga,,08,-14.8897222,30.835
cassenga,,09,-18.55,36.2333333
cassengo,,08,-14.7002778,31.3444444
cassepa,,08,-14.8869444,30.8269444
cassero,,07,-13.1380556,36.5602778
cassia,,01,-13.6066667,38.8838889
cassiano,,08,-15.2755556,30.4183333
cassicasse,,09,-17.235,37.1719444
cassimo,,01,-11.2380556,39.91
cassimo,,06,-13.9788889,39.1808333
cassimo,,07,-13.4461111,34.9316667
cassimo,,09,-16.5286111,38.735
cassimueto,,01,-12.1988889,39.9725
cassinga,,08,-14.8333333,31.3
cassinge,,08,-16.8836111,34.7525
cassora,,08,-15.3641667,33.0325
cassossole,,08,-15.3686111,33.8108333
cassume,,05,-17.3691667,34.5825
castanheira,,04,-25.3780556,32.9252778
casteano,,09,-17.4941667,35.8025
castelo,,06,-14.4916667,40.4505556
castigo,,03,-21.8872222,35.0958333
castigo,,05,-21.0302778,34.8666667
castigo,,09,-17.5844444,37.3922222
castle,,06,-14.4916667,40.4505556
castro,,07,-14.2563889,35.8580556
casua,,09,-15.7227778,38.1527778
casula,,08,-15.3930556,33.6327778
catambica,,10,-18.0575,33.1736111
catambo,,01,-13.4341667,38.4838889
catambo,,08,-14.5302778,34.1113889
cat. americana,,03,-24.7327778,34.3666667
catamoio,,06,-16.3,39.8666667
catandica,,10,-17.3358333,33.0530556
catane,,08,-14.8516667,32.8377778
cat. anglicana,,02,-24.8066667,34.2661111
cat. anglicana,,03,-24.0180556,35.1983333
catangula,,09,-17.3180556,37.4452778
catanguro,,08,-16.8994444,34.8341667
catarre,,06,-13.7963889,40.2191667
catarrua,,06,-15.6136111,39.2775
catau,,10,-19.1461111,33.7111111
catava,,06,-14.5758333,40.5102778
catavinha,,08,-16.395,33.2177778
cataxa,,08,-15.9386111,33.0977778
cat. baptista,,03,-24.6622222,34.6597222
catchave,,06,-14.5536111,40.53
catcheualho,,08,-16.6605556,33.0602778
catchoco,,09,-15.4177778,37.5702778
catchunga,,07,-13.095,35.6394444
cat. congrecacional,,03,-24.4088889,34.6613889
cat. congregacional,,03,-24.0452778,34.9808333
