names,population,state_code,lat,lon
abbotsford,,02,-33.85,151.133333
abbotsham,,06,-41.216667,146.183333
abbotts,,08,-26.316667,118.383333
abercorn,,04,-25.15,151.033333
abercrombie,,02,-33.95,149.316667
aberdare,,02,-32.833333,151.366667
aberdeen,,02,-32.166667,150.9
aberfeldy,,07,-37.683333,146.366667
aberfoyle,,02,-30.266667,152.016667
aberglasslyn,,02,-32.7,151.533333
abermain,,02,-32.816667,151.433333
abermain,,04,-27.566667,152.783333
abernethy,,02,-32.9,151.4
abington,,02,-30.283333,151.183333
abington creek,,02,-30.283333,151.183333
acacia creek,,02,-28.383333,152.316667
acacia ridge,,04,-27.583333,153.033333
acheron,,07,-37.25,145.7
ackland,,04,-27.3,151.683333
adaminaby,,02,-36.05,148.716667
adamsfield,,06,-42.733333,146.316667
adavale,,04,-25.916667,144.6
addington,,07,-37.383333,143.683333
adelaide,1074168,05,-34.933333,138.6
adelaide lead,,07,-37.066667,143.683333
adelaide river,,03,-13.25,131.1
adelong,,02,-35.316667,148.05
adjungbilly,,02,-35.1,148.383333
advancetown,,04,-28.066667,153.266667
adventure bay,,06,-43.366667,147.333333
afterlee,,02,-28.583333,152.816667
agery,,05,-34.166667,137.733333
agnew,,08,-28.083333,120.5
ailsa,,07,-36.333333,142.35
aireys inlet,,07,-38.466667,144.1
airly,,07,-38.033333,147.116667
aitkenvale,,04,-19.283333,146.8
ajana,,08,-27.95,114.633333
alagala,,02,-32.4,147.7
alambee,,07,-38.266667,146.033333
alanvale,,06,-41.3875,147.116667
alawoona,,05,-34.733333,140.516667
albacutya,,07,-35.816667,142
albany,23913,08,-35.016944,117.891667
albany creek,,04,-27.35,152.983333
albert,,02,-32.35,147.5
alberton,,04,-27.7,153.25
alberton,,06,-41.266667,147.783333
alberton,,07,-38.616667,146.666667
alberton west,,07,-38.6,146.6
albion,,07,-37.766667,144.833333
albion park,,02,-34.566667,150.783333
albury,104261,02,-36.083333,146.916667
alcomie,,06,-40.916667,145.183333
aldavilla,,02,-31.083333,152.766667
aldershot,,04,-25.466667,152.666667
aldersyde,,08,-32.383333,117.266667
aldgate,,05,-35.016667,138.733333
aldinga,,05,-35.283333,138.483333
alectown,,02,-32.933333,148.25
alexandra,,04,-21.166667,149.1
alexandra,,07,-37.183333,145.7
alexandra-mooloolaba,,04,-26.683333,153.116667
alford,,05,-33.816667,137.816667
alfredton,,07,-37.566667,143.816667
alfred town,,02,-35.166667,147.516667
algalah,,02,-32.4,147.7
alice,,02,-29.05,152.583333
alice,,04,-23.566667,145.8
alice springs,26188,03,-23.7,133.883333
allambee,,07,-38.266667,146.033333
allambee south,,07,-38.35,146.1
allan,,04,-28.2,151.95
allanby,,07,-36.15,141.9
allandale,,02,-33.166667,149.7
allandale north,,05,-34.3,138.916667
allans flat,,07,-36.266667,146.9
allansford,,07,-38.4,142.583333
allanson,,08,-33.333333,116.1
alleena,,02,-34.083333,147.133333
allendale,,07,-37.366667,143.933333
allendale east,,05,-38.016667,140.7
allendale north,,05,-34.3,138.916667
allen siding,,06,-40.966667,145.633333
allestree,,07,-38.283333,141.65
alligator creek,,04,-21.333333,149.2
alligator heads,,03,-12.483333,131.583333
allingham,,04,-18.666667,146.25
allora,,04,-28.033333,151.983333
allworth,,02,-32.55,151.95
alma,,05,-34.266667,138.633333
alma,,07,-37.033333,143.683333
alma creek,,04,-23.916667,150.283333
almaden,,04,-17.333333,144.683333
almonds,,07,-36.2,145.966667
almurta,,07,-38.45,145.566667
almurta east,,07,-38.466667,145.583333
alonnah,,06,-43.316667,147.25
aloomba,,04,-17.116667,145.833333
alpha,,04,-23.65,146.633333
alpine,,02,-34.416667,150.516667
alston,,02,-33.983333,148.983333
alstonville,,02,-28.833333,153.433333
altona,,05,-34.6,138.916667
altona,,07,-37.866667,144.833333
alton,,04,-27.983333,149.316667
alton downs,,04,-23.3,150.35
alumny creek,,02,-29.65,152.95
alumy creek,,02,-29.65,152.95
alva,,04,-19.45,147.483333
alvie,,07,-38.233333,143.5
alyangula,1289,03,-13.848333,136.419167
amamoor,,04,-26.35,152.683333
amaroo,,02,-33.183333,148.933333
amata,,05,-26.166667,131.15
amberley,,04,-27.633333,152.7
ambrose,,04,-23.8,150.933333
amby,,04,-26.55,148.183333
american river,,05,-35.783333,137.766667
amery,,08,-31.15,117.083333
amherst,,07,-37.15,143.666667
amhurst,,04,-21.066667,149.233333
amiens,,04,-28.583333,151.816667
amity point,,04,-27.4,153.433333
amosfield,,02,-28.65,152.066667
amos quarries,,04,-23.75,150.833333
amphion,,08,-32.766667,116.2
amphitheatre,,07,-37.166667,143.416667
amyton,,05,-32.6,138.333333
anakie,,04,-23.55,147.75
anakie,,07,-37.916667,144.25
ancona,,07,-36.983333,145.816667
andergrove,,04,-21.083333,149.183333
anderson,,07,-38.533333,145.45
ando,,02,-36.716667,149.25
andover,,06,-42.333333,147.45
androssan,,05,-34.433333,137.9
anduramba,,04,-27.15,152.1
angas plains,,05,-35.35,139
angaston,,05,-34.5,139.033333
angas valley,,05,-34.766667,139.3
angellala,,04,-26.4,146.9
angip,,07,-36.1,142.233333
angledale,,02,-36.616667,149.883333
angledool,,02,-29.116667,147.933333
anglesea,,07,-38.416667,144.166667
anglesea river,,07,-38.416667,144.166667
angle vale,,05,-34.633333,138.65
angustown,,07,-36.7,145.1
anna bay,,02,-32.766667,152.066667
annadale,,05,-34.4,139.333333
annalera,,02,-31.283333,143.983333
annandale,,02,-33.883333,151.166667
annelera,,02,-31.283333,143.983333
annuello,,07,-34.85,142.833333
anthony,,04,-27.883333,152.666667
antigua,,04,-25.633333,152.6
antill ponds,,06,-42.2,147.4
antil plains,,04,-19.45,146.833333
antwerp,,07,-36.3,142.05
anyarro,,04,-25.066667,151.116667
apoinga,,05,-33.95,138.933333
apollo bay,,07,-38.75,143.65
appila,,05,-33.05,138.416667
appin,,02,-34.2,150.783333
appin,,07,-35.9,143.866667
appin south,,07,-35.916667,143.866667
appleby,,02,-30.966667,150.85
applecross,,08,-32.016667,115.833333
applethorpe,,04,-28.616667,151.966667
apple tree creek,,04,-25.216667,152.233333
apple tree flat,,02,-32.683333,149.7
apsiey,,06,-42.433333,147.133333
apsley,,02,-32.6,148.983333
apsley,,06,-42.433333,147.133333
apsley,,07,-36.966667,141.083333
apsley station,,06,-42.433333,147.133333
apunyal,,04,-27.066667,151.116667
arable,,02,-36.35,149.033333
arajoel,,02,-35.033333,146.883333
arakoon,,02,-30.9,153.066667
araluen,,02,-35.616667,149.8
araluen west,,02,-35.616667,149.8
aramac,,04,-22.966667,145.25
aramara,,04,-25.616667,152.316667
arapiles,,07,-36.733333,141.85
ararat,6111,07,-37.283333,142.933333
aratula,,04,-27.983333,152.533333
arawata,,07,-38.4,145.866667
arcadia,,02,-33.066667,151.583333
arcadia,,07,-36.566667,145.316667
archdale,,07,-36.833333,143.516667
archer,,04,-23.583333,150.583333
archer siding,,04,-23.583333,150.583333
archerton,,07,-36.883333,146.2
archies creek,,07,-38.55,145.566667
ardath,,08,-32.033333,118.1
ardglen,,02,-31.75,150.783333
arding,,02,-30.566667,151.55
ardlethan,,02,-34.35,146.9
ardmona,,07,-36.383333,145.3
ardmon,,07,-36.383333,145.3
ardno,,07,-37.766667,141
ardrossan,,05,-34.433333,137.9
areegra,,07,-36.283333,142.633333
argalong,,02,-35.3,148.433333
argents hill,,02,-30.616667,152.75
argoon,,02,-34.916667,145.7
argoon,,04,-24.25,150.433333
argyle,,07,-36.95,144.733333
ariah park,,02,-34.35,147.216667
arkendeith,,04,-19.716667,147.316667
arkona,,07,-36.35,142.016667
arltunga,,03,-23.433333,134.683333
arltunga mission,,03,-23.433333,134.683333
arltunga police station,,03,-23.433333,134.683333
armadale,,07,-37.85,145.016667
armadale,,08,-32.15,116
armadale north,,07,-37.85,145.033333
armatree,,02,-31.433333,148.466667
armidale,22673,02,-30.516667,151.65
armstrong,,04,-27.216667,152.833333
armstrong,,07,-37.216667,142.9
armstrong creek,,04,-27.216667,152.833333
armytage,,07,-38.283333,143.883333
arno bay,,05,-33.9,136.566667
arnold,,07,-36.683333,143.866667
arnold west,,07,-36.666667,143.8
arrilalah,,04,-23.683333,143.883333
arrino,,08,-29.433333,115.616667
artarman,,02,-33.816667,151.183333
artarmon,,02,-33.816667,151.183333
arthur,,02,-33.816667,149.333333
arthur river,,08,-33.333333,117.033333
arthurs creek,,07,-37.583333,145.2
arthurs seat,,02,-29.4,151.066667
arthurton,,05,-34.266667,137.75
arthurville,,02,-32.566667,148.75
arumvale,,08,-34.166667,115.083333
arundel,,07,-38.366667,142.816667
arwakurra,,05,-32.883333,138.416667
ascot,,07,-36.7,144.333333
ascot vale,,07,-37.783333,144.916667
ashbourne,,05,-35.3,138.766667
ashbridge,,02,-34.666667,146.966667
ashby,,02,-29.433333,153.183333
ashens,,07,-36.683333,142.516667
ashfield,,02,-33.883333,151.116667
ashford,,02,-29.333333,151.1
ashgrove,,04,-27.45,153.033333
ashley,,02,-29.316667,149.816667
ashton,,05,-34.933333,138.733333
ashville,,05,-35.516667,139.366667
aspendale,,07,-38.033333,145.1
aspley,,04,-27.366667,153.016667
aspley,,06,-42.433333,147.133333
asquith,,02,-33.683333,151.1
athenna,,05,-32.016667,133.433333
atherton,6959,04,-17.266667,145.483333
athlone,,07,-38.233333,145.766667
athol,,02,-33.55,149.3
athol glen,,02,-30.033333,153.033333
atholwood,,02,-29.016667,151.05
attadale,,08,-32.023611,115.795833
attunga,,02,-30.933333,150.833333
aubigney,,04,-27.516667,151.65
aubigny,,04,-27.516667,151.65
aubrey,,07,-36.233333,142.233333
auburn,,02,-33.85,151.033333
auburn,,05,-34.016667,138.683333
auburn,,07,-37.816667,145.05
auburn south,,07,-37.833333,145.05
auburn vale,,02,-29.833333,151.033333
augathella,,04,-25.8,146.583333
augusta,,08,-34.316667,115.166667
auld,,05,-34.883333,140.35
aura,,07,-37.933333,145.416667
austinmer,,02,-34.3,150.916667
austins ferry,,06,-42.766667,147.25
austral eden,,02,-31.033333,152.916667
australia plains,,05,-34.1,139.133333
australind,6621,08,-33.266667,115.716667
avalon,,02,-33.633333,151.333333
avenel,,02,-33.416667,148.766667
avenel,,07,-36.9,145.233333
avenue,,05,-36.966667,140.233333
avenue range,,05,-36.966667,140.233333
avisford,,02,-32.75,149.483333
avoca,,07,-37.083333,143.483333
avoca beach,,02,-33.466667,151.433333
avon,,05,-34.283333,138.333333
avondale,,04,-24.733333,152.166667
avon dam,,02,-34.35,150.633333
avonmore,,07,-36.533333,144.566667
avon plains,,07,-36.55,142.933333
avonsleigh,,07,-37.933333,145.466667
awaba,,02,-33.016667,151.55
awonga,,07,-36.95,141.383333
axedale,,07,-36.8,144.516667
aylmerton,,02,-34.416667,150.516667
ayr,9079,04,-19.583333,147.4
ayton,,04,-15.933333,145.366667
baan baa,,02,-30.6,149.933333
baandee,,08,-31.583333,117.966667
baarmutha,,07,-36.416667,146.683333
babakin,,08,-32.116667,118.016667
babinda,,04,-17.35,145.916667
bacchus marsh,,07,-37.683333,144.45
back creek,,06,-41.033333,147.1
back creek,,07,-36.366667,146.85
backmede,,02,-28.75,153.016667
backnede,,02,-28.75,153.016667
back plains,,04,-27.9,151.783333
backwater,,02,-30.066667,151.883333
baddaginnie,,07,-36.583333,145.866667
baddera,,08,-28.283333,114.633333
baddow,,04,-25.516667,152.683333
baden,,06,-42.433333,147.466667
badgebup,,08,-33.633333,117.9
badgen,,04,-27.483333,153.233333
badger creek,,07,-37.7,145.516667
badgers creek,,07,-37.7,145.516667
badjaling,,08,-32,117.5
badjerribong,,02,-33.35,147.7
badu,,04,-10.15,142.166667
baerami,,02,-32.4,150.483333
baerami creek,,02,-32.5,150.466667
baffle creek,,04,-24.5,151.933333
bagdad,,06,-42.633333,147.233333
bagnoo,,02,-31.466667,152.533333
bago,,02,-35.566667,147.966667
bagot,,03,-12.416667,130.85
bagotville,,02,-28.983333,153.416667
bagshot,,07,-36.65,144.416667
bahgallah,,07,-37.633333,141.383333
bahrs scrub,,04,-27.733333,153.166667
bailieston,,07,-36.733333,145.05
bailieston east,,07,-36.75,145.116667
bairnsdale,11006,07,-37.833333,147.616667
bairsdale,,07,-37.833333,147.616667
bajool,,04,-23.666667,150.65
bakara,,05,-34.666667,139.766667
baker,,07,-36.083333,141.583333
baker gully,,05,-35.133333,138.633333
bakers creek,,02,-30.266667,151.016667
bakers creek,,04,-21.216667,149.15
bakers gully,,05,-35.133333,138.633333
bakers hill,,08,-31.75,116.45
bakers swamp,,02,-32.766667,148.933333
baking board,,04,-26.716667,150.55
baking board siding,,04,-26.716667,150.55
baladjie,,08,-30.983333,118.933333
balaklava,,05,-34.15,138.416667
balbarrup,,08,-34.233333,116.2
balberra,,04,-21.3,149.116667
balcombe,,07,-38.257778,145.029167
baldersleigh,,02,-30.266667,151.433333
bald hill,,02,-34.433333,146.833333
bald hills,,02,-36.7,149.1
bald hills,,05,-35.516667,138.416667
bald hills,,07,-37.433333,143.85
bald mountain,,04,-28.9,151.916667
bald rock,,07,-36.033333,144.216667
baldry,,02,-32.866667,148.5
baldwin,,02,-30.816667,150.6
balfes creek,,04,-20.216667,145.916667
balfour,,06,-41.266667,144.916667
balgarri,,08,-30.483333,121.116667
balgo,,08,-20.15,127.966667
balgo hill,,08,-20.15,127.966667
balgowan,,05,-34.333333,137.483333
balgowlah,,02,-33.8,151.266667
balgowlah heights,,02,-33.805556,151.259167
balgownie,,02,-34.4,150.9
balhannah,,05,-34.983333,138.833333
balingup,,08,-33.8,115.966667
balkuling,,08,-31.983333,117.133333
ballaarat,,07,-37.566667,143.85
balladoran,,02,-31.866667,148.666667
ballam park,,07,-38.15,145.15
ballan,,07,-37.6,144.25
ballandean,,04,-28.8,151.833333
ballangeich,,07,-38.216667,142.666667
ballangeich north,,07,-38.183333,142.683333
ballapur,,07,-35.966667,142.766667
ballarat,85110,07,-37.566667,143.85
ballaying,,08,-33.3,117.55
balldale,,02,-35.85,146.516667
ballendella,,07,-36.3,144.65
ballengarra,,02,-31.316667,152.75
balliang,,07,-37.833333,144.366667
balliang east,,07,-37.783333,144.45
ballidu,,08,-30.6,116.766667
ballimore,,02,-32.2,148.9
ballina,14248,02,-28.866667,153.566667
bally bally,,08,-32.166667,117.1
bally park,,06,-42.866667,147.616667
ballyrogan,,07,-37.433333,143.133333
balmain,,02,-33.866667,151.183333
balmattum,,07,-36.7,145.65
balmattum east,,07,-36.716667,145.65
balmoral,,02,-33.066667,151.583333
balmoral,,07,-37.25,141.85
balmoral park,,02,-33.830833,151.255
balnarring,,07,-38.366667,145.133333
balnarring beach,,07,-38.4,145.116667
balook,,07,-38.433333,146.566667
balranald,,02,-34.633333,143.566667
balrootan north,,07,-36.3,141.716667
bamaga,,04,-10.883333,142.383333
bamarong,,02,-34.9,150.533333
bamawm,,07,-36.216667,144.6
bamawm extension,,07,-36.216667,144.6
bambaroo,,04,-18.866667,146.2
bamboo,,08,-20.933333,120.216667
bamboo creek,,08,-20.933333,120.216667
bamboo mining centre,,08,-20.933333,120.216667
bambra,,07,-38.366667,143.933333
bamford,,04,-17.316667,144.916667
bamganie,,07,-37.933333,143.983333
banana,,04,-24.483333,150.133333
banana pocket,,04,-20.533333,148.65
banbrae park,,07,-37.816667,144.583333
bancroft,,04,-24.783333,151.233333
bandiana,,07,-36.15,146.933333
bandon,,02,-33.5,148.3
bangalow,,02,-28.7,153.516667
bangaroo,,02,-33.616667,148.633333
bangemall,,08,-24.2,116.466667
bangemall mining centre,,08,-24.2,116.466667
bangerang,,07,-36.2,142.583333
bangor,,02,-34.016667,151.033333
bangor,,05,-32.966667,138.15
bangor,,06,-41.216667,147.133333
banksiadale,,08,-32.65,116.083333
banksmeadow,,02,-33.95,151.216667
bankstown,,02,-33.916667,151.033333
banna,,04,-17.116667,145.816667
bannaby,,02,-34.45,149.983333
bannerton,,07,-34.7,142.783333
bannister,,02,-34.6,149.483333
bannister north,,08,-32.583333,116.433333
bannockburn,,02,-29.616667,151.033333
bannockburn,,07,-38.05,144.166667
banool,,07,-38.566667,143.55
banyan,,07,-35.633333,142.75
banyena,,07,-36.566667,142.833333
bapaume,,04,-28.566667,151.833333
barabba,,05,-34.35,138.583333
baradine,,02,-30.933333,149.066667
barakula,,04,-26.433333,150.516667
baralaba,,04,-24.183333,149.816667
baranduda,,07,-36.2,146.966667
baratta,,02,-35.283333,144.533333
barbalin,,08,-30.883333,118.116667
barberton,,08,-30.75,116.033333
barcaldine,,04,-23.566667,145.283333
barcoo,,04,-21.066667,149.116667
bardoc,,08,-30.333333,121.283333
baree,,04,-23.616667,150.4
barellan,,02,-34.283333,146.583333
barep,,07,-36.2,144.983333
barfold,,07,-37.083333,144.516667
bargara,,04,-24.816667,152.466667
bargo,,02,-34.3,150.583333
barham,,02,-35.633333,144.133333
baring,,07,-35.4,142.05
baringhup,,07,-36.983333,143.966667
baringhup east,,07,-36.966667,144.016667
barkers creek,,07,-37.016667,144.25
barkers lodge,,02,-34.15,150.55
barkers vale,,02,-28.533333,153.116667
barkly,,07,-36.933333,143.2
barkstead,,07,-37.45,144.1
barlil,,04,-26.2,151.883333
barmah,,07,-36.016667,144.966667
barmah township,,07,-36.016667,144.966667
barmaryee,,04,-23.133333,150.716667
barmedman,,02,-34.15,147.383333
barmera,,05,-34.25,140.466667
barmundu,,04,-24.133333,151.2
barnadown,,07,-36.65,144.55
barnawartha,,07,-36.1,146.666667
barnedown,,07,-36.65,144.55
barnes bay,,06,-43.116667,147.366667
barney view,,04,-28.233333,152.783333
barnsley,,02,-32.933333,151.583333
baroma,,02,-29.133333,150.316667
barongarook,,07,-38.416667,143.6
barooga,,02,-35.916667,145.7
baroota,,05,-32.85,138.033333
barossa,,05,-34.65,138.833333
barpinba,,07,-38.1,143.633333
barraba,,02,-30.383333,150.6
barraganyatti,,02,-30.85,152.933333
barrakee,,07,-36.266667,143.45
barrallier,,02,-34.316667,150.066667
barrambie,,08,-27.433333,119.116667
barramunga,,07,-38.583333,143.683333
barraport,,07,-36.016667,143.683333
barrengarry,,02,-34.683333,150.516667
barrine,,04,-17.2,145.633333
barringha,,04,-19.55,146.833333
barringna,,04,-19.55,146.833333
barrington,,02,-31.966667,151.9
barrington,,06,-41.35,146.283333
barringun,,02,-29.016667,145.716667
barronhurst,,08,-34.416667,116.066667
barrow creek,,03,-21.55,133.883333
barry,,02,-31.583333,151.333333
barrys reef,,07,-37.466667,144.3
bartle frere,,04,-17.45,145.883333
bartons mill,,08,-32.066667,116.2
barunga,,05,-33.716667,138.133333
barunga north,,05,-33.683333,138.083333
barwite,,07,-37,146.166667
barwo,,07,-36.033333,145.166667
barwon,,07,-38.466667,143.75
barwon downs,,07,-38.466667,143.75
barwon heads,,07,-38.283333,144.5
baryulgil,,02,-29.216667,152.6
basket range,,05,-34.933333,138.766667
bass,,07,-38.483333,145.45
bassendean,,08,-31.9,115.95
bass hill,,02,-33.966667,151
bass hills,,02,-33.966667,151
batavia,,04,-13.1,142.966667
batcha,,04,-17.466667,144.916667
batchelor,,03,-13.066667,131.016667
batchica,,07,-36.2,142.383333
bateman,,02,-35.716667,150.183333
batemans,,02,-35.716667,150.183333
batemans bay,10557,02,-35.716667,150.183333
batesford,,07,-38.1,144.283333
bathumi,,07,-36.016667,146.083333
bathurst,,02,-33.416667,149.566667
batlow,,02,-35.516667,148.166667
baulkamaugh,,07,-36,145.383333
baulkamaugh north,,07,-36,145.383333
baulkham hills,,02,-33.75,151
bauple,,04,-25.8,152.616667
baw baw,,02,-34.75,149.666667
baxter,,07,-38.2,145.15
bayfield,,04,-22.833333,150.666667
bayindeen,,07,-37.316667,143.166667
bayles,,07,-38.183333,145.566667
baynton,,07,-37.133333,144.6
bayswater,,07,-37.85,145.266667
bay view,,02,-33.666667,151.3
beachmere,,04,-27.133333,153.05
beachport,,05,-37.5,140.016667
beacon,,08,-30.433333,117.85
beaconsfield,,02,-33.833333,149.75
beaconsfield,,06,-41.2,146.816667
beaconsfield,,07,-38.05,145.366667
beaconsfield upper,,07,-38,145.416667
bealiba,,07,-36.8,143.55
beanbri,,02,-29.95,148.416667
bearbung,,02,-31.633333,148.866667
bear hill,,02,-30.033333,152.1
beauchamp,,07,-35.616667,143.566667
beaudesert,,04,-27.983333,152.983333
beaufort,,05,-34.083333,138.2
beaufort,,07,-37.416667,143.383333
beaumont,,02,-34.783333,150.566667
beaumont,,05,-34.933333,138.65
beauty point,,06,-41.166667,146.816667
beazleys bridge,,07,-36.7,143.166667
beckom,,02,-34.333333,146.966667
bective,,02,-30.983333,150.733333
bedfordale,,08,-32.183333,116.05
bedford park,,05,-35.033333,138.566667
bedgerebong,,02,-33.35,147.7
bedourie,,04,-24.35,139.466667
beeac,,07,-38.2,143.633333
beebo,,04,-28.7,150.966667
beecher,,04,-23.9,151.2
beech forest,,07,-38.633333,143.566667
beechina,,08,-31.85,116.316667
beechmont,,04,-28.1,153.216667
beechwood,,02,-31.366667,152.683333
beechworth,,07,-36.366667,146.716667
beelbangera,,02,-34.266667,146.1
beelerup,,08,-33.566667,115.85
beemunnel,,02,-31.666667,147.85
beenak,,07,-37.9,145.633333
beenleigh,,04,-27.716667,153.2
beenong,,08,-33.05,118.583333
beerburrum,,04,-26.966667,152.966667
beermullah,,08,-31.266667,115.766667
beerwah,,04,-26.85,152.966667
beetaloo valley,,05,-33.233333,138.233333
beete,,08,-32.75,121.55
bega,,02,-36.666667,149.833333
beggan beggan,,02,-34.683333,148.266667
bejoording,,08,-31.4,116.5
belahville,,04,-26.7,151.016667
belair,,05,-35,138.633333
belar creek,,02,-31.383333,149.183333
belaringar,,02,-31.783333,147.583333
belbora,,02,-32.033333,152.183333
belconnen,,01,-35.216667,149.083333
beldene,,04,-27.066667,148.633333
belford,,02,-32.666667,151.283333
belgian gardens,,04,-19.25,146.8
belgrave,,07,-37.9,145.35
belgrave heights,,07,-37.916667,145.35
belgrave south,,07,-37.933333,145.333333
belgravia,,02,-33.116667,149.05
belka,,08,-31.733333,118.183333
bellambi,,02,-34.366667,150.916667
bellangry,,02,-31.366667,152.633333
bellara,,04,-27.065,153.143056
bellarine,,07,-38.133333,144.616667
bellarwi,,02,-34.1,147.2
bellata,,02,-29.916667,149.783333
bellawongarah,,02,-34.766667,150.633333
bell bay,,06,-41.116667,146.866667
bell,,02,-33.516667,150.2
bell,,04,-26.933333,151.45
bellbird,,02,-32.866667,151.316667
bell bird,,07,-37.65,148.816667
bellbrae,,07,-38.333333,144.266667
bellbrook,,02,-30.816667,152.516667
bellenden ker,,04,-17.266667,145.916667
bellerive,,06,-42.866667,147.366667
bellevue,,04,-27.333333,152.55
bellevue,,08,-31.9,116.016667
bellevue hill,,02,-33.879444,151.250556
bellimbopinni,,02,-31.016667,152.916667
bellingen,,02,-30.45,152.883333
bellingham,,06,-41.016667,147.166667
bells swamp,,02,-30.683333,151.166667
belltrees,,02,-31.983333,151.133333
belmont,,02,-33.033333,151.666667
belmont,,04,-27.5,153.116667
belmont,,07,-38.166667,144.35
belmore river upper,,02,-31.116667,152.983333
belmunging,,08,-31.816667,117.066667
beloka,,02,-36.533333,148.733333
belrose,,02,-33.733333,151.216667
beltana,,05,-30.8,138.416667
belton,,05,-32.233333,138.7
belvidere,,05,-35.3,138.933333
bemboka,,02,-36.633333,149.583333
bemerside,,04,-18.566667,146.233333
bena,,02,-33.516667,147.133333
bena,,07,-38.416667,145.766667
benalla,9020,07,-36.55,145.983333
benambra,,07,-36.95,147.716667
benandarah,,02,-35.633333,150.25
benanee,,02,-34.516667,142.866667
benaraby,,04,-24.016667,151.316667
benarkin,,04,-26.883333,152.133333
benayeo,,07,-36.9,141.05
ben bullen,,02,-33.216667,150.033333
bencubbin,,08,-30.8,117.866667
bendemeer,,02,-30.883333,151.166667
bendenine,,02,-34.65,148.766667
bendering,,08,-32.383333,118.316667
bendering west,,08,-32.35,118.166667
bendethera,,02,-35.933333,149.75
bendick murrell,,02,-34.166667,148.433333
bendigo,81658,07,-36.766667,144.283333
bendleby,,05,-32.35,138.716667
bendoc,,07,-37.133333,148.9
bendock,,07,-37.133333,148.9
bendolba,,02,-32.35,151.75
bendoura,,02,-35.516667,149.7
benetook,,07,-34.366667,142
benger,,08,-33.166667,115.85
bengworden,,07,-37.983333,147.466667
benholme,,04,-21.166667,148.816667
beni,,02,-32.2,148.766667
benjeroop,,07,-35.5,143.833333
benjinup,,08,-33.766667,116.316667
benloch,,07,-37.216667,144.7
ben lomond,,02,-30.016667,151.666667
bennison,,07,-38.666667,146.25
benobble,,04,-27.983333,153.166667
benowa,,04,-28.016667,153.4
bensville,,02,-33.5,151.383333
bentley,,02,-28.766667,153.116667
bentley,,08,-32,115.916667
berajondo,,04,-24.633333,151.833333
berakin,,08,-32.083333,116.316667
beraking,,08,-32.083333,116.316667
beranghi,,02,-31.216667,152.916667
berat,,04,-28.05,152.05
beremangra,,02,-34.8,148.483333
beremboke,,07,-37.783333,144.25
berendale,,02,-34.533333,149.116667
berendebba,,02,-33.933333,147.75
beresfield,,02,-32.8,151.65
bergalia,,02,-35.983333,150.1
berkeley,,02,-34.483333,150.85
berkeley vale,,02,-33.35,151.433333
berkshire valley,,08,-30.55,116.166667
berlino,,05,-27.6,138.583333
berlino homestead,,05,-27.6,138.583333
berlino station,,05,-27.6,138.583333
bermaguee,,02,-36.416667,150.05
bermagui,,02,-36.416667,150.05
berner creek,,04,-17.566667,145.9
berowra,,02,-33.633333,151.15
berrebangalo,,02,-34.85,149.183333
berremangra,,02,-34.8,148.483333
berrembea,,04,-25.033333,152.05
berri,,05,-34.283333,140.6
berridale,,02,-36.366667,148.833333
berriedale,,06,-42.816667,147.25
berrigan,,02,-35.65,145.816667
berrilee,,02,-33.616667,151.1
berrima,,02,-34.483333,150.333333
berrimal,,07,-36.483333,143.483333
berringa,,07,-37.766667,143.7
berringama,,07,-36.216667,147.65
berriwillock,,07,-35.633333,143
berrybank,,07,-37.983333,143.483333
berry,,02,-34.783333,150.7
berrygil,,02,-29.966667,150.3
berry park,,02,-32.733333,151.666667
berrys creek,,07,-38.416667,146.066667
beruna,,04,-26.633333,150.85
berwick,,07,-38.033333,145.35
beryl,,02,-32.35,149.45
bessiebelle,,07,-38.15,141.966667
bet bet,,07,-36.916667,143.75
bethanga,,07,-36.116667,147.1
bethania,,04,-27.683333,153.166667
bethania junction,,04,-27.683333,153.166667
bethany,,05,-34.533333,138.966667
bethel,,05,-34.333333,138.833333
bethungra,,02,-34.766667,147.866667
betley,,07,-36.9,143.8
betoota,,04,-25.7,140.733333
beulah,,06,-41.433333,146.383333
beulah,,07,-35.933333,142.433333
bevendale,,02,-34.533333,149.116667
beveridge,,07,-37.483333,144.983333
beverley,,02,-30.1,151
beverley,,08,-32.116667,116.916667
bews,,05,-33.733333,137.866667
bexhill,,02,-28.766667,153.35
bexley,,02,-33.95,151.116667
beyal,,07,-36.133333,142.633333
biala,,02,-34.6,149.25
bibbenluke,,02,-36.833333,149.283333
biboohra,,04,-16.933333,145.416667
bicheno,,06,-41.878889,148.288611
bickley,,08,-32,116.083333
bicton,,08,-32.027778,115.783333
bidden,,02,-31.5,148.666667
biddeston,,04,-27.566667,151.716667
biddleston,,04,-27.566667,151.716667
biddon,,02,-31.55,148.783333
big bell,,08,-27.35,117.666667
big bog,,02,-36.616667,149.45
bigga,,02,-34.083333,149.15
biggara,,07,-36.266667,148.033333
biggenden,,04,-25.516667,152.05
biggs flat,,05,-35.066667,138.783333
big pats creek,,07,-37.783333,145.75
bigriggan,,04,-28.216667,152.766667
bilambil,,02,-28.233333,153.466667
bilinga,,04,-28.166667,153.516667
billabong,,07,-34.266667,142.216667
billaricay,,08,-32.3,118.333333
billeroy,,02,-30.7,148.45
billimari,,02,-33.683333,148.616667
billinudgel,,02,-28.5,153.533333
biloela,6309,04,-24.416667,150.5
bilpin,,02,-33.5,150.533333
bilwon,,04,-16.866667,145.466667
bilyana,,04,-18.133333,145.916667
bimbaya,,02,-36.716667,149.7
bimbi,,02,-34.05,147.95
binalong,,02,-34.666667,148.65
binbee,,04,-20.3,147.933333
binda,,02,-34.333333,149.366667
bindango,,04,-36.583333,148.55
bindi,,07,-37.116667,147.833333
bindi bindi,,08,-30.633333,116.366667
bindle,,04,-27.683333,148.75
bindogandri,,02,-33.133333,148.316667
bingara,,02,-29.866667,150.566667
bingera,,04,-24.9,152.2
bingera plantation,,04,-24.933333,152.2
bingham,,04,-25.433333,152.916667
binginwarra,,07,-38.583333,146.45
binginwarri,,07,-38.583333,146.45
binginwarrie,,07,-38.583333,146.45
biniguy,,02,-29.533333,150.2
binjour,,04,-25.516667,151.45
binna burra,,02,-28.7,153.5
binnaway,,02,-31.55,149.4
binningup,,08,-33.15,115.683333
binnu,,08,-28.033333,114.65
binnum,,05,-36.8,140.933333
binya,,02,-34.233333,146.35
birchip,,07,-35.983333,142.933333
birdsville,,04,-25.9,139.366667
birdum,,03,-15.65,133.216667
birdwood,,05,-34.816667,138.966667
birimgan,,04,-22.7,147.45
birkalla,,04,-17.916667,145.95
birkdale,,04,-27.483333,153.216667
birkenhead,,05,-34.833333,138.5
birnam,,04,-27.483333,151.916667
birnam,,07,-38.466667,143.6
birralee,,06,-41.45,146.85
birrego,,07,-34.983333,146.55
birregurra,,07,-38.333333,143.783333
birriwa,,02,-32.116667,149.466667
birru,,04,-27.6,152.583333
birthamba,,04,-24.916667,152.183333
bishopsbourne,,06,-41.583333,147.016667
bismuth,,02,-29.266667,151.633333
bittern,,07,-38.333333,145.166667
blackall,,04,-24.416667,145.466667
blackbutt,,04,-26.883333,152.1
black duck creek,,04,-27.833333,152.183333
black flag,,08,-30.566667,121.233333
black flat,,07,-37.866667,145.166667
blackford,,05,-36.766667,140.016667
blackheath,,02,-33.65,150.266667
blackheath,,07,-36.466667,142.25
black hill,,05,-34.7,139.45
black hills,,06,-42.716667,147.033333
black lead,,07,-37.65,143.85
blackmans point,,02,-31.383333,152.85
black mountain,,02,-30.316667,151.65
blackmount,,04,-25.7,152.583333
black plains,,04,-27.9,151.783333
blackridge,,04,-22.633333,147.616667
black river,,06,-40.85,145.316667
black rock,,05,-32.833333,138.7
black rock north,,07,-37.966667,145.016667
blacks beach,,04,-21.05,149.2
black springs,,02,-33.866667,149.716667
black springs,,05,-33.9,138.9
black springs,,07,-37.766667,145.316667
black swamp,,02,-29,152.15
blacktown,,02,-33.766667,150.916667
blackville,,02,-31.633333,150.233333
blackwall,,02,-33.5,151.316667
blackwall,,06,-41.311111,146.966667
blackwarry,,07,-38.4,146.65
blackwater,7250,04,-23.583333,148.883333
blackwood,,05,-35.016667,138.616667
blackwood,,07,-37.483333,144.333333
blackwood creek,,06,-41.733333,146.916667
blackwood forest,,07,-38.5,145.616667
blair athol,,02,-30.65,150.2
blair athol,,04,-22.7,147.55
blair hill,,02,-29.916667,151.8
blake,,02,-30.416667,150.133333
blakebrook,,02,-28.766667,153.233333
blakehurst,,02,-33.983333,151.1
blakeville,,07,-37.516667,144.216667
blakiston,,05,-35.05,138.883333
blampied,,07,-37.366667,144.05
blanche town,,05,-34.35,139.6
blanchview,,04,-27.566667,152.033333
bland,,02,-33.983333,147.683333
blandford,,02,-31.8,150.9
blanket flat,,02,-34.15,149.216667
blantyre,,04,-27.9,152.683333
blaxland,,02,-33.75,150.6
blaxland,,04,-27.2,151.316667
blaxlands flat,,02,-29.916667,152.783333
blayney,,02,-33.533333,149.266667
blenheim,,04,-27.666667,152.316667
blessington,,06,-41.483333,147.483333
blessington upper,,06,-41.466667,147.6
bletchley,,05,-35.233333,138.983333
blewitts springs,,05,-35.166667,138.6
bli bli,,04,-26.616667,153.033333
bligh,,05,-33.9,136.566667
blighty,,02,-35.583333,145.35
blinman,,05,-31.1,138.666667
bloomfield,,02,-33.316667,149.116667
bloomfield,,04,-15.933333,145.333333
bloomsbury,,04,-20.716667,148.6
blowclear,,02,-33,147.866667
blow clear,,02,-33.683333,147.166667
blowering,,02,-35.45,148.266667
blowhard,,07,-37.433333,143.8
blue knob,,02,-28.5,153.183333
blue mountain,,04,-21.583333,149.033333
blue nob,,02,-28.5,153.183333
blue spec,,08,-21.8,120.283333
bluff,,04,-23.583333,149.066667
bluff rock,,02,-29.166667,152.016667
blyth,,05,-33.85,138.483333
blythdale,,04,-26.583333,148.966667
boambee,,02,-30.35,153.1
boat harbour,,02,-28.316667,153.35
boat harbour,,06,-40.966667,145.633333
bobadah,,02,-32.316667,146.683333
bobby whitlow,,02,-29.85,150.633333
bobinawarrah,,07,-36.516667,146.5
bobin,,02,-31.716667,152.283333
bobs farm,,02,-32.766667,152.016667
bobundara,,02,-36.516667,148.933333
bochara,,07,-37.7,141.933333
bodalla,,02,-36.083333,150.05
bodalla,,04,-25.216667,152.233333
bodallin,,08,-31.366667,118.866667
bodangora,,02,-32.45,149
boddalin,,08,-31.366667,118.866667
boddington,,08,-32.8,116.466667
bogabri,,02,-30.7,150.033333
bogandilla,,04,-26.5,149.8
bogan gate,,02,-33.116667,147.816667
bogantungan,,04,-23.65,147.3
boggabilla,,02,-28.616667,150.35
boggabri,,02,-30.7,150.033333
boggy plain,,02,-36.133333,149.483333
bogolong,,02,-33.85,148.083333
bogong,,07,-36.8,147.216667
bohena,,02,-30.5,149.633333
bohena creek,,02,-30.416667,149.7
bohnock,,02,-31.95,152.566667
boho,,07,-36.716667,145.833333
boho south,,07,-36.783333,145.8
boigbeat,,07,-35.55,142.916667
boigu,,04,-9.233333,142.216667
boinka,,07,-35.2,141.6
boisdale,,07,-37.883333,146.983333
bokal,,08,-33.5,116.9
bokhara,,02,-29.116667,147.45
bolagamy,,02,-33.766667,146.916667
boldon,,04,-21.15,148.916667
bolga,,07,-36.233333,147.183333
bolgart,,08,-31.266667,116.5
bolinda,,07,-37.433333,144.75
bolivar,,05,-34.766667,138.6
bolivia,,02,-29.3,151.966667
bollon,,04,-28.033333,147.483333
boloka,,02,-36.533333,148.733333
bolong,,02,-34.3,148.95
bolton,,07,-34.966667,142.883333
bolwarra,,02,-32.716667,151.566667
bolwarra,,07,-38.283333,141.616667
bolwarrah,,07,-37.516667,144.1
bomaderry,,02,-34.85,150.616667
bombala,,02,-36.9,149.233333
bomballa,,02,-36.9,149.233333
bombeeta,,04,-17.683333,145.966667
bomely,,02,-32.033333,149.1
bomen,,02,-35.066667,147.416667
bonalbo,,02,-28.75,152.616667
bonang,,07,-37.2,148.75
bonang west,,07,-37.166667,148.683333
bona vista,,04,-20.4,148.666667
bonbeach,,07,-38.065278,145.122778
bondi,,02,-33.891667,151.266667
bondleigh,,05,-35.033333,139.05
bondoola,,04,-23.166667,150.683333
bonegilla,,07,-36.15,147
boneo,,07,-38.416667,144.883333
bongaree,13649,04,-27.079722,153.158611
bongeen,,04,-27.566667,151.45
bongongolong,,02,-34.933333,148.066667
bonnet bay,,02,-34,151.05
bonnie doon,,07,-37.016667,145.866667
bonnie rock,,08,-30.533333,118.35
bonnie vale,,02,-34.083333,151.141667
bonnie vale,,08,-30.85,121.166667
bonshaw,,02,-29.05,151.266667
bonville,,02,-30.383333,153.066667
bony mountain,,04,-28.133333,151.833333
bonython,,05,-34.8,139.2
bonythorn,,05,-34.8,139.2
booborowie,,05,-33.566667,138.75
boodarockin,,08,-31.016667,118.816667
boodua,,04,-27.383333,151.833333
boogardie,,08,-28.033333,117.783333
bookabie,,05,-31.833333,132.683333
bookar,,07,-38.133333,143.1
booker bay,,02,-33.516667,151.35
bookham,,02,-34.816667,148.633333
boolambayte,,02,-32.4,152.266667
boolarong,,07,-38.566667,146.25
boolaroo,,02,-32.95,151.616667
boolaroo racecourse,,02,-32.95,151.616667
boolarra,,07,-38.383333,146.266667
boolarra south,,07,-38.45,146.283333
boolba,,04,-27.966667,148.1
boolboonda,,04,-25.083333,151.683333
boolburra,,04,-23.733333,149.766667
boolcunda east,,05,-32.266667,138.333333
booleroo,,05,-32.833333,138.416667
booleroo centre,,05,-32.866667,138.35
booligal,,02,-33.866667,144.883333
boolite,,07,-36.35,142.666667
bool lagoon,,05,-37.15,140.716667
booloongie,,04,-24.833333,152.3
boolorong,,02,-30.316667,151.533333
booloumba,,04,-26.65,152.683333
boomahnoomoonah,,07,-36.133333,146.1
boomanoomana,,02,-35.883333,145.783333
boomerang,,04,-25.616667,151.433333
boomi,,02,-28.733333,149.583333
boomley,,02,-32.033333,149.1
boomooderie,,02,-28.916667,153.016667
boompa,,04,-25.583333,152.183333
boonah,,04,-28,152.683333
boonah,,07,-38.416667,143.933333
boona mount,,02,-32.633333,147.166667
boonarda,,04,-26.8,150.716667
boonarga,,04,-26.8,150.716667
boondall,,04,-27.35,153.066667
boondarra,,04,-27.333333,148.4
boondi,,08,-31.183333,120.383333
boondooma,,04,-26.2,151.283333
boonenne,,04,-26.616667,151.8
boongana,,04,-21.15,148.583333
boongary,,04,-23.516667,150.4
boonmoo,,04,-17.25,145.083333
boonoo boonoo,,02,-28.883333,152.1
boonooroo,,04,-25.666667,152.9
booraan,,08,-31.45,118.383333
boorabbin,,08,-31.2,120.3
booral,,02,-32.483333,151.966667
boorara,,08,-30.816667,121.633333
boorcan,,07,-38.216667,143.016667
boorga,,02,-34.033333,145.95
boorhaman,,07,-36.233333,146.3
boorindal,,02,-30.35,146.133333
boorolong,,02,-30.316667,151.533333
booroolite,,07,-37.15,146.2
boorooman,,04,-20.766667,145.016667
booroopki,,07,-36.766667,141.25
booroorban,,02,-34.933333,144.766667
boorowa,,02,-34.433333,148.733333
boort,,07,-36.116667,143.716667
boortkoi,,04,-26.533333,150.383333
boosey,,07,-36.05,145.783333
boosey south,,07,-36.05,145.783333
bootawa,,04,-27.083333,152.75
bootenal,,08,-28.866667,114.716667
bootharh,,04,-25.233333,152.35
boothby,,05,-33.766667,136.533333
boothenba,,02,-32.2,148.7
booti-booti,,02,-32.316667,152.516667
bootooloo,,04,-20.05,148.2
boowillia,,05,-33.95,138.4
boowoogum,,04,-26.033333,152.416667
booyal,,04,-25.216667,152.033333
booyong,,02,-28.75,153.45
bopeep,,07,-37.55,143.7
borallon,,04,-27.533333,152.683333
boralma,,07,-36.216667,146.416667
borambil,,02,-32.033333,150
borambil creek,,02,-31.5,150.566667
borambola,,02,-35.2,147.666667
borden,,08,-34.083333,118.266667
bordertown,,05,-36.316667,140.766667
boree,,02,-35.116667,146.616667
boree creek,,02,-35.116667,146.616667
borenore,,02,-33.25,148.966667
bornholm,,08,-35.05,117.583333
boro,,02,-35.15,149.666667
boronia,,07,-37.866667,145.283333
bororen,,04,-24.25,151.5
borrika,,05,-35.016667,140.05
borroloola,,03,-16.066667,136.283333
borung,,07,-36.3,143.75
boscabel,,08,-33.666667,117.05
bostocks creek,,07,-38.3,143.116667
botany,,02,-33.966667,151.2
botherling,,08,-31.133333,116.8
bothwell,,06,-42.383333,147
botobolar,,02,-32.516667,149.783333
bottle creek,,02,-28.8,152.65
boulder,,08,-30.783333,121.483333
boulia,,04,-22.9,139.9
boundain,,08,-32.95,117.316667
boundary bend,,07,-34.7,143.15
bourke,,02,-30.1,145.933333
bowagamy,,02,-33.766667,146.916667
bowan park,,02,-33.3,148.816667
bow,,02,-32.133333,150.233333
bowelling,,08,-33.416667,116.5
bowen,10983,04,-20.016667,148.233333
bowenfels,,02,-33.516667,150.116667
bowenvale,,07,-37,143.716667
bowenville,,04,-27.316667,151.483333
bower,,05,-34.133333,139.35
bowes,,08,-28.383333,114.666667
boweya,,07,-36.266667,146.133333
boweya north,,07,-36.2,146.083333
bowgada,,08,-29.333333,116.166667
bow hill,,05,-34.9,139.616667
bowillia,,05,-33.95,138.4
bowketts,,04,-26.566667,151.05
bowling alley point,,02,-31.383333,151.15
bowman,,04,-22.65,149.666667
bowmans,,05,-34.15,138.266667
bowmans creek,,02,-32.266667,151.133333
bowning,,02,-34.766667,148.816667
bowra,,02,-30.65,152.85
bowral,9605,02,-34.466667,150.416667
bowraville,,02,-30.65,152.85
bowthorne,,02,-32.7,151.65
box hill,,07,-37.816667,145.133333
box ridge,,02,-31.25,148.816667
box tank,,02,-32.2,142.233333
boxwood,,07,-36.316667,145.8
boya,,08,-31.933333,116.05
boyanup,,08,-33.483333,115.733333
boyben,,02,-31.833333,149
boydtown,,02,-37.083333,149.916667
boyd town,,02,-37.1,149.866667
boyeo,,07,-36.233333,141.533333
boyland,,04,-27.95,153.133333
boyne,,04,-26.716667,151.55
boynedale,,04,-24.216667,151.25
boyne island,,04,-23.933333,151.35
boyneside,,04,-26.716667,151.55
boys,,07,-38.683333,146.05
boyup brook,,08,-33.833333,116.4
bracalba,,04,-27.016667,152.85
bracewell,,04,-23.9,150.9
bracknell,,06,-41.65,146.933333
bradbury,,05,-35.066667,138.716667
bradshaw,,07,-37.583333,144.183333
bradshaws creek,,06,-41.066667,147.933333
bradshaws creek,,07,-37.583333,144.183333
bradvale,,07,-37.783333,143.4
brady creek,,05,-33.966667,139
braemar,,02,-34.433333,150.483333
braemar,,04,-25.65,152.266667
braeside,,04,-28.4,151.916667
braeside,,07,-37.983333,145.116667
braidwood,,02,-35.45,149.783333
bramfield,,05,-33.616667,135.016667
bramley,,08,-33.9,115.1
brandon,,04,-19.566667,147.366667
brandy bottom,,06,-42.516667,147.416667
brandy creek,,07,-38.1,145.9
branga,,02,-31.166667,151.55
branxholm,,06,-41.166667,147.733333
branxholme,,07,-37.866667,141.8
branxton,,02,-32.666667,151.366667
brassi,,02,-35.5,144.75
braunstone,,02,-29.8,152.966667
brawlin,,02,-34.733333,148.033333
brays creek,,02,-28.4,153.2
breadalbane,,02,-34.8,149.483333
breadalbane,,06,-41.533333,147.2
breakaway creek,,07,-38.016667,141.8
breakfast creek,,02,-32.683333,150.016667
breakfast creek,,04,-27.441667,153.041667
bream creek,,06,-42.813333,147.834167
breamiea,,07,-38.296111,144.390833
bredalbane,,02,-34.8,149.483333
bredalbane,,06,-41.533333,147.2
bredbo,,02,-35.95,149.15
breelong,,02,-31.816667,148.783333
breeza,,02,-31.25,150.466667
brentwood,,05,-34.866667,137.5
breona,,06,-41.783333,146.716667
brewarrina,,02,-29.95,146.866667
brewer,,02,-33.433333,146.133333
brewongle,,02,-33.483333,149.716667
brewster,,07,-37.483333,143.516667
briagolong,,07,-37.85,147.066667
briar hill,,07,-37.716667,145.116667
bribbaree,,02,-34.116667,147.866667
bribie,,04,-27.079722,153.158611
bribie view,,04,-27.005278,153.069444
bridge inn,,07,-37.016667,142.833333
bridgemans,,02,-32.45,151.166667
bridgenorth,,06,-41.383333,146.983333
bridges,,04,-26.533333,152.95
bridgetown,,08,-33.95,116.133333
bridgewater,,05,-35,138.75
bridgewater,,06,-42.733333,147.233333
bridgewater,,07,-36.6,143.95
bridge water junction,,06,-42.733333,147.233333
bridgewater-on-loddon,,07,-36.6,143.95
bridgman,,02,-32.45,151.166667
bridport,,06,-41,147.4
brierfield,,02,-30.5,152.9
brigalow,,02,-31.166667,148.783333
brigalow,,04,-26.85,150.783333
briggsvale,,02,-30.25,152.783333
bright,,05,-33.9,139.066667
bright,,07,-36.75,146.966667
brighton,,04,-27.3,153.066667
brighton,,05,-35.016667,138.516667
brighton,,07,-37.916667,145
brighton-le-sands,,02,-33.95,151.15
brightview,,04,-27.5,152.483333
brimboal,,07,-37.383333,141.4
brim,,07,-36.083333,142.416667
brimin,,07,-36.05,146.233333
brimpaen,,07,-37.033333,142.2
brimpton lake,,05,-34.066667,135.516667
brindabella,,02,-35.4,148.733333
bringagee,,02,-34.45,145.7
bringalbert,,07,-36.85,141.166667
bringalbert south,,07,-36.85,141.166667
bringelly,,02,-33.933333,150.733333
bringle,,02,-31.416667,148.783333
bringo,,08,-28.733333,114.833333
brington beach,,07,-37.928889,144.99
brinkley,,05,-35.233333,139.216667
brinkworth,,05,-33.7,138.4
brisbane,1843459,04,-27.5,153.016667
brit brit,,07,-37.433333,141.766667
brixton,,04,-23.533333,144.95
broad arrow,,08,-30.333333,121.45
broadbeach,,04,-28.016667,153.433333
broad creek,,05,-33.1,138.116667
broadford,,07,-37.2,145.066667
broadmarsh,,06,-42.65,147.116667
broadmeadows,,02,-29.85,152.3
broadmeadows,,07,-37.666667,144.9
broadmount,,04,-23.5,150.783333
broadwater,,02,-29.016667,153.45
broadwater,,07,-38.133333,142.05
brocklehurst,,02,-32.183333,148.633333
brocklesby,,02,-35.8,146.683333
brockley,,02,-30.283333,151.816667
brocks creek,,03,-13.466667,131.416667
brodies plains,,02,-29.8,151.216667
brodribb river,,07,-37.7,148.566667
brogans creek,,02,-33,149.933333
brogo,,02,-36.533333,149.833333
broke,,02,-32.75,151.1
broken hill,17395,02,-31.95,141.433333
brolgan,,02,-33.133333,148.066667
brombin,,02,-31.466667,152.65
bromelton,,04,-27.983333,152.933333
bromfleet,,04,-27.916667,153.116667
bromley,,07,-36.883333,143.766667
bromus,,08,-32.5,121.633333
bronte,,02,-33.9,151.266667
bronte,,06,-42.166667,146.483333
bronti,,02,-34.983333,149.8
bronzewing,,07,-35.183333,142.383333
brookdale,,08,-32.7,115.95
brooker,,05,-34.1,135.9
brookfield,,02,-32.5,151.75
brookfield,,04,-27.5,152.9
brookhill,,04,-19.383333,146.833333
brooklana,,02,-30.266667,152.85
brooklet,,02,-28.733333,153.516667
brooklyn,,02,-33.55,151.233333
brookong,,02,-35.2,146.633333
brookside,,07,-36.733333,146.883333
brookstead,,04,-27.766667,151.45
brookton,,08,-32.366667,117.016667
brookvale,,02,-33.766667,151.266667
brookville,,07,-37.333333,147.616667
brooloo,,04,-26.5,152.7
brooman,,02,-35.5,150.25
broome,13218,08,-17.966667,122.233333
broomehill,,08,-33.85,117.65
broomfield,,07,-39.383333,143.916667
brooweena,,04,-25.6,152.266667
brooyar,,04,-26.016667,152.4
broughton,,02,-34.75,150.766667
broughton,,04,-20.116667,146.433333
broughton,,07,-36.166667,141.35
broughton vale,,02,-34.75,150.766667
broughton village,,02,-34.766667,150.75
broula,,02,-33.866667,148.533333
broulee,,02,-35.866667,150.183333
brown hill,,08,-30.766667,121.5
brownlow,,05,-34.25,139.266667
brownlow hill,,02,-34.033333,150.666667
browns plains,,04,-27.65,153.033333
browns plains,,07,-36.05,146.666667
brownsville,,02,-34.483333,150.8
broxburn,,04,-27.7,151.666667
bruarong,,07,-36.416667,146.85
bruce,,05,-32.466667,138.2
brucedale,,02,-35.033333,147.416667
brucefield,,05,-33.8,137.766667
bruce rock,,08,-31.883333,118.15
brucknell,,07,-38.45,142.933333
brucknell south,,07,-38.45,142.933333
brue plains,,02,-32.783333,147.85
bruie plains,,02,-32.783333,147.85
brundah,,02,-34,148.35
brundee,,02,-34.9,150.683333
brungle,,02,-35.15,148.233333
brunswick,,02,-28.55,153.55
brunswick,,07,-37.766667,144.966667
brunswick heads,,02,-28.55,153.55
brunswick junction,,08,-33.25,115.833333
brush creek,,02,-33.166667,151.283333
brushgrove,,02,-29.55,153.083333
brushy hill,,02,-32.033333,150.95
bruthen,,07,-37.716667,147.816667
bruxton,,07,-37.416667,145.716667
bryans gap,,02,-29.033333,152.083333
bryden,,04,-27.266667,152.583333
buangor,,07,-37.366667,143.166667
buaraba,,04,-27.366667,152.316667
buaraba creek,,04,-27.416667,152.416667
bucasia,,04,-21.033333,149.166667
bucca,,04,-24.866667,152.1
buccan,,04,-27.75,153.133333
buccarumbi,,02,-29.85,152.583333
bucca-wauka,,02,-32.1,152.166667
buccleuch,,05,-35.35,139.883333
buchanan,,07,-38.633333,143.55
buchan,,07,-37.5,148.183333
buchan south,,07,-37.566667,148.116667
bucheen creek,,07,-36.416667,147.55
buckajo,,02,-36.716667,149.716667
buckaroo,,02,-32.55,149.633333
buckenbowra,,02,-35.733333,150.066667
buckendoon,,02,-29.05,153.333333
buckinboura,,02,-35.733333,150.066667
buckingham,,05,-36.35,140.583333
buckingham,,08,-33.4,116.333333
buckinghams mill,,08,-33.4,116.333333
buckland,,06,-42.6,147.716667
buckland,,07,-36.883333,146.85
buckland lower,,07,-36.8,146.85
buckleboo,,05,-32.916667,136.2
buckley,,07,-38.233333,144.1
buckleys swamp,,07,-37.85,142.066667
buckrabanyule,,07,-36.25,143.516667
budden,,02,-32.5,150.083333
buddigower,,02,-34.05,147.016667
buderim,15228,04,-26.683333,153.05
budgee budgee,,02,-32.533333,149.666667
budgeree,,07,-38.416667,146.333333
budgeree east,,07,-38.45,146.383333
budgerum east,,07,-35.766667,143.766667
budgewoi,,02,-33.233333,151.566667
buffalo,,07,-38.65,146.033333
buffalo river,,07,-36.633333,146.683333
buff road,,07,-37.966667,145.016667
bugaldie,,02,-31.133333,149.116667
bugilbone,,02,-30.25,148.833333
builyan,,04,-24.533333,151.383333
bukalong,,02,-36.8,149.2
bukkulla,,02,-29.5,151.133333
bulading,,08,-33.366667,116.616667
bulahdelah,,02,-32.416667,152.216667
bulart,,07,-37.55,141.95
bulby brush,,02,-32.15,152.216667
bulga,,02,-32.666667,151.016667
bulgandramine,,02,-32.6,148.116667
bulgandry,,02,-35.616667,146.616667
bulgary,,02,-35.066667,146.966667
bulgong,,02,-31.616667,152.283333
bulgroo,,04,-25.8,143.983333
bulimba,,04,-27.45,153.058333
bullabul,,07,-36.6,143.883333
bulla,,07,-37.633333,144.8
bullabulling,,08,-31.016667,120.533333
bullah delah,,02,-32.416667,152.216667
bullamalito,,02,-34.883333,149.75
bullaring,,08,-32.5,117.733333
bullarook,,07,-37.533333,144.016667
bullarto,,07,-37.4,144.233333
bullawa creek,,02,-30.316667,149.983333
bull creek,,05,-35.233333,138.75
bulleen,,07,-37.766667,145.083333
bullenbalong,,02,-36.266667,148.716667
bullenbong,,02,-35.166667,146.933333
bullengarook,,07,-37.516667,144.483333
bullfinch,,08,-30.983333,119.1
bullhead,,07,-36.366667,147.3
bulliac,,02,-31.916667,152.033333
bulli,,02,-34.333333,150.916667
bullioh,,07,-36.2,147.333333
bull island,,05,-36.95,140.183333
bullock creek,,04,-17.716667,144.516667
bullsbrook,,08,-31.666667,116
bulls creek,,05,-35.233333,138.75
bulls swamp,,07,-38.216667,145.916667
bullumwaal,,07,-37.633333,147.533333
bullyard,,04,-24.95,152.066667
buln buln,,07,-38.1,145.933333
buln buln east,,07,-38.083333,146
bulong,,08,-30.75,121.8
bulumwaal,,07,-37.633333,147.533333
bulwer,,04,-27.066667,153.366667
bulwer cottages,,04,-27.066667,153.366667
bulyee,,08,-32.366667,117.516667
bumbaldry,,02,-33.9,148.466667
bumberrah,,07,-37.8,147.833333
bumberry,,02,-33.2,148.483333
bumbunga,,05,-33.916667,138.233333
bunaloo,,02,-35.783333,144.583333
bunbartha,,07,-36.216667,145.316667
bunburra,,04,-28.066667,152.683333
bunbury,26370,08,-33.333333,115.633333
bundaberg,52478,04,-24.85,152.35
bundaburra,,02,-33.516667,147.716667
bundaburrah,,02,-33.516667,147.716667
bundalaguah,,07,-38.033333,147.016667
bundaleer,,05,-33.466667,138.533333
bundalong,,07,-36.033333,146.166667
bundalong south,,07,-36.1,146.183333
bundamba,,04,-27.616667,152.8
bundannon,,02,-34.9,150.516667
bundanoon,,02,-34.65,150.3
bunda north,,02,-33.65,145.683333
bundarra,,02,-30.166667,151.066667
bundeena,,02,-34.083333,151.15
bundella,,02,-31.583333,149.983333
bundella creek,,02,-31.666667,150.05
bundera bundera,,08,-22.4,113.8
bunding,,07,-37.516667,144.166667
bundook,,02,-31.883333,152.133333
bundure,,02,-35.166667,146
buneru,,04,-23.95,150.166667
bungadoo,,04,-24.983333,152.066667
bungalally,,07,-36.8,142.25
bungalow flat,,02,-33.25,151.333333
bungaree,,05,-33.75,138.566667
bungaree,,07,-37.566667,144
bungaree norah,,02,-33.283333,151.566667
bungarre,,07,-37.566667,144
bungawalbin,,02,-29.033333,153.283333
bung bong,,07,-37.066667,143.616667
bungeet,,07,-36.3,146.05
bungeluke,,07,-36.066667,143.383333
bungendore,,02,-35.25,149.433333
bungeworgorai,,04,-26.583333,148.716667
bungil,,07,-36.066667,147.35
bungonia,,02,-34.85,149.95
bungowannah,,02,-36.016667,146.766667
bungulla,,02,-29.133333,151.983333
bungulluping,,08,-31.966667,118.233333
bungunya,,04,-28.433333,149.65
bungwahl,,02,-32.4,152.45
buniche,,08,-33,118.816667
buninyong,,07,-37.666667,143.916667
bunjil,,08,-29.65,116.366667
bunketch,,08,-30.433333,117.166667
bunnabunoo,,02,-32.5,151.533333
bunnaby,,02,-34.45,149.983333
bunnaloo,,02,-35.783333,144.583333
bunnan,,02,-32.05,150.583333
buntine,,08,-29.983333,116.566667
bunyah,,02,-32.166667,152.216667
bunyip,,07,-38.1,145.716667
burabadji,,08,-31.216667,116.8
buraja,,02,-35.866667,146.366667
burakin,,08,-30.516667,117.166667
buralyang,,02,-33.966667,146.766667
buramilong,,02,-31.666667,148.5
burbanks,,08,-31.05,121.133333
burbidge,,08,-31.55,119.566667
burcher,,02,-33.533333,147.25
burdett,,02,-33.416667,148.6
burekup,,08,-33.3,115.816667
burges,,08,-31.816667,116.783333
burgooney,,02,-33.383333,146.583333
burkes flat,,07,-36.65,143.55
burketown,,04,-17.716667,139.566667
burleigh,,04,-28.1,153.45
burleigh,,07,-37.833333,145.433333
burleigh heads,,04,-28.1,153.45
burlington,,07,-37.033333,145.233333
burnbank,,07,-37.233333,143.6
burncluith,,04,-26.633333,150.716667
burndale,,07,-38.483333,145.666667
burnett heads,,04,-24.766667,152.4
burngup,,08,-33.033333,118.7
burnie,19976,06,-41.066667,145.916667
burnima,,02,-36.866667,149.25
burns,,02,-32.083333,141
burnt bridge,,02,-31.1,152.816667
burnt yards,,02,-33.583333,149.016667
burpengary,8280,04,-27.166667,152.95
burra,,05,-33.666667,138.933333
burracoppin,,08,-31.383333,118.483333
burradoo,,02,-34.5,150.4
burraga,,02,-33.95,149.533333
burragate,,02,-37,149.616667
burragorang,,02,-34.05,150.416667
burramine south,,07,-36.05,145.866667
burrandong,,02,-32.683333,149.166667
burraneer,,02,-34.066667,151.133333
burran rock,,08,-31.25,118
burrapine,,02,-30.733333,152.633333
burrawang,,02,-34.6,150.516667
burrell creek,,02,-31.933333,152.3
burren junction,,02,-30.116667,148.966667
burrereo,,07,-36.516667,142.733333
burrier,,02,-34.883333,150.466667
burringbar,,02,-28.433333,153.483333
burrinjuck,,02,-35,148.6
burrowye,,07,-36.033333,147.55
burrumba,,04,-25.2,152.533333
burrumbeet,,07,-37.466667,143.666667
burrumbela,,02,-35.783333,149.95
burrum,,04,-25.333333,152.583333
burrum,,07,-36.616667,142.733333
burrumbuttock,,02,-35.8,146.783333
burrundie,,03,-13.533333,131.7
burrungule,,05,-31.733333,140.583333
burtville,,08,-28.783333,122.65
burua,,04,-23.95,151.216667
burwood,,02,-33.883333,151.1
busbys flat,,02,-29.033333,152.8
bushfield,,07,-38.333333,142.516667
bushley,,04,-23.533333,150.25
bushy park,,06,-42.7,146.9
bushy park,,07,-37.866667,147.033333
busselton,12374,08,-33.65,115.333333
bustard head,,04,-24.033333,151.766667
butcher creek,,04,-17.35,145.683333
butchers creek,,04,-17.35,145.683333
bute,,05,-33.866667,138.016667
buthurra,,04,-20.983333,148.866667
butingitch,,07,-37.283333,142.933333
butler,,05,-34.116667,136.1
butlers gorge,,06,-42.283333,146.283333
butler tanks,,05,-34.1,136.166667
buxton,,02,-34.25,150.533333
buxton,,04,-25.2,152.533333
buxton,,07,-37.416667,145.716667
byabarra,,02,-31.533333,152.55
byaduk,,07,-37.95,141.966667
byaduk north,,07,-37.9,141.966667
byanbunnoo,,04,-27.55,148.75
byangum,,02,-28.35,153.366667
byee,,04,-26.183333,151.85
byer,,04,-21.15,148.6
byerock,,02,-30.65,146.4
byfield,,04,-22.833333,150.666667
byford,,08,-32.216667,116
bygalorie,,02,-33.466667,146.8
bygoo,,02,-34.266667,146.866667
bylands,,07,-37.35,144.966667
bylong,,02,-32.333333,150.116667
bymount,,04,-26.066667,148.533333
byng,,02,-33.35,149.166667
byrneside,,07,-36.416667,145.183333
byrnestown,,04,-25.516667,151.75
byrneville,,07,-36.5,142.35
byrock,,02,-30.65,146.4
byron bay,6764,02,-28.65,153.616667
byron,,02,-29.683333,151.1
bywong,,02,-35.166667,149.333333
cabanda,,04,-27.616667,152.583333
cabandilla,,04,-26.633333,151.066667
cabarlah,,04,-27.433333,152
cabawin,,04,-27.333333,150.25
caboolture,21478,04,-27.083333,152.95
caboonbah,,04,-27.15,152.483333
cadell,,05,-34.033333,139.75
cadgee,,02,-36.15,149.916667
cadia,,02,-33.466667,149
cadjangarry,,02,-36.433333,149.85
cadoux,,08,-30.783333,117.133333
caffey,,04,-27.7,152.216667
cairns,154318,04,-16.916667,145.766667
caitup,,08,-33.75,121.85
cajildry,,02,-31.983333,147.333333
calarie,,02,-33.333333,148.016667
calca,,05,-33.083333,134.35
calcarra,,08,-31.133333,116.466667
caldermeade,,07,-38.25,145.533333
caldwell,,02,-35.633333,144.5
calen,,04,-20.9,148.766667
calimpa,,02,-29.366667,150.15
calingiri,,08,-31.1,116.45
caliph,,05,-34.666667,140.283333
calivil,,07,-36.266667,144.066667
cal lal,,02,-34.066667,141.083333
callandoon north,,04,-28.483333,150.183333
callawadda,,07,-36.8,142.8
callawadda south,,07,-36.9,142.8
calleen,,02,-33.783333,147.1
callide,,04,-24.316667,150.466667
callignee,,07,-38.333333,146.583333
callignee north,,07,-38.316667,146.6
callignee south,,07,-38.383333,146.616667
callington,,05,-35.116667,139.016667
calliope,,04,-24,151.2
callo,,02,-36.616667,150.033333
caloola,,02,-33.6,149.433333
caloote,,05,-34.966667,139.266667
caloundra,38714,04,-26.8,153.133333
calpatanna,,05,-33.016667,134.366667
calrossie,,07,-38.483333,146.666667
caltowie,,05,-33.183333,138.483333
calulu,,07,-37.8,147.516667
calvert,,04,-27.666667,152.516667
cambalong,,02,-36.816667,149.083333
cambelltown,,05,-34.883333,138.666667
camberwarra,,02,-34.833333,150.566667
camberwell,,02,-32.483333,151.083333
camberwell,,07,-37.833333,145.066667
camboon,,02,-32.716667,149.966667
camboon,,04,-25.05,150.433333
cambooya,,04,-27.716667,151.866667
cambrai,,05,-34.65,139.283333
cambrian hill,,07,-37.633333,143.833333
cambridge,,06,-42.833333,147.45
camden,,02,-34.05,150.7
camden haven,,02,-31.65,152.8
cameby,,04,-26.6,150.483333
camenana,,06,-41.183333,145.966667
camerons pocket,,04,-20.95,148.716667
camira creek,,02,-29.25,152.966667
cammeray,,02,-33.8225,151.215833
camoola,,04,-22.983333,144.483333
camooweal,,04,-19.916667,138.116667
campania,,06,-42.666667,147.416667
campbell,,07,-35.3,149.15
campbellfield,,07,-37.683333,144.95
campbellfields,,02,-34.433333,148.633333
campbell park,,05,-35.633333,139.183333
campbells bridge,,07,-36.933333,142.783333
campbells creek,,07,-37.1,144.216667
campbells forest,,07,-36.6,144.133333
campbells plains,,04,-28.15,152.1
campbelltown,,02,-34.066667,150.816667
campbelltown,,05,-34.883333,138.666667
campbell town,,06,-41.916667,147.5
campbelltown,,07,-37.2,143.95
campbelltown south,,02,-34.1,150.816667
camp creek,,02,-28.85,151.033333
camperdown,,07,-38.233333,143.15
camp fire,,02,-31.183333,151.433333
campion,,08,-31.033333,118.483333
camp mountain,,04,-27.4,152.883333
camurra,,02,-29.4,149.916667
canadian,,07,-37.583333,143.883333
canalpin,,04,-27.586389,153.410833
canary island,,07,-35.983333,143.85
canary island south,,07,-36.05,143.866667
canbelego,,02,-31.566667,146.316667
canberra,324025,01,-35.283333,149.216667
cancanning,,08,-33.133333,117.566667
candelo,,02,-36.766667,149.683333
cangai,,02,-29.5,152.483333
cania,,04,-24.633333,150.966667
canimbla,,02,-33.75,148.583333
canna,,08,-28.9,115.85
cannawigara,,05,-36.25,140.666667
cannie,,07,-35.733333,143.433333
cannington,,08,-32.016667,115.95
cannon creek,,04,-28.583333,151.866667
cannonvale,,04,-20.283333,148.7
cannon valley,,04,-20.283333,148.683333
cann river,,07,-37.566667,149.166667
cannum,,07,-36.3,142.25
canoblas,,02,-33.3,149.066667
canobolas,,02,-33.3,149.066667
canoelands,,02,-33.5,151.066667
canoona,,04,-23.083333,150.266667
canowie belt,,05,-33.183333,138.75
canowie,,05,-33.4,138.75
canowindra,,02,-33.566667,148.666667
canterbury,,04,-25.383333,141.883333
canungra,,04,-28.033333,153.166667
canyan leigh,,02,-34.583333,150.1
canyon leigh,,02,-34.583333,150.1
capalaba,,04,-27.516667,153.183333
cape barren island,,06,-40.383333,148.016667
cape bridgewater,,07,-38.35,141.433333
cape bridgewater lower,,07,-38.35,141.433333
cape clear,,07,-37.783333,143.616667
capeen,,02,-28.666667,152.583333
capel,,08,-33.566667,115.55
capella,,04,-23.083333,148.016667
capels crossing,,07,-35.633333,143.433333
cape otway,,07,-38.85,143.516667
capercup,,08,-33.516667,116.733333
cape river,,04,-20.466667,145.483333
capertee,,02,-33.15,149.983333
cape york,,04,-10.716667,142.466667
cape york telegraph station,,04,-10.716667,142.466667
caping,,04,-20.616667,148.583333
captains flat,,02,-35.583333,149.433333
carabost,,02,-35.6,147.716667
caragabal,,02,-33.833333,147.75
carag carag,,07,-36.466667,144.916667
caralue,,05,-33.366667,136.2
caralulup,,07,-37.2,143.633333
caramut,,07,-37.95,142.516667
carani,,08,-30.983333,116.4
carapooee,,07,-36.7,143.333333
carapook,,07,-37.55,141.533333
carawa,,05,-32.383333,134.2
carbarup,,08,-34.516667,117.7
carbeen,,04,-17.15,145.433333
carbine,,08,-30.483333,120.9
carboor,,07,-36.633333,146.55
carboor upper,,07,-36.666667,146.533333
carbrook,,04,-27.683333,153.25
carbunup,,08,-33.7,115.183333
carcoar,,02,-33.6,149.133333
cardiff,,02,-32.95,151.666667
cardigan,,07,-37.533333,143.75
cardinia,,07,-38.15,145.416667
cardup,,08,-32.25,116
cardwell,,04,-18.266667,146.033333
carey gully,,05,-34.966667,138.766667
carey's gully,,05,-34.966667,138.766667
cargerie,,07,-37.8,143.966667
cargo,,02,-33.416667,148.816667
carilla,,08,-32.033333,116.133333
carina,,07,-35.25,141.1
carinda,,02,-30.466667,147.683333
caringbah,,02,-34.05,151.133333
carinyah,,08,-32.083333,116.166667
carisbrook,,07,-37.033333,143.816667
carlecatup,,08,-33.833333,117.333333
carlingford,,02,-33.783333,151.05
carlisle river,,07,-38.566667,143.383333
carlsruhe,,07,-37.283333,144.5
carlton,,06,-42.866667,147.683333
carmel,,08,-32.016667,116.1
carmila,,04,-21.916667,149.416667
carmila west,,04,-21.916667,149.35
carnage,,08,-30.383333,120.933333
carnamah,,08,-29.7,115.883333
carnarvon,,06,-43.15,147.85
carnarvon,7392,08,-24.866667,113.633333
carnavon,,06,-43.15,147.85
carngham,,07,-37.583333,143.583333
caroda,,02,-30,150.4
caroline,,05,-37.9,140.933333
caroling,,08,-32.066667,117.5
caron,,08,-29.583333,116.3
carool,,02,-28.233333,153.416667
caroona,,02,-31.4,150.416667
carpa,,05,-33.75,136.683333
carpendeit,,07,-38.383333,143.266667
carpina,,02,-32.316667,146.683333
carrabin,,08,-31.383333,118.683333
carrajung,,07,-38.366667,146.683333
carrajung lower,,07,-38.4,146.733333
carrajung south,,07,-38.383333,146.733333
carranballac,,07,-37.7,143.216667
carrar,,04,-20.75,143.1
carrathool,,02,-34.416667,145.433333
carrick,,02,-34.7,149.883333
carrick,,06,-41.533333,147
carrieton,,05,-32.433333,138.533333
carrington,,02,-32.666667,152.016667
carripook,,05,-35.016667,138.75
carroll,,02,-30.983333,150.433333
carroll gap,,02,-30.933333,150.533333
carrolls gap,,02,-30.933333,150.533333
carrolup,,08,-33.75,117.433333
carron,,07,-36.3,142.716667
carrow brook,,02,-32.3,151.316667
carrow,,05,-34.1,136.333333
carrs creek,,02,-29.65,152.933333
carruchan,,04,-18.216667,145.916667
carrum,,07,-38.083333,145.133333
carrum downs,,07,-38.1,145.183333
carrum north,,07,-38.05,145.15
carstairs,,04,-19.65,147.4
cartacup,,08,-33.566667,119.816667
cartmeticup,,08,-33.466667,117.533333
carwarp,,07,-34.466667,142.2
cascade,,02,-30.233333,152.783333
cascades,,06,-42.916667,147.266667
cascade station,,00,-29.033333,167.966667
cashmore,,07,-38.316667,141.483333
casino,9539,02,-28.866667,153.05
cassady,,04,-18.633333,146.333333
cassidy,,04,-18.633333,146.333333
cassilis,,02,-32,149.983333
cassilis,,07,-37.216667,147.6
cassowary,,04,-16.5,145.4
castella,,07,-37.516667,145.433333
casterton,,07,-37.583333,141.4
castlecrag,,02,-33.8,151.216667
castledean,,04,-26.533333,150.266667
castle doyle,,02,-30.616667,151.766667
castle hill,,02,-33.733333,151
castlemaine,6604,07,-37.066667,144.216667
castle mountain,,02,-31.516667,150.75
catamaran,,06,-43.55,146.9
catani,,07,-38.2,145.633333
cathcart,,02,-36.833333,149.366667
catherine hill bay,,02,-33.166667,151.633333
cathkin,,07,-37.15,145.583333
cathu,,04,-20.816667,148.633333
cathundral,,02,-31.916667,147.833333
caulfield,,07,-37.883333,145.016667
caurnamont,,05,-34.85,139.583333
cavendish,,07,-37.516667,142.033333
caversham,,08,-31.883333,115.966667
caveside,,06,-41.616667,146.416667
cawarral,,04,-23.266667,150.666667
cawdor,,02,-34.1,150.666667
cawdor,,04,-27.466667,151.9
caweambah,,02,-32.666667,152.15
cawongla,,02,-28.6,153.1
cecil plains,,04,-27.533333,151.2
cedar brush,,02,-33.166667,151.283333
cedar grove,,04,-27.866667,152.983333
cedar party creek,,02,-31.8,152.383333
cedar point,,02,-28.683333,153
cedarton,,04,-26.85,152.816667
ceduna,,05,-32.116667,133.666667
celebration,,08,-31.016667,121.583333
cement hills,,04,-28.333333,151.5
cement mills,,04,-28.333333,151.5
central bucca,,02,-30.2,153.1
central colo,,02,-33.433333,150.833333
central lansdowne,,02,-31.75,152.466667
central tilba,,02,-36.3,150.066667
ceratodus,,04,-25.283333,151.15
ceres,,07,-38.166667,144.266667
cervantes,,08,-30.500556,115.063889
cessnock,16394,02,-32.833333,151.35
cethana,,06,-41.483333,146.166667
chacola,,02,-36.116667,149.183333
chadford,,04,-26.483333,149.25
chadoora,,08,-32.766667,116.216667
chain of ponds,,05,-34.816667,138.833333
chakola,,02,-36.116667,149.183333
challambra,,07,-36.25,142.533333
chambigne,,02,-29.733333,152.783333
chandada,,05,-32.75,134.683333
chapingah,,04,-26.483333,151.383333
chapman bore,,05,-35.133333,139.55
chapple vale,,07,-38.633333,143.316667
charam,,07,-36.95,141.516667
charbon,,02,-32.883333,149.966667
charleston,,05,-34.916667,138.9
charlestown,,02,-32.95,151.666667
charleville,,04,-26.4,146.25
charleyong,,02,-35.25,149.916667
charlotte bay,,02,-32.333333,152.516667
charlotte waters,,03,-25.916667,134.916667
charlton,,04,-27.533333,151.866667
charlton,,07,-36.266667,143.35
charlwood,,04,-28.016667,152.566667
charra,,05,-32.083333,133.333333
charringa,,04,-17.133333,145.833333
charters towers,9574,04,-20.1,146.266667
chatham,,02,-31.9,152.483333
chatsbury,,02,-34.55,149.8
chatswood,,02,-33.8,151.183333
chatsworth,,02,-29.383333,153.233333
chatsworth island,,02,-29.383333,153.233333
chedaring,,08,-31.783333,116.366667
cheepie,,04,-26.633333,145.016667
cheerulla,,04,-26.566667,152.766667
chelmsford,,02,-28.7,153.133333
chelsea,,07,-38.05,145.116667
chelsea heights,,07,-38.033333,145.133333
cheltenham,,05,-34.866667,138.516667
cheltenham,,07,-37.969444,145.048056
chepstowe,,07,-37.583333,143.5
cheritons find,,08,-31.816667,119.633333
cherrilong,,07,-38.583333,146.883333
cherry gardens,,05,-35.066667,138.65
cherry gully,,04,-28.416667,152.033333
cherrypool,,07,-37.1,142.183333
cherry tree hill,,02,-29.533333,150.983333
cherry tree pool,,08,-33.75,117.283333
cherryville,,05,-34.916667,138.766667
cheshunt,,07,-36.8,146.433333
chetwynd,,07,-37.283333,141.416667
chetwynd east,,07,-37.233333,141.433333
cheviot,,07,-37.233333,145.466667
chewko,,04,-17.066667,145.383333
chewton,,07,-37.083333,144.266667
chichester,,02,-32.2,151.616667
childers,,04,-25.25,152.266667
childers,,07,-38.3,146.116667
chillagoe,,04,-17.15,144.533333
chillilup,,08,-34.333333,118.616667
chillingollah,,07,-35.25,143.05
chillingollah east,,07,-35.266667,143.2
chiltern,,07,-36.166667,146.616667
chiltern valley,,07,-36.133333,146.533333
chilverton,,04,-17.566667,145.516667
chinbingina,,05,-32.216667,134.2
chinchilla,,04,-26.75,150.633333
chinderah,,02,-28.233333,153.55
chinkapook,,07,-35.183333,142.95
chinocup,,08,-33.533333,118.383333
chinokup,,08,-33.533333,118.383333
chinta,,05,-31.983333,133.8
chipping norton,,02,-33.9,150.95
chirrup,,07,-36.166667,143.133333
chiselhurst,,07,-37.633333,145.333333
chittaway point,,02,-33.316667,151.45
chittering,,08,-31.483333,116.1
chorkerup,,08,-34.816667,117.7
chowerup,,08,-34.1,116.666667
chowey,,04,-25.466667,151.933333
christies,,07,-38.533333,146.4
christmas hills,,06,-40.9,145
christmas hills,,07,-37.65,145.333333
christmastown,,07,-36.116667,146.55
chudleigh,,06,-41.533333,146.466667
chullora,,02,-33.9,151.05
chumbrumba,,04,-17.3,145.583333
churchill,,04,-27.65,152.75
churum,,04,-9.416667,142.6
chute,,07,-37.333333,143.383333
cinnabar,,04,-26.116667,152.183333
cinnibar,,04,-26.116667,152.183333
circle valley,,08,-33.083333,121.683333
city of greater wollongong,,02,-34.433333,150.883333
city of sydney,,02,-33.883333,151.216667
clackline,,08,-31.733333,116.533333
clairview,,04,-22.116667,149.533333
clairville,,02,-29.716667,151.7
clampton,,08,-29.933333,119.1
clandulla,,02,-32.883333,149.966667
clanside,,04,-20.933333,148.816667
clapham,,05,-34.991389,138.6
clare,,02,-33.416667,143.916667
clare,,04,-19.783333,147.233333
clare,,05,-33.833333,138.6
claremont,,06,-42.783333,147.25
claremont,,08,-31.9875,115.786111
clarence town,,02,-32.583333,151.783333
clarendon,,04,-27.416667,152.533333
clarendon,,05,-35.116667,138.633333
clarendon,,07,-37.7,143.966667
clareval,,02,-32.316667,151.916667
clarevaulx,,02,-29.716667,151.7
clareville,,02,-33.633333,151.316667
clarkefield,,07,-37.483333,144.75
clarke river,,04,-19.216667,145.45
clarke river telegraph station,,04,-19.216667,145.45
clarkes hill,,07,-37.483333,143.983333
clarkfield station,,07,-37.483333,144.75
claude road,,06,-41.433333,146.283333
claverton,,04,-27.366667,145.966667
claypans,,05,-34.816667,139.666667
clayton,,04,-24.933333,152.366667
clayton north,,07,-37.916667,145.133333
clearfield,,02,-29.15,152.933333
clear lake,,07,-36.933333,141.866667
clear ridge,,02,-33.75,147.3
cleary,,08,-30.433333,117.633333
clematis,,07,-37.933333,145.416667
clements gap,,05,-33.516667,138.066667
clergate,,02,-33.183333,149.133333
clermont,,04,-22.816667,147.633333
cleve,,05,-33.7,136.5
clevedon,,04,-19.4,147.016667
cleveland,,04,-27.533333,153.266667
cleveland,,06,-41.8,147.4
clevendon,,04,-19.4,147.016667
clifden,,02,-29.566667,152.916667
cliffdale,,04,-27.466667,151.983333
clifton,,02,-29.033333,151.716667
clifton,,04,-27.916667,151.916667
clifton gardens,,02,-33.841667,151.25
clifton springs,7413,07,-38.15,144.566667
clinton centre,,05,-34.233333,137.916667
clintonvale,,04,-28.1,152.116667
clive,,02,-29.233333,151.85
cloncurry,,04,-20.7,140.5
clonduff,,04,-25.833333,149.9
clontarf,,02,-33.809722,151.256667
clontarf,,04,-27.966667,151.216667
closeburn,,04,-27.333333,152.833333
clothiers creek,,02,-28.333333,153.5
clovass,,02,-28.866667,153.15
clovelly,,02,-33.9125,151.25
cloverlea,,07,-38.233333,146
clowery,,02,-33.75,146.65
cloyna,,04,-26.116667,151.833333
cloyne,,04,-26.116667,151.833333
club terrace,,07,-37.533333,148.95
cluden,,04,-19.316667,146.833333
clumber,,04,-28.066667,152.466667
clunes,,02,-28.733333,153.4
clunes,,07,-37.3,143.783333
clybucca,,02,-30.95,152.95
clydebank,,07,-38.05,147.2
clyde,,02,-33.833333,151.016667
clyde,,07,-38.133333,145.333333
clyde north,,07,-38.116667,145.333333
clydesdale,,07,-37.183333,144.1
coalbank,,04,-27.116667,151.85
coalcliff,,02,-34.25,150.983333
coaldale,,02,-29.4,152.8
coalstoun lakes,,04,-25.616667,151.883333
coalville,,07,-38.25,146.266667
coates,,08,-31.75,116.4
cobains,,07,-38.083333,147.15
cobannah,,07,-37.633333,147.183333
cobar,,02,-31.5,145.816667
cobargo,,02,-36.383333,149.883333
cobark,,02,-31.933333,151.716667
cobaw,,07,-37.266667,144.633333
cobbadah,,02,-30.216667,150.566667
cobba-da-mana,,04,-28.416667,151.233333
cobbadan,,02,-30.216667,150.566667
cobbanah,,07,-37.633333,147.183333
cobbannah,,07,-37.633333,147.183333
cobbitty,,02,-34.016667,150.683333
cobbity,,02,-34.016667,150.683333
cobbora,,02,-32.066667,149.25
cobborah,,02,-32.066667,149.25
cobden,,07,-38.333333,143.066667
cobdog,,05,-34.25,140.4
cobram,,07,-35.916667,145.65
cobrico,,07,-38.3,143.033333
cobungra,,07,-37.1,147.416667
coburg,,07,-37.75,144.966667
cocamba,,07,-35.116667,142.9
cockatoo,,07,-37.933333,145.5
cockatoo creek,,07,-37.933333,145.5
cockatoo valley,,05,-34.616667,138.833333
cockburn,,05,-32.083333,141
cockellineena,,02,-29.683333,146.633333
cockle creek,,02,-32.95,151.633333
cocomingla,,02,-34.033333,148.783333
cocumbark,,02,-32.1,152.283333
codrington,,02,-28.933333,153.233333
codrington,,07,-38.266667,141.966667
coen,,04,-13.933333,143.2
coffee camp,,02,-28.65,153.216667
coffs harbour,62978,02,-30.3,153.133333
coghills creek,,07,-37.383333,143.766667
cohuna,,07,-35.8,144.2
coila,,02,-36.016667,150.1
coimadai,,07,-37.616667,144.466667
colac,9089,07,-38.333333,143.583333
colbinabbin,,07,-36.6,144.816667
colbinabbin west,,07,-36.583333,144.733333
coldstream,,02,-29.583333,153.133333
coldstream,,07,-37.716667,145.366667
colebrook,,06,-42.533333,147.366667
coledale,,02,-34.283333,150.95
coleraine,,07,-37.6,141.7
coles bay,,06,-42.122778,148.288611
coles beach,,07,-38.4,145.1
coleyville,,04,-27.816667,152.9
colignan,,07,-34.55,142.383333
colinroobie,,02,-34.45,146.583333
colinton,,02,-35.866667,149.166667
colinton,,04,-26.933333,152.316667
collanilling,,08,-33.266667,117.5
collarenebri,,02,-29.55,148.583333
collarindabri,,02,-29.55,148.583333
collaroy beach,,02,-33.733333,151.3
collaroy,,02,-33.733333,151.3
collector,,02,-34.916667,149.433333
college green,,04,-27.966667,151.833333
collerina,,02,-29.683333,146.633333
collgar,,08,-31.55,118.366667
collie burn,,08,-33.4,116.183333
collie cardiff,,08,-33.433333,116.2
collie,,02,-31.666667,148.3
collie,6337,08,-33.366667,116.15
collingullie,,02,-35.083333,147.116667
collingwood,,07,-37.8,144.983333
collinroobie,,02,-34.45,146.583333
collins cap,,06,-42.85,147.15
collinsvale,,06,-42.833333,147.183333
collinsville,,04,-20.55,147.85
collinsville,,05,-33.333333,139.15
colly blue,,02,-31.466667,150.133333
colo,,02,-33.433333,150.833333
colosseum,,04,-24.4,151.616667
colo vale,,02,-34.4,150.483333
colston park,,04,-21.566667,149.083333
colton,,05,-33.483333,134.933333
columboola,,04,-26.683333,150.333333
comara,,02,-30.8,152.383333
comaum,,05,-37.266667,140.95
combaning,,02,-34.45,147.683333
combara,,02,-31.133333,148.35
combiebar,,07,-37.383333,149.016667
combienbar,,07,-37.383333,149.016667
comboyne,,02,-31.6,152.483333
come-by-chance,,02,-30.366667,148.483333
comet,,04,-23.6,148.55
comet,,08,-21.233333,119.716667
comet vale,,08,-29.95,121.116667
comleroy,,02,-33.533333,150.683333
comleroy road,,02,-33.533333,150.683333
comma,,02,-36.233333,149.133333
commissioners creek,,02,-28.5,153.316667
comobella,,02,-32.4,148.966667
como,,02,-34,151.066667
compton,,05,-37.766667,140.683333
compton downs,,02,-30.433333,146.566667
conara junction,,06,-41.833333,147.433333
conargo,,02,-35.316667,145.15
concord,,02,-33.866667,151.1
concordia,,05,-34.583333,138.8
condada,,05,-32.8,135.066667
condah,,07,-37.95,141.75
condah south,,07,-38.116667,141.8
condamine,,04,-26.933333,150.133333
condobolin,,02,-33.083333,147.15
condon,,08,-20.016667,119.366667
condong,,02,-28.3,153.433333
condoublin,,02,-33.083333,147.15
condoulpe,,02,-34.766667,143.533333
condowie,,05,-33.766667,138.3
congelin,,08,-32.833333,116.883333
congo park,,02,-35.95,150.15
congupna road,,07,-36.3,145.433333
coningham,,06,-43.083333,147.283333
coningsby,,04,-21.1,149.066667
coniston,,02,-34.45,150.883333
conjola,,02,-35.216667,150.45
conmurra,,05,-37.15,140.283333
connangorach,,07,-36.966667,142.016667
connells point,,02,-33.983333,151.083333
connewarre,,07,-38.266667,144.4
connewirricoo,,07,-37.2,141.466667
conondale,,04,-26.733333,152.716667
contine,,08,-32.866667,116.966667
conway,,04,-20.416667,148.7
cooba,,02,-34.966667,147.883333
coober pedy,,05,-29.016667,134.716667
coobowie,,05,-35.05,137.716667
coocooboonah,,02,-31,150.133333
cooee,,06,-41.066667,145.883333
coogee,,02,-33.916667,151.266667
coogee,,08,-32.116667,115.766667
cooglegong,,08,-21.5,119.4
cookamidgera,,02,-33.2,148.3
cookardinia,,02,-35.566667,147.216667
cook,,05,-30.616667,130.416667
cooke plains,,05,-35.383333,139.55
cookernup,,08,-32.983333,115.883333
cookes plains,,05,-35.383333,139.55
cooktown,,04,-15.466667,145.25
coolabah,,02,-31.033333,146.716667
coolabunia,,04,-26.6,151.9
coolac,,02,-34.95,148.166667
cooladdi,,04,-26.633333,145.466667
coolah,,02,-31.833333,149.7
coolalie,,02,-34.783333,148.983333
coolamateng,,02,-36.4,148.8
coolamatong,,02,-36.4,148.8
coolamon,,02,-34.833333,147.2
coolana,,04,-27.533333,152.55
coolangatta,,02,-34.866667,150.716667
coolangatta,,04,-28.166667,153.533333
coolatai,,02,-29.25,150.75
coolbie,,04,-18.916667,146.266667
coolboogin,,08,-30.95,117.516667
coolcha,,05,-34.916667,139.583333
coolcorra,,04,-23.35,150.65
coolgardie,,08,-30.95,121.166667
coolgarra,,04,-17.566667,145.2
coolimba,,08,-29.858333,114.995833
coolongolook,,02,-32.216667,152.316667
cooloolabin,,04,-26.55,152.883333
cooloondurri,,02,-30.883333,153.033333
coolringdon,,02,-36.283333,148.983333
coolum beach,8555,04,-26.533333,153.1
coolum,,04,-26.533333,153.1
coolup,,08,-32.75,115.866667
cooma,6520,02,-36.233333,149.133333
cooma,,07,-36.416667,145.066667
coomandook,,05,-35.483333,139.7
coombell,,02,-29.016667,152.966667
coomberdale,,08,-30.466667,116.033333
coomera,,04,-27.883333,153.3
coominglah,,04,-24.75,150.833333
coominya,,04,-27.383333,152.5
coomunga,,05,-34.65,135.716667
coonabarabran,,02,-31.266667,149.283333
coonabarrabran,,02,-31.266667,149.283333
coonalpyn,,05,-35.7,139.85
coonamble,,02,-30.95,148.4
coonana,,08,-31.016667,123.116667
coonawarra,,05,-37.3,140.816667
coondle,,08,-31.483333,116.433333
coondoo,,04,-26.166667,152.883333
cooneel,,04,-23.983333,150.166667
coongoola,,04,-27.65,145.9
coonong,,02,-35.133333,146.116667
coonooer bridge,,07,-36.466667,143.316667
coontapoo,,05,-34.633333,135.7
cooperabung,,02,-31.3,152.8
cooper,,02,-35.016667,149.716667
coopernook,,02,-31.833333,152.616667
coopers creek,,07,-37.983333,146.433333
coopers hill,,04,-27.65,152.383333
coopers shoot,,02,-28.683333,153.583333
coorabell creek,,02,-28.633333,153.483333
coorabie,,05,-31.9,132.3
coorabin,,02,-35.466667,146.216667
cooranbong,,02,-33.083333,151.433333
cooran,,04,-16.333333,152.833333
cooranga north,,04,-26.783333,151.383333
coorara,,05,-35.116667,138.516667
coorooman,,04,-23.266667,150.733333
coorow,,08,-29.883333,116.016667
cooroy,,04,-26.416667,152.916667
coorparoo,,04,-27.5,153.05
coorumbung,,02,-33.083333,151.433333
cootamundra,4934,02,-34.65,148.033333
cootamundry,,02,-34.65,148.033333
cootharaba,,04,-26.266667,152.966667
cootra,,05,-33.25,135.866667
cootralantra,,02,-36.266667,148.866667
coowonga,,04,-23.283333,150.716667
cooyal,,02,-32.466667,149.766667
cooyar,,04,-26.983333,151.833333
cope cope,,07,-36.45,143.05
copeland,,02,-32,151.833333
copeton,,02,-29.916667,151.016667
copeville,,05,-34.816667,139.833333
copley,,05,-30.533333,138.433333
copmanhurst,,02,-29.6,152.783333
copperfield,,04,-22.85,147.616667
copperhouse,,05,-33.666667,138.9
copping,,06,-42.816667,147.8
corack,,07,-36.166667,143.05
corack east,,07,-36.116667,143.05
coradgery,,02,-32.85,148.016667
coragulac,,07,-38.266667,143.533333
coraki,,02,-28.983333,153.3
coral ville,,02,-31.783333,152.7
cora lynn,,07,-38.15,145.6
coramba,,02,-30.216667,153.016667
corang,,02,-35.2,150.016667
cordalba,,04,-25.166667,152.216667
cordelia,,04,-18.583333,146.25
cordering,,08,-33.516667,116.666667
coree,,02,-35.366667,145.466667
coreen,,02,-35.766667,146.35
coreinbob,,02,-35.216667,147.633333
corella,,02,-30.75,150.5
corella,,04,-26.1,152.633333
corfield,,04,-21.716667,143.366667
corinda,,04,-27.533333,152.983333
corindhap,,07,-37.883333,143.733333
corindi,,02,-30.016667,153.166667
corinella,,07,-38.416667,145.433333
corinna,,06,-41.65,145.083333
corinthian,,08,-31.116667,119.216667
corio,,07,-38.083333,144.383333
corndale,,02,-28.7,153.366667
cornella,,07,-36.7,144.75
cornella east,,07,-36.65,144.8
cornubia park,,04,-27.666667,153.216667
cornwall,,06,-41.566667,148.133333
corny point,,05,-34.916667,137.05
corobimilla,,07,-34.866667,146.4
coromandel valley,,05,-35.05,138.616667
coromby,,07,-36.55,142.516667
corop,,07,-36.466667,144.8
cororooke,,07,-38.283333,143.516667
corowa,5179,02,-36.033333,146.383333
corrigin,,08,-32.35,117.866667
corrima,,02,-34.366667,150.9
corrimal,,02,-34.366667,150.9
corryong,,07,-36.2,147.883333
cortlinye,,05,-33.016667,136.333333
corunna,,02,-36.283333,150.083333
cosgrove,,07,-36.35,145.666667
cosgrove south,,07,-36.4,145.616667
cosmo newberry,,08,-28,122.9
cosmo newbery,,08,-28,122.9
cossack,,08,-20.7,117.2
costerfield,,07,-36.866667,144.8
cotswold,,04,-28.183333,152.75
cotswold,,07,-37.133333,143.9
cottell's bridge,,07,-37.633333,145.216667
cottesloe,,08,-32,115.766667
cottles bridge,,07,-37.633333,145.216667
cotton vale,,02,-28.55,152
cottonvale,,04,-27.716667,152.466667
cougal,,02,-28.366667,152.966667
coulta,,05,-34.383333,135.466667
countegany,,02,-36.183333,149.45
courabyra,,02,-35.7,148.033333
courangra,,02,-33.466667,151.116667
courela,,05,-32.533333,134.433333
couridjah,,02,-34.233333,150.55
courtlea,,08,-30.316667,116.65
coutts crossing,,02,-29.833333,152.9
cowan cowan,,04,-27.128333,153.363333
cowangie,,07,-35.233333,141.366667
cowaramup,,08,-33.866667,115.083333
cowcowing,,08,-30.983333,117.45
cowell,,05,-33.683333,136.916667
cowerdup,,08,-33.816667,119.966667
cowes,,07,-38.45,145.233333
cow flat,,07,-37.85,145.183333
cowirra,,05,-34.9,139.333333
cowley,,04,-17.683333,146.05
cowleys creek,,07,-38.5,143
cowper,,02,-29.583333,153.083333
cowra,6799,02,-33.833333,148.683333
cowra creek,,02,-36.016667,149.316667
cowwarr,,07,-38.016667,146.683333
crabbes creek,,02,-28.466667,153.5
craboon,,02,-32.033333,149.45
crab tree station,,04,-27.35,153.066667
cracow,,04,-25.3,150.3
cradoc,,06,-43.1,147.066667
cradock,,05,-32.083333,138.5
crafers,,05,-35,138.7
craigallian,,04,-26.083333,152.466667
craigieburn,19728,07,-37.6,144.95
craigie,,02,-37.083333,149.05
cramenton,,07,-34.8,142.45
cramphorne,,08,-31.833333,118.55
crampthorne,,08,-31.833333,118.55
cramsie,,04,-23.4,144.233333
cranbourne,39420,07,-38.083333,145.25
cranbrook,,06,-42.008056,148.076389
cranbrook,,08,-34.25,117.333333
cranbury,,02,-33.4,148.7
craneford,,05,-34.633333,139.066667
cranley,,04,-27.516667,151.95
craven,,02,-32.15,151.933333
cravensville,,07,-36.416667,147.566667
crawford,,04,-26.5,151.816667
crawford river,,02,-32.45,152.133333
crawley-nedlands,,08,-31.983333,115.8
creewah,,02,-36.75,149.366667
creighton creek,,07,-36.866667,145.533333
creighton,,07,-36.783333,145.5
cremorne,,02,-33.833333,151.225
cremorne,,04,-21.133333,149.2
cremorne,,07,-37.833333,145
crescent head,,02,-31.2,152.983333
cresford,,02,-32.433333,151.566667
cressy,,06,-41.683333,147.066667
cressy,,07,-38.033333,143.633333
creswick,,07,-37.416667,143.916667
cribb island,,04,-27.35,153.116667
crib point,6908,07,-38.35,145.2
crichtons,,07,-37.9,145.5
crieghton,,07,-36.783333,145.5
cringila,,02,-34.466667,150.883333
croftby,,04,-28.133333,152.566667
croki,,02,-31.883333,152.6
cromarty,,04,-19.466667,147.05
cromer,,05,-34.766667,139
cronulla beach,,02,-34.05,151.15
cronulla,,02,-34.05,151.15
crooble,,02,-29.266667,150.25
crookes valley,,02,-28.333333,153.316667
crookwell,,02,-34.466667,149.466667
croppa creek,,02,-29.133333,150.3
crossley,,07,-38.3,142.333333
crossman,,08,-32.783333,116.6
crossover,,07,-38.05,145.966667
crowes,,07,-38.683333,143.35
crowlands,,07,-37.15,143.116667
crow mountain,,02,-30.466667,150.766667
crows nest,,02,-33.828056,151.201667
crows nest,,04,-27.266667,152.066667
crowther,,02,-34.116667,148.483333
croxton,,07,-37.783333,142.15
croxton east,,07,-37.8,142.216667
croydon,,02,-33.883333,151.116667
croydon,,04,-18.216667,142.233333
croydon,,07,-37.8,145.283333
croydon north,,07,-37.783333,145.3
crudine,,02,-32.966667,149.7
cryon,,02,-29.916667,148.7
crystal brook,,05,-33.366667,138.2
crystal creek,,02,-28.316667,153.333333
cuballing,,08,-32.833333,117.183333
cubbaroo,,02,-30.166667,149.133333
cucania,,04,-17.25,145.916667
cudal,,02,-33.283333,148.75
cuddell,,07,-34.8,146.35
cuddingwarra,,08,-27.35,117.783333
cudgee,,07,-38.35,142.65
cudgegong,,02,-32.8,149.816667
cudgen,,02,-28.266667,153.55
cudgera creek,,02,-28.383333,153.516667
cudgewa,,07,-36.2,147.75
cudgewa north,,07,-36.116667,147.816667
cudlee creek,,05,-34.85,138.833333
cue,,08,-27.416667,117.9
cuerindi,,02,-30.716667,150.783333
cuerindi north,,02,-30.65,150.766667
culbin,,08,-33.166667,116.833333
culburra,,05,-35.816667,139.966667
culcairn,,02,-35.666667,147.05
culgoa,,07,-35.716667,143.083333
culgoora,,02,-30.283333,149.583333
culham,,08,-31.416667,116.466667
culla,,07,-37.233333,141.65
cullenbone,,02,-32.5,149.516667
cullen bullen,,02,-33.3,150.016667
cullendora,,02,-28.45,152.15
cullenswood,,06,-41.55,148.133333
cullerin,,02,-34.783333,149.416667
cullivel,,02,-35.266667,146.383333
cumbalum,,02,-28.816667,153.533333
cumbamurra,,02,-34.6,148.483333
cumborah,,02,-29.733333,147.783333
cummings,,02,-33.25,141.333333
cummins,,05,-34.266667,135.733333
cumnock,,02,-32.916667,148.766667
cundare,,07,-38.116667,143.566667
cunderdin,,08,-31.65,117.25
cunderdin north,,08,-31.533333,117.216667
cundle,,02,-31.9,152.533333
cundle flat,,02,-31.816667,151.983333
cundletown,,02,-31.9,152.533333
cungena,,05,-32.583333,134.716667
cunjardine,,08,-31.466667,116.783333
cunliffe,,05,-34.083333,137.733333
cunnamulla,,04,-28.066667,145.683333
cunningham,,04,-28.15,151.85
cunninghame,,07,-37.866667,148.033333
cuprona,,06,-41.144167,145.966389
curara,,08,-28.583333,115.566667
curban,,02,-31.55,148.6
curdie,,07,-38.45,142.966667
curdies river,,07,-38.45,142.966667
curdie vale,,07,-38.516667,142.833333
curl curl,,02,-33.766667,151.291667
curlewis,,02,-31.116667,150.266667
curlewis,,07,-38.183333,144.483333
currabubula,,02,-31.266667,150.733333
curracaback,,02,-31.666667,151.633333
curra creek,,02,-32.716667,148.816667
curra,,04,-26.066667,152.583333
curraghmohr,,02,-35.65,145.633333
curramulka,,05,-34.7,137.7
currarong,,02,-35.016667,150.816667
currathool west,,02,-34.416667,145.433333
currawananna,,02,-35.016667,147.083333
currawang,,02,-34.983333,149.516667
currawarna,,02,-35.016667,147.083333
currawong,,02,-34.45,148.366667
currency creek,,05,-35.45,138.766667
curricabark,,02,-31.666667,151.633333
currie,,06,-39.933333,143.866667
currowan,,02,-35.583333,150.166667
currowang,,02,-34.983333,149.516667
currowidgin,,02,-36.933333,148.833333
currumbin,,04,-28.133333,153.466667
curulmundi,,04,-26.416667,150.05
curyo,,07,-35.833333,142.8
custon,,05,-36.45,140.916667
cutella,,04,-27.45,151.816667
cuthbert,,08,-35.015833,117.798333
cygnet,,06,-43.15,147.066667
cygnet river,,05,-35.7,137.516667
cynthia,,04,-25.216667,151.133333
cypress grove,,07,-38.65,146.266667
daadenning creek,,08,-31.766667,117.783333
daceyville,,02,-33.933333,151.233333
dadamarine,,04,-25.866667,151.983333
dadswells bridge,,07,-36.9,142.516667
d'aguilar,,04,-26.983333,152.8
dagun,,04,-26.316667,152.683333
daintree,,04,-16.25,145.316667
dairyville,,02,-30.266667,152.966667
daisy hill,,07,-37.116667,143.716667
daisy park,,02,-33.25,147.783333
dajarra,,04,-21.683333,139.516667
dakabin,,04,-27.233333,152.983333
dalby,9848,04,-27.183333,151.266667
dale bridge,,08,-32.083333,116.816667
dales creek,,02,-31.966667,150.416667
dalgety,,02,-36.5,148.833333
dalkeith,,02,-32,149.966667
dalkeith,,08,-31.995833,115.795833
dalkey,,05,-34.183333,138.45
dallachy,,04,-18.166667,145.933333
dallarnil,,04,-25.4,152.05
dalmalee,,07,-36.05,142.133333
dalma scrub,,04,-23.35,150.25
dalmore,,07,-38.183333,145.416667
dalmore east,,07,-38.166667,145.466667
dalmorton,,02,-29.866667,152.45
dalrymple heights,,04,-21.1,148.516667
dalton,,02,-34.716667,149.183333
dalton,,08,-21.483333,119.233333
dalton mining centre,,08,-21.483333,119.233333
dalveen,,04,-28.483333,151.983333
dalwallinu,,08,-30.283333,116.666667
dalwogan,,04,-26.583333,150.15
dalwogon,,04,-26.583333,150.15
dalysford,,04,-25.016667,151.883333
dalyston,,07,-38.566667,145.55
dalys waters,,03,-16.25,133.366667
daly waters,,03,-16.25,133.366667
damboring,,08,-30.516667,116.7
dampier,,08,-20.666667,116.7
danbulla,,04,-17.15,145.616667
dandaloo,,02,-32.283333,147.633333
dandaragan,,08,-30.666667,115.7
dandarragan,,08,-30.666667,115.7
dandenong,,07,-37.983333,145.2
dandenong west,,07,-37.983333,145.2
danderoo,,04,-28.25,152.233333
dandongadale,,07,-36.8,146.666667
dangarsleigh,,02,-30.6,151.683333
dangin,,08,-32.05,117.316667
dangore,,04,-26.45,151.583333
daniell,,08,-32.6,121.616667
danyo,,07,-35.266667,141.283333
dapper,,02,-32.216667,149.233333
dappil,,04,-25.55,151.633333
dapto,,02,-34.5,150.783333
daradgee,,04,-17.483333,146
darawank,,02,-32.133333,152.483333
darbalara,,02,-35.016667,148.2
darby,,07,-38.983333,146.283333
darch,,07,-37.75,145.116667
dardadine,,08,-33.233333,116.833333
dardanup,,08,-33.4,115.75
dareel,,04,-28.866667,148.816667
dareton,,02,-34.1,142.05
dargal,,04,-26.466667,148.566667
dargo,,07,-37.483333,147.266667
darkan,,08,-33.333333,116.733333
dark corner,,02,-33.333333,149.866667
darke peak,,05,-33.466667,136.2
darkes peak,,05,-33.466667,136.2
darkin,,08,-32.05,116.266667
darley,,07,-37.666667,144.45
darlimurla,,07,-38.366667,146.216667
darlingford,,07,-37.2,146.083333
darling point,,02,-33.870833,151.238889
darlington,,05,-35.033333,138.566667
darlington,,06,-42.586389,148.062222
darlington,,07,-38,143.05
darlington,,08,-31.916667,116.083333
darlington point,,02,-34.566667,146
darnum,,07,-38.183333,146.016667
daroobalgie,,02,-33.333333,148.066667
darouble,,02,-31.683333,147.166667
darra,,04,-27.566667,152.966667
darralume,,02,-32.116667,148.666667
darraweith guim,,07,-37.4,144.9
darriman,,07,-38.45,146.933333
dart dart,,07,-36.4,142.183333
dartmoor,,07,-37.933333,141.283333
dartmouth,,04,-23.516667,144.7
dartmouth,,07,-36.566667,147.583333
darwin,93081,03,-12.466667,130.833333
dashwoods gully,,05,-35.166667,138.7
datatine,,08,-33.466667,117.916667
dattuck,,07,-35.566667,142.3
dauan,,04,-9.416667,142.516667
daveyhurst,,08,-30.05,120.633333
daveyston,,05,-34.466667,138.883333
davidson,,02,-33.733333,151.2
davistown,,02,-33.483333,151.366667
davyhurst,,08,-30.05,120.633333
dawesley,,05,-35.033333,139.95
dawlish,,04,-21.366667,149.15
dawson,,05,-32.8,138.966667
dawson,,07,-37.983333,146.733333
dayboro,,04,-27.183333,152.833333
day dawn,,08,-27.483333,117.85
daylesford,,07,-37.35,144.15
daymar,,04,-28.616667,148.983333
daysdale,,02,-35.65,146.3
day trap,,07,-35.216667,142.766667
day trap north,,07,-35.216667,142.766667
deagon,,04,-27.333333,153.066667
deakin,,07,-36.3,144.966667
dean,,07,-37.45,143.983333
deanmill,,08,-34.25,116.083333
deans marsh,,07,-38.4,143.866667
deauville,,04,-20.283333,148.7
deception bay,16090,04,-27.2,153.033333
deddington,,06,-41.616667,147.416667
dederang,,07,-36.483333,147.016667
dee,,06,-42.283333,146.616667
deep creek,,02,-30.366667,149.833333
deep lead,,07,-37.016667,142.733333
deepwater,,02,-29.433333,151.85
deeral,,04,-17.216667,145.916667
deer park,,02,-34.066667,151.083333
deer park,,07,-37.766667,144.783333
deer vale,,02,-30.35,152.55
deeside,,08,-34.4,116.416667
deeside homestead,,08,-34.4,116.416667
deewhy,,02,-33.75,151.3
degilbo,,04,-25.483333,152
delamere,,05,-35.583333,138.183333
delatite,,07,-37.15,146.133333
delburn,,07,-38.333333,146.233333
delegate,,02,-37.05,148.933333
delegate river,,07,-37.066667,148.8
dellicknora,,07,-37.1,148.7
deloraine,,06,-41.533333,146.666667
delta,,04,-20.016667,148.183333
delungra,,02,-29.666667,150.833333
denham,,08,-25.933333,113.542222
denial bay,,05,-32.1,133.566667
denicull creek,,07,-37.333333,142.9
deniliquin,8024,02,-35.533333,144.966667
denison,,02,-35.95,148.616667
denison,,07,-38.033333,146.883333
denison,,08,-29.283333,114.916667
denman,,02,-32.383333,150.683333
denmark,,08,-34.95,117.35
dennes point,,06,-43.066667,147.35
dennington,,07,-38.366667,142.45
denver,,07,-37.266667,144.3
deptford,,07,-37.583333,147.7
derby,,06,-41.133333,147.783333
derby,,07,-36.65,144.016667
derby,,08,-17.3,123.966667
dereel,,07,-37.816667,143.766667
dergholm,,07,-37.383333,141.216667
dering,,07,-35.35,142.233333
derrimut,,07,-37.816667,144.733333
derrinal,,07,-36.883333,144.633333
derrinallum,,07,-37.95,143.216667
derriwong,,02,-33.1,147.333333
derwent bridge,,06,-42.15,146.233333
derwent,,06,-42.7,146.9
desmond,,08,-33.633333,120.183333
detension river,,06,-40.9,145.483333
detention,,06,-40.9,145.483333
detention river,,06,-40.9,145.483333
detpa,,07,-36.133333,141.85
detpa station,,07,-36.133333,141.85
deuchar,,04,-28.116667,151.95
devan find mining centre,,08,-22.9,119.4
devans find,,08,-22.9,119.4
devans find mining centre,,08,-22.9,119.4
devenish,,07,-36.333333,145.9
devenport,,06,-41.166667,146.35
devereaux,,04,-21.116667,148.916667
devereux creek,,04,-21.116667,148.916667
devereux,,04,-21.116667,148.916667
deverton,,04,-27.683333,152.05
devils elbow,,04,-21.133333,149.166667
deviot,,06,-41.233333,146.933333
devondale,,07,-38.65,143.283333
devon,,07,-38.516667,146.65
devon meadows,,07,-38.166667,145.3
devonport,19318,06,-41.166667,146.35
dewars pool,,08,-31.483333,116.433333
diamond creek,,07,-37.666667,145.15
diapur,,07,-36.316667,141.466667
dicks creek,,04,-21.916667,142.4
didcot,,04,-25.483333,151.866667
digby,,07,-37.8,141.533333
diggers rest,,07,-37.633333,144.733333
diggora,,07,-36.416667,144.583333
diggora west,,07,-36.416667,144.583333
diggorra,,07,-36.416667,144.583333
dignams creek,,02,-36.35,149.966667
dilga,,02,-32.933333,148.616667
dilkoon,,02,-29.5,152.983333
dilston,,06,-41.333333,147.083333
dimboola,,07,-36.466667,142.05
dimbulah,,04,-17.15,145.116667
dindiloa,,08,-28.45,114.8
dingabledinga,,05,-35.266667,138.633333
dingee,,07,-36.366667,144.216667
dingley,,07,-37.966667,145.116667
dingo creek,,02,-31.833333,152.3
dingo,,04,-23.65,149.333333
dingwall,,07,-35.8,143.85
dinmont,,07,-38.616667,143.566667
dinmore,,04,-27.6,152.833333
dinninup,,08,-33.816667,116.55
dinoga,,02,-29.966667,150.6
dinyarrak,,07,-36.316667,141.066667
dirranbandi,,04,-28.583333,148.233333
dirrung,,02,-33.6,145.533333
ditchley,,07,-38.633333,143.583333
dittmer,,04,-20.45,148.4
dixalea,,04,-23.933333,150.283333
dixie,,07,-38.3,142.933333
dixons creek,,07,-37.6,145.416667
djarawong,,04,-17.866667,145.983333
djuan,,04,-27.116667,151.983333
dobbyn,,04,-19.8,140
dobie,,07,-37.316667,143.033333
dobies bight,,02,-28.816667,152.95
dobroyd point,,02,-33.873611,151.144722
docker,,07,-36.516667,146.383333
doconing,,08,-31.85,116.3
docters creek,,04,-27.216667,151.85
doctors creek,,04,-27.216667,151.85
doctors flat,,07,-37.3,147.75
dolans bay,,02,-34.05,151.116667
dollar,,07,-38.566667,146.166667
donald,,02,-30.433333,151.733333
donald,,07,-36.366667,143
donaldson,,04,-19.866667,140.366667
donaldson telegraph station,,04,-19.866667,140.366667
doncaster,,07,-37.783333,145.133333
doncaster east,,07,-37.783333,145.166667
dondangadale,,07,-36.8,146.666667
don,,04,-20.016667,148.2
don,,06,-41.183333,146.3
dongara,,08,-29.25,114.933333
dongarra,,08,-29.25,114.933333
dongolocking,,08,-33.133333,117.816667
donnybrook,,04,-27.005278,153.069444
donnybrook,,07,-37.533333,144.983333
donnybrook,,08,-33.583333,115.816667
don river,,04,-23.983333,150.3
donvale,,07,-37.8,145.183333
dooboobetic,,07,-36.366667,143.2
doodenanning,,08,-31.866667,117.15
doodlakine,,08,-31.583333,117.85
dooen,,07,-36.666667,142.283333
dookie,,07,-36.333333,145.7
doolbi,,04,-25.233333,152.3
doombup,,08,-33.816667,122.033333
doon doon,,02,-28.516667,153.3
doonside,,02,-33.766667,150.866667
dooralong,,02,-33.183333,151.35
dopewarra,,07,-36.783333,141.366667
dora creek,,02,-33.083333,151.5
doreen,,07,-37.6,145.15
dornock,,08,-32.8,118.583333
doroq,,07,-38.1,143.966667
dorrien,,05,-34.5,138.983333
dorrigo,,02,-30.333333,152.7
dorrigo north,,02,-30.283333,152.683333
dorroughby,,02,-28.666667,153.35
dorset vale,,05,-35.1,138.683333
doubtful creek,,02,-28.766667,152.916667
douglas,,07,-37.033333,141.733333
douglas park,,02,-34.183333,150.716667
douglas river,,06,-41.785556,148.250278
dover,,06,-43.333333,147
dover heights,,02,-33.870833,151.279167
dowak,,08,-32.9,121.55
dowerin,,08,-31.2,117.033333
dowlingville,,05,-34.333333,137.916667
downsfield,,04,-26.066667,152.733333
downside,,02,-35,147.35
dows creek,,04,-21.1,148.783333
doyles creek,,02,-32.533333,150.783333
drake,,02,-28.933333,152.4
drapers,,04,-21.25,148.983333
drayton,,04,-27.583333,151.916667
dreeite,,07,-38.183333,143.516667
drik drik,,07,-38,141.3
drill creek,,02,-32.366667,149.066667
drillham,,04,-26.65,149.983333
drinan,,04,-25.05,152.016667
dripstone,,02,-32.65,149
dromana,,07,-38.333333,144.966667
dromedary,,06,-42.733333,147.166667
dromedary upper,,06,-42.716667,147.15
dromore,,02,-32.3,143.85
drouin,,07,-38.133333,145.85
drouin south,,07,-38.166667,145.833333
drouin west,,07,-38.1,145.866667
drumanure,,07,-36.133333,145.5
drumborg,,07,-38.083333,141.6
drummartin,,07,-36.45,144.433333
drummer creek,,04,-25.15,151.633333
drummers creek,,04,-25.15,151.633333
drummond cove,,08,-28.671667,114.611667
drummond,,07,-37.233333,144.333333
drummoyne,,02,-33.853611,151.154167
drung drung,,07,-36.716667,142.333333
dryandra,,08,-32.766667,116.966667
dry creek,,07,-36.95,145.85
dry plain,,02,-36.116667,148.866667
dry plains,,02,-36.116667,148.866667
drysdale,,07,-38.166667,144.566667
duaringa,,04,-23.733333,149.666667
dubbo,29362,02,-32.25,148.616667
dublin,,05,-34.45,138.35
duchess,,04,-21.366667,139.85
duckenfield,,02,-32.733333,151.683333
ducklo,,04,-27.25,151.016667
duck ponds,,05,-34.733333,135.783333
dudauman,,02,-34.583333,147.9
dudawa,,08,-29.383333,115.716667
duddo wells,,07,-35.183333,141.283333
dudinin,,08,-32.883333,117.9
dudley south,,07,-38.6,145.583333
duffield,,04,-26.416667,151.383333
dugandan,,04,-28.016667,152.683333
duggan,,08,-33.15,118.15
dukin,,08,-30.95,117.416667
dulacca,,04,-26.65,149.75
dulacca south,,04,-26.783333,149.783333
dulbelling,,08,-32.05,117.266667
dulbolla,,04,-28.216667,152.883333
dulbydilla,,04,-26.433333,147.383333
duleen,,04,-27.25,151.05
dululu,,04,-23.85,150.25
dulverton,,06,-41.316667,146.416667
dumaresq,,02,-30.466667,151.583333
dumbalk,,07,-38.533333,146.083333
dumbalk north,,07,-38.516667,146.166667
dumbleton,,04,-21.133333,149.1
dumbleyung,,08,-33.316667,117.733333
dum dum,,02,-28.383333,153.333333
dumosa,,07,-35.916667,143.216667
dunach,,07,-37.216667,143.716667
dunalley,,06,-42.888611,147.806944
dunbible creek,,02,-28.383333,153.4
dunbogan,,02,-31.65,152.816667
dunbulbalane,,07,-36.116667,145.566667
duncans creek,,02,-31.366667,151.2
dundarbang,,02,-33,148.983333
dundarrah,,04,-25.65,151.883333
dundas,,04,-27.3,152.616667
dundas,,06,-41.883333,145.433333
dundas,,08,-32.4,121.766667
dundauman,,02,-34.583333,147.9
dundee,,02,-29.566667,151.833333
dundonnell,,07,-37.85,142.983333
dundurrabin,,02,-30.2,152.533333
dunedoo,,02,-32.016667,149.4
dungaree,,02,-32.666667,149.866667
dungarubba,,02,-28.983333,153.383333
dungay,,02,-28.283333,153.366667
dungog,,02,-32.416667,151.766667
dungowan,,02,-31.216667,151.1
dunira,,05,-34.45,140
dunkeld,,02,-33.416667,149.483333
dunkeld,,07,-37.65,142.35
dunluce,,07,-36.9,143.6
dunmore,,02,-34.6,150.85
dunmore,,07,-38.15,141.883333
dunnee,,02,-30.2,150.433333
dunneworthy,,07,-37.2,143.066667
dunns creek,,02,-32.633333,151.633333
dunnstown,,07,-37.6,143.983333
dunnsville,,08,-30.633333,120.883333
dunolly,,07,-36.85,143.733333
dunoon,,02,-28.683333,153.333333
dunorlan,,06,-41.483333,146.55
dunsborough,,08,-33.583333,115.083333
duntroon,,01,-35.3,149.166667
dunvegan,,02,-30.283333,153.016667
dunwich,,04,-27.5,153.4
dunwinnie,,04,-28.55,148.666667
dunwold,,04,-21.166667,148.783333
dural,,02,-33.683333,151.016667
duranbah,,02,-28.316667,153.533333
duranillin,,08,-33.516667,116.783333
duranilling,,08,-33.516667,116.783333
durham lead,,07,-37.7,143.883333
durham ox,,07,-36.133333,143.916667
duri,,02,-31.216667,150.816667
duri,,08,-31.216667,120.2
durikai,,04,-28.2,151.616667
durong,,04,-26.333333,151.25
durras,,02,-35.666667,150.3
durren durren,,02,-33.2,151.4
durrumbul,,02,-28.516667,153.45
durrumbull,,02,-28.516667,153.45
dutson,,07,-38.183333,147.183333
dutton,,05,-34.366667,139.133333
duverney,,07,-38.016667,143.566667
dwarda,,08,-32.766667,116.666667
dwellingup,,08,-32.716667,116.066667
dyers crossing,,02,-32.1,152.3
dysart,,06,-42.566667,147.2
eagleby,,04,-27.683333,153.216667
eagle farm,,04,-27.427778,153.05
eaglehawk,,07,-36.733333,144.25
eaglehawk neck,,06,-43.033333,147.933333
eagle heights,,04,-27.933333,153.2
eagle point,,07,-37.9,147.683333
earlston,,07,-36.55,145.666667
earlwood,,02,-33.95,151.1
east arthur,,08,-33.433333,117.05
east ballina,,02,-28.866667,153.583333
east barron,,04,-17.316667,145.533333
east beverley,,08,-32.033333,117.016667
eastbourne,,02,-36.216667,148.666667
east boyd,,02,-37.066667,149.933333
east boyd town,,02,-37.066667,149.933333
east brisbane,,04,-27.483333,153.041667
eastbrook,,08,-34.4,116.1
eastern creek,,08,-21.683333,120.616667
eastern creek mining centre,,08,-21.683333,120.616667
east evelyn,,04,-17.516667,145.516667
east fremantle,,08,-32.038889,115.766667
east gosford,,02,-33.433333,151.35
east guyong,,02,-33.416667,149.283333
east hills,,02,-33.966667,150.983333
eastholme,,02,-34.033333,146.133333
east kangaloon,,02,-34.566667,150.583333
east kirup mill,,08,-33.7,116.05
east knodut,,08,-30.683333,116.9
east maitland,,02,-32.75,151.583333
east malanda,,04,-17.383333,145.666667
east minto,,02,-34.05,150.866667
eastoakleigh,,07,-37.9,145.116667
east popanyinning,,08,-32.633333,117.25
east toorale,,02,-30.433333,145.4
eastville,,07,-36.85,143.933333
east wickepin,,08,-32.783333,117.65
east witchcliffe,,08,-34.016667,115.116667
eastwood,,02,-33.8,151.083333
eaton,,08,-33.316667,115.716667
eatonsville,,02,-29.633333,152.833333
ebagoola,,04,-14.316667,143.266667
ebbanora,,07,-37.783333,143.166667
ebbw vale,,04,-27.6,152.816667
ebden,,07,-36.15,147.033333
ebenezer,,04,-27.683333,152.633333
ebor,,02,-30.4,152.35
eccleston,,02,-32.25,151.5
echuca,,07,-36.133333,144.75
echuca village,,07,-36.133333,144.816667
echunga,,05,-35.1,138.8
ecklin south,,07,-38.4,142.916667
eddington,,07,-36.883333,143.85
eden,,02,-37.066667,149.9
edenhope,,07,-37.05,141.3
eden park,,07,-37.483333,145.083333
eden valley,,05,-34.65,139.1
edgecombe,,07,-37.183333,144.433333
edge hill,,04,-16.9,145.75
edgeroi,,02,-30.1,149.8
edi,,07,-36.65,146.433333
edillilie,,05,-34.4,135.716667
edithburg,,05,-35.1,137.733333
edithburgh,,05,-35.1,137.733333
edith creek,,06,-40.966667,145.1
edith,,02,-33.8,149.916667
edithvale,,07,-38.033333,145.116667
edi upper,,07,-36.7,146.45
